station_name,station_lat,station_lon,observation_time,temp,feels_like,temp_min,temp_max,pressure,humidity,wind_speed,wind_deg,clouds,precipitation_1h,weather_main,weather_description,collection_hour
Búcsúszentlászló,46.793056,16.932778,2026-03-08 15:32:10.847044,15.84,14.92,15.84,15.84,1027,55,2.31,63,2,0.0,Clear,clear sky,15
Angyalföld,47.549722,19.09,2026-03-08 15:32:12.054205,16.14,14.62,15.56,16.62,1028,31,3.09,90,0,0.0,Clear,clear sky,15
Felsőjánosfa,46.841389,16.544167,2026-03-08 15:32:13.250034,14.32,13.17,14.32,14.32,1027,52,2.04,93,1,0.0,Clear,clear sky,15
Pankasz,46.835833,16.496111,2026-03-08 15:32:14.452805,14.06,12.85,14.06,14.06,1026,51,2.15,95,1,0.0,Clear,clear sky,15
Nagyrákos,46.827222,16.455556,2026-03-08 15:32:15.657741,14.03,12.82,14.03,14.03,1026,51,2.19,96,1,0.0,Clear,clear sky,15
Őriszentpéter,46.828889,16.415278,2026-03-08 15:32:16.854362,14.15,12.95,14.15,14.15,1026,51,2.28,97,1,0.0,Clear,clear sky,15
Törökbálint,47.45,18.908611,2026-03-08 15:32:18.056331,15.91,14.37,15.34,16.39,1028,31,1.79,84,10,0.0,Clear,clear sky,15
Bicske alsó,47.486389,18.642778,2026-03-08 15:32:19.255175,16.89,15.99,15.23,17.3,1028,52,2.58,106,16,0.0,Clouds,few clouds,15
Bajánsenye,46.818056,16.358056,2026-03-08 15:32:20.460539,14.23,13.01,14.23,14.23,1026,50,2.35,94,1,0.0,Clear,clear sky,15
Aquincum,47.566218,19.048273,2026-03-08 15:32:21.667787,16.11,14.59,15.59,16.64,1028,31,1.79,84,6,0.0,Clear,clear sky,15
Piliscsév,47.673889,18.791389,2026-03-08 15:32:22.867641,15.53,13.95,15.18,16.23,1028,31,1.8,110,25,0.0,Clouds,scattered clouds,15
Tát,47.741201,18.64783,2026-03-08 15:32:24.066536,16.51,15.42,16.51,16.51,1027,46,2.04,112,36,0.0,Clouds,scattered clouds,15
Süttő felső,47.756667,18.437222,2026-03-08 15:32:25.276662,14.13,12.96,14.13,14.13,1027,52,2.2,122,48,0.0,Clouds,scattered clouds,15
Budatétény,47.405,19.016389,2026-03-08 15:32:26.499207,16.43,14.91,15.63,16.68,1028,30,3.09,90,0,0.0,Clear,clear sky,15
Seregélyes-Szőlőhegy,47.119444,18.612222,2026-03-08 15:32:27.713190,14.02,12.55,14.02,14.02,1027,41,3.3,84,7,0.0,Clear,clear sky,15
Gödöllő-Állami telepek,47.564444,19.375556,2026-03-08 15:32:28.923385,15.74,14.07,15.08,16.13,1028,27,3.09,90,0,0.0,Clear,clear sky,15
Dunakeszi alsó,47.607778,19.128889,2026-03-08 15:32:30.139656,16.11,14.61,15.56,16.61,1028,32,0.89,11,6,0.0,Clear,clear sky,15
Vác-Alsóváros,47.773056,19.149722,2026-03-08 15:32:31.345699,16.06,15.16,15.91,16.06,1028,55,1.82,135,12,0.0,Clouds,few clouds,15
Szob alsó,47.816667,18.8725,2026-03-08 15:32:32.541694,16.38,15.33,16.38,16.38,1027,48,2.0,104,39,0.0,Clouds,scattered clouds,15
Zalaszentmihály-Pacsa,46.7225,16.951944,2026-03-08 15:32:33.763889,15.75,14.45,15.75,15.75,1026,41,3.09,60,0,0.0,Clear,clear sky,15
Pötréte,46.682778,16.9575,2026-03-08 15:32:34.961305,15.75,14.45,15.75,15.75,1026,41,3.09,60,0,0.0,Clear,clear sky,15
Felsőrajk,46.667222,16.982778,2026-03-08 15:32:36.164528,15.81,14.52,15.81,15.81,1026,41,3.09,60,0,0.0,Clear,clear sky,15
Gelse,46.600556,16.982778,2026-03-08 15:32:37.362299,15.81,14.52,15.81,15.81,1026,41,3.09,60,0,0.0,Clear,clear sky,15
Őrtilos,46.297778,16.887778,2026-03-08 15:32:38.568443,14.85,13.7,14.85,14.85,1026,50,1.95,89,0,0.0,Clear,clear sky,15
Zákány,46.251944,16.9425,2026-03-08 15:32:39.792781,14.71,13.54,14.71,14.71,1026,50,2.38,98,0,0.0,Clear,clear sky,15
Berzence,46.201389,17.143611,2026-03-08 15:32:40.995516,15.28,14.09,15.28,15.28,1026,47,2.76,103,2,0.0,Clear,clear sky,15
Somogyudvarhely,46.163333,17.179722,2026-03-08 15:32:42.200028,15.2,13.98,15.2,15.2,1026,46,2.71,104,2,0.0,Clear,clear sky,15
Bélavár,46.122778,17.207778,2026-03-08 15:32:43.402628,15.06,13.85,15.06,15.06,1026,47,2.56,105,1,0.0,Clear,clear sky,15
Vízvár,46.101389,17.239444,2026-03-08 15:32:44.606403,14.85,13.64,14.85,14.85,1026,48,2.48,104,1,0.0,Clear,clear sky,15
Babócsa,46.028359,17.342276,2026-03-08 15:32:45.811050,14.59,13.38,14.59,14.59,1026,49,2.28,97,0,0.0,Clear,clear sky,15
Péterhida-Komlósd,46.006667,17.358056,2026-03-08 15:32:47.007067,14.52,13.33,14.52,14.52,1026,50,2.22,94,0,0.0,Clear,clear sky,15
Barcs,45.951944,17.446944,2026-03-08 15:32:48.214799,14.31,13.15,14.31,14.31,1026,52,2.19,88,0,0.0,Clear,clear sky,15
Barcs felső,45.958333,17.486389,2026-03-08 15:32:49.414522,14.24,13.08,14.24,14.24,1026,52,2.21,88,0,0.0,Clear,clear sky,15
Középrigóc,45.970556,17.525,2026-03-08 15:32:50.629974,14.17,13.0,14.17,14.17,1026,52,2.23,88,0,0.0,Clear,clear sky,15
Darány,45.992222,17.598611,2026-03-08 15:32:51.832169,14.25,13.11,14.25,14.25,1026,53,2.3,89,0,0.0,Clear,clear sky,15
Kisdobsza,46.012222,17.668056,2026-03-08 15:32:53.031299,14.34,13.21,14.34,14.34,1026,53,2.33,89,0,0.0,Clear,clear sky,15
Nemeske,46.023333,17.705278,2026-03-08 15:32:54.235285,14.37,13.25,14.37,14.37,1026,53,2.36,89,0,0.0,Clear,clear sky,15
Molvány,46.035278,17.748611,2026-03-08 15:32:55.430834,14.33,13.23,14.33,14.33,1026,54,2.35,89,0,0.0,Clear,clear sky,15
Szigetvár,46.043333,17.801944,2026-03-08 15:32:56.637540,14.32,13.22,14.32,14.32,1026,54,2.35,89,1,0.0,Clear,clear sky,15
Nagypeterd,46.039444,17.871667,2026-03-08 15:32:57.848814,16.53,15.65,16.53,16.53,1026,54,2.34,89,1,0.0,Clear,clear sky,15
Szentdénes,46.036667,17.926944,2026-03-08 15:32:59.052328,16.48,15.59,16.48,16.48,1026,54,2.33,88,1,0.0,Clear,clear sky,15
Háros,47.412222,19.035,2026-03-08 15:33:00.254879,16.39,14.89,15.59,16.64,1028,31,3.09,90,0,0.0,Clear,clear sky,15
Nagytétény-Diósd,47.398333,18.974444,2026-03-08 15:33:01.452950,16.39,14.89,15.62,16.68,1028,31,1.79,90,9,0.0,Clear,clear sky,15
Érdliget,47.390278,18.937778,2026-03-08 15:33:02.657270,16.25,14.74,15.54,16.59,1028,31,1.79,90,9,0.0,Clear,clear sky,15
Érd felső,47.381111,18.922222,2026-03-08 15:33:03.858445,16.21,14.7,15.51,16.56,1028,31,1.79,90,9,0.0,Clear,clear sky,15
Érd,47.369722,18.900833,2026-03-08 15:33:05.055994,16.16,14.64,15.47,16.52,1028,31,3.34,86,8,0.0,Clear,clear sky,15
Százhalombatta,47.322222,18.899167,2026-03-08 15:33:06.264701,16.21,14.7,15.45,16.51,1028,31,3.45,80,7,0.0,Clear,clear sky,15
Dunai Finomító,47.294444,18.878889,2026-03-08 15:33:07.471873,16.66,15.19,15.29,17.36,1028,31,3.53,81,7,0.0,Clear,clear sky,15
Ercsi,47.247222,18.875278,2026-03-08 15:33:08.684045,16.85,15.56,15.52,17.59,1028,37,3.55,79,7,0.0,Clear,clear sky,15
Iváncsa,47.177778,18.811944,2026-03-08 15:33:09.898880,13.72,12.11,13.72,13.72,1027,37,3.55,78,7,0.0,Clear,clear sky,15
Pusztaszabolcs,47.139722,18.761667,2026-03-08 15:33:11.098624,13.86,12.29,13.86,13.86,1027,38,3.45,78,7,0.0,Clear,clear sky,15
Szabadegyháza,47.082778,18.704167,2026-03-08 15:33:12.305368,13.9,12.39,13.9,13.9,1027,40,3.28,80,7,0.0,Clear,clear sky,15
Sárosd,47.039722,18.660278,2026-03-08 15:33:13.500615,14.0,12.53,14.0,14.0,1027,41,3.15,82,7,0.0,Clear,clear sky,15
Nagylók,46.979444,18.635833,2026-03-08 15:33:14.707170,13.85,12.36,13.85,13.85,1027,41,3.0,83,7,0.0,Clear,clear sky,15
Sárbogárd,46.896944,18.611944,2026-03-08 15:33:15.909702,14.08,12.61,14.08,14.08,1027,41,2.93,85,7,0.0,Clear,clear sky,15
Rétszilas,46.814167,18.601389,2026-03-08 15:33:17.118261,14.16,12.7,14.16,14.16,1027,41,2.94,85,6,0.0,Clear,clear sky,15
Nagyatád,46.228611,17.354167,2026-03-08 15:33:18.326180,15.37,14.11,15.37,15.37,1026,44,2.73,98,2,0.0,Clear,clear sky,15
Budapest-Keleti,47.500278,19.084167,2026-03-08 15:33:19.520322,16.25,14.74,15.54,16.59,1028,31,3.09,90,0,0.0,Clear,clear sky,15
Ferencváros,47.468611,19.088056,2026-03-08 15:33:20.727478,16.31,14.78,15.56,16.61,1028,30,3.09,90,0,0.0,Clear,clear sky,15
Budapest-Nyugati,47.510833,19.0575,2026-03-08 15:33:21.932960,16.18,14.66,15.55,16.61,1028,31,3.09,90,0,0.0,Clear,clear sky,15
Kőbánya felső,47.491944,19.133889,2026-03-08 15:33:23.136633,16.19,14.65,15.48,16.53,1028,30,3.09,90,0,0.0,Clear,clear sky,15
Rákos,47.488889,19.174722,2026-03-08 15:33:24.345480,16.15,14.6,15.44,16.49,1028,30,3.09,90,0,0.0,Clear,clear sky,15
Rákosrendező,47.525556,19.089444,2026-03-08 15:33:25.538333,16.22,14.71,15.58,16.64,1028,31,3.09,90,0,0.0,Clear,clear sky,15
Zugló,47.511389,19.101389,2026-03-08 15:33:26.754902,16.23,14.72,15.54,16.6,1028,31,3.09,90,0,0.0,Clear,clear sky,15
Mezőtárkány,47.725,20.480278,2026-03-08 15:33:27.958414,14.9,13.7,14.9,14.9,1028,48,3.1,69,15,0.0,Clouds,few clouds,15
Istvántelek,47.550278,19.106389,2026-03-08 15:33:29.155465,16.16,14.64,15.57,16.62,1028,31,3.09,90,0,0.0,Clear,clear sky,15
Rákospalota-Újpest,47.565833,19.111944,2026-03-08 15:33:30.353789,16.29,14.78,15.56,17.64,1027,31,3.09,90,0,0.0,Clear,clear sky,15
Kőbánya alsó,47.483056,19.127222,2026-03-08 15:33:31.553244,16.22,14.68,15.49,16.55,1028,30,3.09,90,0,0.0,Clear,clear sky,15
Kőbánya-Kispest,47.463889,19.149444,2026-03-08 15:33:32.759390,16.22,14.68,15.49,16.55,1028,30,3.09,90,0,0.0,Clear,clear sky,15
Pestszentlőrinc,47.454722,19.182778,2026-03-08 15:33:33.967692,16.15,14.6,15.43,16.49,1028,30,3.09,90,0,0.0,Clear,clear sky,15
Kispest,47.448135,19.157552,2026-03-08 15:33:35.167244,16.23,14.69,15.5,16.55,1028,30,3.09,90,0,0.0,Clear,clear sky,15
Újpest,47.558889,19.079722,2026-03-08 15:33:36.377197,16.12,14.6,15.57,16.62,1028,31,3.09,90,0,0.0,Clear,clear sky,15
Pestszentimre felső,47.413611,19.173333,2026-03-08 15:33:37.572864,16.26,14.72,15.53,16.58,1028,30,3.09,90,0,0.0,Clear,clear sky,15
Dunakeszi,47.626111,19.136111,2026-03-08 15:33:38.778853,16.01,14.5,15.47,16.52,1028,32,0.89,11,6,0.0,Clear,clear sky,15
Dunakeszi-Gyártelep,47.643611,19.135,2026-03-08 15:33:40.001515,16.04,14.54,15.51,16.57,1028,32,2.21,126,6,0.0,Clear,clear sky,15
Alsógöd,47.676944,19.134444,2026-03-08 15:33:41.199243,16.02,14.54,15.51,16.56,1028,33,2.12,130,6,0.0,Clear,clear sky,15
Göd,47.687778,19.1375,2026-03-08 15:33:42.407533,16.03,14.55,15.53,16.58,1028,33,2.12,130,6,0.0,Clear,clear sky,15
Felsőgöd,47.705556,19.143333,2026-03-08 15:33:43.602790,16.09,14.62,15.57,16.62,1028,33,2.03,133,7,0.0,Clear,clear sky,15
Sződ-Sződliget,47.728056,19.154722,2026-03-08 15:33:44.805391,16.08,14.61,15.56,16.62,1028,33,1.96,135,8,0.0,Clear,clear sky,15
Vác,47.782778,19.133056,2026-03-08 15:33:46.006962,16.06,15.18,15.91,16.06,1028,56,1.82,135,12,0.0,Clouds,few clouds,15
Verőce,47.823889,19.029444,2026-03-08 15:33:47.206150,15.9,15.09,15.74,15.9,1028,59,1.42,126,31,0.0,Clouds,scattered clouds,15
Kismaros,47.8275,19.010278,2026-03-08 15:33:48.427953,15.87,15.05,15.87,15.87,1028,59,1.38,124,35,0.0,Clouds,scattered clouds,15
Nagymaros-Visegrád,47.791389,18.959167,2026-03-08 15:33:49.623172,15.89,15.08,15.89,16.05,1028,59,1.45,120,24,0.0,Clouds,few clouds,15
Nagymaros,47.780278,18.952222,2026-03-08 15:33:50.826931,15.97,15.16,15.97,16.12,1028,59,1.45,120,24,0.0,Clouds,few clouds,15
Zebegény,47.801389,18.908889,2026-03-08 15:33:52.036704,15.94,15.13,15.94,16.1,1028,59,1.37,119,34,0.0,Clouds,scattered clouds,15
Szob,47.821111,18.861944,2026-03-08 15:33:53.234948,15.9,15.06,15.9,15.9,1028,58,1.37,117,47,0.0,Clouds,scattered clouds,15
Alagimajor,47.601944,19.153889,2026-03-08 15:33:54.440310,16.08,14.55,15.51,16.57,1028,31,3.09,90,0,0.0,Clear,clear sky,15
Fót,47.611389,19.181667,2026-03-08 15:33:55.639082,15.99,14.45,15.41,16.46,1028,31,2.32,123,7,0.0,Clear,clear sky,15
Fótújfalu,47.615,19.192778,2026-03-08 15:33:56.840697,15.89,14.34,15.3,16.36,1028,31,2.32,123,7,0.0,Clear,clear sky,15
Csomád,47.635556,19.222778,2026-03-08 15:33:58.047243,15.62,14.1,15.03,16.09,1028,33,2.32,123,8,0.0,Clear,clear sky,15
Veresegyház,47.649167,19.288611,2026-03-08 15:33:59.251368,15.77,14.26,15.18,16.24,1028,33,2.37,131,11,0.0,Clouds,few clouds,15
Erdőkertes,47.662222,19.295833,2026-03-08 15:34:00.455660,15.72,14.55,15.14,16.19,1028,46,2.37,131,11,0.0,Clouds,few clouds,15
Őrbottyán,47.685833,19.283611,2026-03-08 15:34:01.653747,15.58,14.45,15.58,16.11,1028,48,2.38,136,11,0.0,Clouds,few clouds,15
Váchartyán,47.725833,19.248889,2026-03-08 15:34:02.859915,15.94,14.92,15.94,15.94,1028,51,2.28,141,11,0.0,Clouds,few clouds,15
Magyarkút-Verőce,47.826111,19.044444,2026-03-08 15:34:04.095429,16.06,15.26,16.06,16.06,1028,59,1.42,126,31,0.0,Clouds,scattered clouds,15
Szokolya,47.871111,19.030556,2026-03-08 15:34:05.298078,11.3,10.0,11.3,11.3,1028,58,1.41,124,47,0.0,Clouds,scattered clouds,15
Berkenye,47.885278,19.071944,2026-03-08 15:34:06.508962,11.99,10.73,11.99,11.99,1028,57,1.45,123,42,0.0,Clouds,scattered clouds,15
Nógrád,47.901944,19.0475,2026-03-08 15:34:07.709710,11.7,10.41,11.7,11.7,1028,57,1.43,121,54,0.0,Clouds,broken clouds,15
Diósjenő,47.94,19.049444,2026-03-08 15:34:09.007539,11.36,10.01,11.36,11.36,1028,56,1.46,119,62,0.0,Clouds,broken clouds,15
Borsosberény,47.971389,19.093056,2026-03-08 15:34:10.215599,12.02,10.66,12.02,12.02,1028,53,1.71,106,50,0.0,Clouds,scattered clouds,15
Nagyoroszi,47.993611,19.101111,2026-03-08 15:34:11.416170,11.88,10.46,11.88,11.88,1028,51,1.8,101,56,0.0,Clouds,broken clouds,15
Drégelyvár,48.001944,19.079444,2026-03-08 15:34:12.620422,12.17,10.8,12.17,12.17,1028,52,1.71,103,76,0.0,Clouds,broken clouds,15
Drégely,48.042222,19.056111,2026-03-08 15:34:13.814657,12.54,11.18,12.54,12.54,1028,51,1.81,99,81,0.0,Clouds,broken clouds,15
Drégelypalánk,48.055,19.046111,2026-03-08 15:34:15.019944,12.7,11.36,12.7,12.7,1028,51,1.82,99,90,0.0,Clouds,overcast clouds,15
Ipolyvece,48.056944,19.106389,2026-03-08 15:34:16.223469,12.59,11.18,12.59,12.59,1028,49,2.13,90,72,0.0,Clouds,broken clouds,15
Dejtár,48.045556,19.196389,2026-03-08 15:34:17.422344,12.43,10.98,12.43,12.43,1028,48,2.26,88,52,0.0,Clouds,broken clouds,15
Ipolyszög,48.054444,19.221944,2026-03-08 15:34:18.637642,12.38,10.9,12.38,12.38,1028,47,2.48,84,51,0.0,Clouds,broken clouds,15
Iklad-Domony,47.658056,19.444444,2026-03-08 15:34:19.832200,16.1,15.02,16.1,16.1,1028,48,2.59,127,11,0.0,Clouds,few clouds,15
Iklad-Domony felső,47.667778,19.428056,2026-03-08 15:34:21.036037,16.09,15.01,15.95,16.09,1028,48,2.59,134,11,0.0,Clouds,few clouds,15
Galgamácsa,47.693889,19.3925,2026-03-08 15:34:22.244161,15.94,14.87,15.94,15.94,1028,49,2.5,140,12,0.0,Clouds,few clouds,15
Vácrátót,47.732778,19.217778,2026-03-08 15:34:23.442735,15.86,14.86,15.86,15.86,1028,52,2.12,138,9,0.0,Clear,clear sky,15
Csörög,47.735833,19.196389,2026-03-08 15:34:24.647150,15.86,14.89,15.71,16.39,1028,53,2.04,137,9,0.0,Clear,clear sky,15
Galgagyörk,47.735278,19.372222,2026-03-08 15:34:25.845714,15.84,14.79,15.84,15.84,1028,50,2.51,142,11,0.0,Clouds,few clouds,15
Püspökhatvan,47.768611,19.366944,2026-03-08 15:34:27.049044,12.02,10.61,12.02,12.02,1028,51,2.42,141,9,0.0,Clear,clear sky,15
Acsa-Erdőkürt,47.801111,19.386111,2026-03-08 15:34:28.250518,11.84,10.41,11.84,11.84,1028,51,2.34,138,8,0.0,Clear,clear sky,15
Galgaguta,47.848611,19.385556,2026-03-08 15:34:29.450050,11.53,10.07,11.53,11.53,1028,51,2.16,128,5,0.0,Clear,clear sky,15
Nógrádkövesd,47.879444,19.371111,2026-03-08 15:34:30.653053,11.68,10.21,11.68,11.68,1028,50,2.1,121,5,0.0,Clear,clear sky,15
Magyarnándor,47.970833,19.356667,2026-03-08 15:34:31.853136,11.62,10.09,11.62,11.62,1028,48,2.21,97,11,0.0,Clouds,few clouds,15
Mohora,47.995556,19.347778,2026-03-08 15:34:33.064382,11.72,10.2,11.72,11.72,1028,48,2.33,90,15,0.0,Clouds,few clouds,15
Szügy,48.036389,19.333056,2026-03-08 15:34:34.271733,11.94,10.42,11.94,11.94,1028,47,2.58,82,27,0.0,Clouds,scattered clouds,15
Balassagyarmat,48.071111,19.293611,2026-03-08 15:34:35.473719,12.12,10.59,12.12,12.12,1028,46,2.67,81,37,0.0,Clouds,scattered clouds,15
Őrhalom,48.078773,19.403936,2026-03-08 15:34:36.677922,11.55,9.99,11.55,11.55,1028,47,2.61,76,37,0.0,Clouds,scattered clouds,15
Hugyag,48.083056,19.421111,2026-03-08 15:34:37.872539,11.55,9.99,11.55,11.55,1028,47,2.61,76,37,0.0,Clouds,scattered clouds,15
Szécsény,48.093056,19.521111,2026-03-08 15:34:39.082744,11.48,9.94,11.48,11.48,1028,48,2.37,73,32,0.0,Clouds,scattered clouds,15
Ludányhalászi,48.1325,19.529444,2026-03-08 15:34:40.289217,11.49,9.92,11.49,11.49,1028,47,2.35,76,47,0.0,Clouds,scattered clouds,15
Nógrádszakál,48.178333,19.521667,2026-03-08 15:34:41.487471,11.46,9.89,11.46,11.46,1028,47,2.32,79,55,0.0,Clouds,broken clouds,15
Ráróspuszta,48.207222,19.541389,2026-03-08 15:34:42.695616,10.94,9.32,10.94,10.94,1028,47,2.22,85,68,0.0,Clouds,broken clouds,15
Litke,48.215833,19.598611,2026-03-08 15:34:43.897914,11.25,9.68,11.25,11.25,1028,48,2.02,88,48,0.0,Clouds,scattered clouds,15
Nyíregyháza külső,47.943056,21.740278,2026-03-08 15:34:45.102818,10.94,9.4,10.94,10.94,1028,50,3.01,43,4,0.0,Clear,clear sky,15
Oros,47.945833,21.806389,2026-03-08 15:34:46.306749,11.13,9.6,11.13,11.13,1028,50,2.95,45,4,0.0,Clear,clear sky,15
Napkor,47.948889,21.873056,2026-03-08 15:34:47.503302,11.37,9.82,11.37,11.37,1028,48,2.76,47,3,0.0,Clear,clear sky,15
Apagy,47.953775,21.939044,2026-03-08 15:34:48.716420,11.46,9.91,11.46,11.46,1028,48,2.71,48,3,0.0,Clear,clear sky,15
Levelek-Magy,47.948056,21.993611,2026-03-08 15:34:49.926249,11.55,10.01,11.55,11.55,1028,48,2.64,50,2,0.0,Clear,clear sky,15
Ófehértó,47.940556,22.041389,2026-03-08 15:34:51.137572,11.53,9.99,11.53,11.53,1028,48,2.7,51,2,0.0,Clear,clear sky,15
Ligettanya,47.951667,22.071389,2026-03-08 15:34:52.349058,11.47,9.93,11.47,11.47,1028,48,2.56,53,1,0.0,Clear,clear sky,15
Baktalórántháza,47.988611,22.083333,2026-03-08 15:34:53.550485,11.43,9.88,11.43,11.43,1028,48,2.45,52,2,0.0,Clear,clear sky,15
Vaja-Rohod,48.006389,22.164167,2026-03-08 15:34:54.778058,11.38,9.88,11.38,11.38,1028,50,2.25,52,1,0.0,Clear,clear sky,15
Rákóczitanya,48.022222,22.178333,2026-03-08 15:34:55.976489,11.33,9.82,11.33,11.33,1028,50,2.2,52,1,0.0,Clear,clear sky,15
Nyírmada,48.059167,22.203056,2026-03-08 15:34:57.183813,11.24,9.75,11.24,11.24,1028,51,1.97,46,1,0.0,Clear,clear sky,15
Tunyogmatolcs,47.960244,22.442247,2026-03-08 15:34:58.394605,11.62,10.2,11.62,11.62,1028,52,1.9,52,0,0.0,Clear,clear sky,15
Tunyogmatolcs alsó,47.966025,22.464713,2026-03-08 15:34:59.590994,11.63,10.21,11.63,11.63,1028,52,1.8,50,0,0.0,Clear,clear sky,15
Fehérgyarmat,47.979167,22.524444,2026-03-08 15:35:00.796317,11.69,10.27,11.69,11.69,1028,52,1.33,40,0,0.0,Clear,clear sky,15
Penyige,47.995278,22.566944,2026-03-08 15:35:01.996798,11.75,10.31,11.75,11.75,1028,51,1.23,36,0,0.0,Clear,clear sky,15
Nagyszekeres,47.976111,22.6125,2026-03-08 15:35:03.211073,11.78,10.35,11.78,11.78,1028,51,1.15,31,0,0.0,Clear,clear sky,15
Kisszekeres,47.965833,22.629444,2026-03-08 15:35:04.414264,11.8,10.37,11.8,11.8,1028,51,1.33,36,0,0.0,Clear,clear sky,15
Jánkmajtis,47.941944,22.657222,2026-03-08 15:35:05.608592,11.86,10.43,11.86,11.86,1028,51,1.44,36,0,0.0,Clear,clear sky,15
Gacsály,47.926111,22.745,2026-03-08 15:35:06.813376,16.03,15.02,16.03,16.03,1028,51,1.23,22,0,0.0,Clear,clear sky,15
Zajta,47.9025,22.796111,2026-03-08 15:35:08.009243,16.03,14.99,16.03,16.03,1028,50,1.31,20,0,0.0,Clear,clear sky,15
Eperjeske alsó,48.360556,22.19,2026-03-08 15:35:09.216597,10.78,9.35,10.78,10.78,1029,55,1.58,330,1,0.0,Clear,clear sky,15
Mándok,48.326944,22.196389,2026-03-08 15:35:10.417275,10.79,9.33,10.79,10.79,1029,54,1.63,341,1,0.0,Clear,clear sky,15
Tornyospálca,48.268333,22.201944,2026-03-08 15:35:11.613622,10.87,9.42,10.87,10.87,1029,54,1.63,353,1,0.0,Clear,clear sky,15
Aranyosapáti,48.211303,22.253534,2026-03-08 15:35:12.822424,11.08,9.63,11.08,11.08,1029,53,1.5,356,0,0.0,Clear,clear sky,15
Gyüre,48.171389,22.269167,2026-03-08 15:35:14.030400,11.14,9.69,11.14,11.14,1029,53,1.46,13,0,0.0,Clear,clear sky,15
Varsány,48.151722,22.290047,2026-03-08 15:35:15.226915,11.21,9.77,11.21,11.21,1029,53,1.4,20,0,0.0,Clear,clear sky,15
Vásárosnamény,48.126667,22.306111,2026-03-08 15:35:16.434515,11.25,9.81,11.25,11.25,1029,53,1.45,29,0,0.0,Clear,clear sky,15
Vitka,48.095556,22.308056,2026-03-08 15:35:17.631986,11.28,9.82,11.28,11.28,1029,52,1.55,38,0,0.0,Clear,clear sky,15
Nagydobos,48.054167,22.311111,2026-03-08 15:35:18.839177,11.25,9.79,11.25,11.25,1028,52,1.67,44,0,0.0,Clear,clear sky,15
Ópályi,47.997778,22.318333,2026-03-08 15:35:20.037682,11.37,9.92,11.37,11.37,1028,52,2.09,54,0,0.0,Clear,clear sky,15
Nyírcsaholy,47.908056,22.348333,2026-03-08 15:35:21.238401,11.6,10.17,11.6,11.6,1028,52,2.47,54,0,0.0,Clear,clear sky,15
Nagyecsed,47.864722,22.385556,2026-03-08 15:35:22.445997,11.76,10.35,11.76,11.76,1028,52,2.63,52,0,0.0,Clear,clear sky,15
Tiborszállás,47.815278,22.402778,2026-03-08 15:35:23.645065,11.86,10.46,11.86,11.86,1028,52,2.84,52,0,0.0,Clear,clear sky,15
Kiskunhalas,46.434444,19.493611,2026-03-08 15:35:24.853950,13.36,11.77,13.36,13.36,1027,39,3.04,67,0,0.0,Clear,clear sky,15
Kecskemét alsó,46.895833,19.692222,2026-03-08 15:35:26.047647,15.99,14.3,15.99,15.99,1027,25,3.09,90,0,0.0,Clear,clear sky,15
Putnok,48.286667,20.4375,2026-03-08 15:35:27.244442,16.67,15.57,16.67,16.67,1028,45,1.93,106,12,0.0,Clouds,few clouds,15
Bánréve,48.299722,20.351944,2026-03-08 15:35:28.449395,16.66,15.56,16.66,16.66,1028,45,2.02,104,12,0.0,Clouds,few clouds,15
Ipolytarnóc,48.236667,19.629167,2026-03-08 15:35:29.650606,11.13,9.55,11.13,11.13,1028,48,1.98,94,45,0.0,Clouds,scattered clouds,15
Rákosliget,47.486111,19.257778,2026-03-08 15:35:30.865231,16.05,14.47,15.36,16.42,1028,29,3.09,90,0,0.0,Clear,clear sky,15
Ikrény,47.657778,17.524167,2026-03-08 15:35:32.068661,17.08,16.1,17.08,17.08,1027,48,2.84,124,7,0.0,Clear,clear sky,15
Rábapatona,47.648889,17.461944,2026-03-08 15:35:33.264413,17.1,16.12,17.1,17.1,1027,48,2.9,123,7,0.0,Clear,clear sky,15
Enese,47.644167,17.425278,2026-03-08 15:35:34.476874,17.1,16.12,17.1,17.1,1027,48,2.94,121,7,0.0,Clear,clear sky,15
Kóny,47.632222,17.357222,2026-03-08 15:35:35.671266,14.73,13.51,14.73,14.73,1027,48,2.95,121,6,0.0,Clear,clear sky,15
Farád,47.595278,17.195833,2026-03-08 15:35:36.882849,16.12,15.01,16.12,16.12,1027,47,2.78,120,4,0.0,Clear,clear sky,15
Rábatamási,47.592778,17.161389,2026-03-08 15:35:38.088289,16.12,15.01,16.12,16.12,1027,47,2.78,120,4,0.0,Clear,clear sky,15
Szárföld,47.589167,17.123889,2026-03-08 15:35:39.283125,16.1,14.99,16.1,16.1,1027,47,2.71,120,4,0.0,Clear,clear sky,15
Veszkény,47.586944,17.101389,2026-03-08 15:35:40.486284,16.11,14.77,16.11,16.11,1027,38,2.62,121,4,0.0,Clear,clear sky,15
Kapuvár,47.581944,17.046944,2026-03-08 15:35:41.684217,16.09,14.75,16.09,16.09,1027,38,2.47,124,4,0.0,Clear,clear sky,15
Vitnyéd-Csermajor,47.5825,16.987222,2026-03-08 15:35:42.890088,16.1,14.76,16.1,16.1,1027,38,2.35,128,5,0.0,Clear,clear sky,15
Petőháza,47.595278,16.893056,2026-03-08 15:35:44.087096,16.05,14.7,16.05,16.05,1027,38,2.28,133,9,0.0,Clear,clear sky,15
Fertőszentmiklós,47.6,16.858889,2026-03-08 15:35:45.302489,16.05,14.7,15.6,16.05,1027,38,2.28,135,10,0.0,Clear,clear sky,15
Pinnye,47.600278,16.768611,2026-03-08 15:35:46.509138,15.93,14.57,15.48,15.93,1027,38,2.38,143,14,0.0,Clouds,few clouds,15
Fertőboz,47.625,16.691667,2026-03-08 15:35:47.703973,15.77,14.39,15.32,15.77,1027,38,2.5,144,17,0.0,Clouds,few clouds,15
Sopron,47.677778,16.587222,2026-03-08 15:35:48.904413,15.47,14.3,15.02,15.47,1027,47,2.74,143,18,0.0,Clouds,few clouds,15
Fertőszéplak-Fertőd,47.618889,16.850833,2026-03-08 15:35:50.108229,16.07,14.72,15.62,16.07,1027,38,2.35,137,14,0.0,Clouds,few clouds,15
Nyúl,47.587778,17.698056,2026-03-08 15:35:51.310120,17.02,15.59,17.02,18.14,1027,31,4.12,110,0,0.0,Clear,clear sky,15
Pannonhalma,47.547778,17.740833,2026-03-08 15:35:52.517032,16.96,15.52,16.96,18.08,1027,31,4.12,110,0,0.0,Clear,clear sky,15
Tarjánpuszta,47.504722,17.789167,2026-03-08 15:35:53.715843,16.73,15.27,16.73,17.84,1027,31,4.12,110,0,0.0,Clear,clear sky,15
Győrasszonyfa,47.4925,17.799167,2026-03-08 15:35:54.918512,16.66,15.19,16.66,17.77,1027,31,4.12,110,0,0.0,Clear,clear sky,15
Veszprémvarsány,47.443333,17.818333,2026-03-08 15:35:56.114721,16.71,15.64,16.71,17.83,1027,46,2.32,117,23,0.0,Clouds,few clouds,15
Bakonyszentlászló,47.395556,17.8175,2026-03-08 15:35:57.314692,17.58,16.62,16.47,17.58,1027,47,2.34,118,22,0.0,Clouds,few clouds,15
Porva-Csesznek,47.326944,17.841111,2026-03-08 15:35:58.527233,16.59,15.56,16.59,16.59,1027,48,2.39,118,21,0.0,Clouds,few clouds,15
Zirc,47.266667,17.878056,2026-03-08 15:35:59.727971,11.94,10.47,11.94,11.94,1027,49,2.43,114,19,0.0,Clouds,few clouds,15
Eplény,47.192778,17.921667,2026-03-08 15:36:00.934965,12.31,10.85,12.31,12.31,1027,48,2.49,106,15,0.0,Clouds,few clouds,15
Marcaltő,47.4275,17.348889,2026-03-08 15:36:02.135178,18.17,16.88,18.17,18.17,1027,32,1.03,30,0,0.0,Clear,clear sky,15
Szany-Rábaszentandrás,47.460833,17.315278,2026-03-08 15:36:03.334838,18.17,16.88,18.17,18.17,1027,32,1.03,30,0,0.0,Clear,clear sky,15
Egyed-Rábacsanak,47.521944,17.316389,2026-03-08 15:36:04.538001,18.18,17.33,18.18,18.18,1027,49,2.98,126,6,0.0,Clear,clear sky,15
Rábapordány,47.557222,17.315,2026-03-08 15:36:05.738994,18.18,17.33,18.18,18.18,1027,49,2.98,124,6,0.0,Clear,clear sky,15
Albertfalva,47.440784,19.033965,2026-03-08 15:36:06.956272,16.39,14.89,15.62,16.67,1028,31,3.09,90,0,0.0,Clear,clear sky,15
Budafok,47.425833,19.041389,2026-03-08 15:36:08.153828,16.42,14.93,15.62,16.68,1028,31,3.09,90,0,0.0,Clear,clear sky,15
Tétényliget,47.384722,18.955278,2026-03-08 15:36:09.349250,16.39,14.89,15.64,16.7,1028,31,2.24,81,9,0.0,Clear,clear sky,15
Érd alsó,47.379722,18.923056,2026-03-08 15:36:10.547437,16.21,14.7,15.51,16.56,1028,31,1.79,90,9,0.0,Clear,clear sky,15
Tárnok,47.365556,18.873889,2026-03-08 15:36:11.747420,16.24,14.73,15.57,16.62,1028,31,3.37,89,8,0.0,Clear,clear sky,15
Martonvásár,47.321389,18.781667,2026-03-08 15:36:12.951076,17.15,15.94,15.5,17.57,1028,39,3.51,86,8,0.0,Clear,clear sky,15
Baracska,47.297222,18.753333,2026-03-08 15:36:14.148072,17.5,16.32,15.6,17.67,1027,39,3.54,85,7,0.0,Clear,clear sky,15
Pettend,47.26,18.708889,2026-03-08 15:36:15.359645,17.57,16.43,17.57,17.57,1027,40,3.53,86,7,0.0,Clear,clear sky,15
Kápolnásnyék,47.245556,18.692222,2026-03-08 15:36:16.561246,17.6,16.46,17.6,17.6,1027,40,3.51,86,8,0.0,Clear,clear sky,15
Velence,47.226944,18.663889,2026-03-08 15:36:17.755153,17.62,16.51,17.62,17.62,1027,41,3.45,87,8,0.0,Clear,clear sky,15
Velencefürdő,47.218611,18.648056,2026-03-08 15:36:19.038597,13.75,12.25,13.75,13.75,1027,41,3.46,86,8,0.0,Clear,clear sky,15
Gárdony,47.205833,18.624722,2026-03-08 15:36:20.236804,13.81,12.34,13.81,13.81,1027,42,3.39,87,8,0.0,Clear,clear sky,15
Agárd,47.197666,18.604907,2026-03-08 15:36:21.432216,13.81,12.34,13.81,13.81,1027,42,3.39,87,8,0.0,Clear,clear sky,15
Dinnyés,47.179722,18.560833,2026-03-08 15:36:22.638204,13.83,12.39,13.83,13.83,1027,43,3.24,88,7,0.0,Clear,clear sky,15
Székesfehérvár,47.183611,18.424722,2026-03-08 15:36:23.837860,13.9,12.52,13.9,13.9,1027,45,2.87,91,6,0.0,Clear,clear sky,15
Szabadbattyán,47.105278,18.388333,2026-03-08 15:36:25.046787,13.89,12.46,13.89,13.89,1027,43,2.84,91,6,0.0,Clear,clear sky,15
Kiscséripuszta,47.048056,18.355,2026-03-08 15:36:26.243907,14.12,12.71,14.12,14.12,1027,43,2.83,91,6,0.0,Clear,clear sky,15
Lepsény,46.9875,18.248056,2026-03-08 15:36:27.456107,14.34,13.29,14.34,15.46,1027,56,2.86,93,6,0.0,Clear,clear sky,15
Balatonaliga,46.984444,18.171389,2026-03-08 15:36:28.662420,14.15,13.08,14.15,15.27,1027,56,2.92,94,6,0.0,Clear,clear sky,15
Balatonvilágos,46.964167,18.157222,2026-03-08 15:36:29.860151,14.19,13.13,14.19,15.31,1027,56,2.94,94,6,0.0,Clear,clear sky,15
Szabadifürdő,46.926111,18.103333,2026-03-08 15:36:31.065203,14.36,13.31,14.36,15.48,1027,56,2.9,97,5,0.0,Clear,clear sky,15
Ózd alsó,48.227778,20.306111,2026-03-08 15:36:32.263413,16.5,15.38,16.5,16.5,1028,45,1.97,97,9,0.0,Clear,clear sky,15
Ózd,48.2225,20.294722,2026-03-08 15:36:33.458537,16.55,15.44,16.55,16.55,1028,45,1.97,97,9,0.0,Clear,clear sky,15
Alsóboldva,48.212778,20.792222,2026-03-08 15:36:34.668915,15.12,13.91,15.12,16.88,1028,47,2.51,121,18,0.0,Clouds,few clouds,15
Boldva,48.223333,20.790278,2026-03-08 15:36:35.865837,16.87,15.84,15.12,16.87,1028,47,2.51,121,18,0.0,Clouds,few clouds,15
Borsodszirák,48.259167,20.770556,2026-03-08 15:36:37.069262,16.83,15.77,16.83,16.83,1028,46,2.52,123,20,0.0,Clouds,few clouds,15
Edelény alsó,48.279167,20.760833,2026-03-08 15:36:38.268421,9.77,8.54,9.77,9.77,1028,46,2.52,123,20,0.0,Clouds,few clouds,15
Edelény,48.299722,20.749444,2026-03-08 15:36:39.464133,9.82,8.57,9.82,9.82,1028,46,2.56,122,22,0.0,Clouds,few clouds,15
Szendrőlád,48.334444,20.731944,2026-03-08 15:36:40.667351,8.94,7.55,8.94,8.94,1028,45,2.53,118,28,0.0,Clouds,scattered clouds,15
Szendrő,48.400725,20.721346,2026-03-08 15:36:41.873827,10.0,8.8,10.0,10.0,1028,44,2.54,112,36,0.0,Clouds,scattered clouds,15
Szendrő felső,48.409907,20.720148,2026-03-08 15:36:43.076510,10.0,8.8,10.0,10.0,1028,44,2.54,112,36,0.0,Clouds,scattered clouds,15
Szalonna,48.449444,20.722222,2026-03-08 15:36:44.272498,10.17,8.37,10.17,10.17,1028,43,2.5,103,44,0.0,Clouds,scattered clouds,15
Perkupa,48.471389,20.691111,2026-03-08 15:36:45.470530,9.49,8.33,9.49,9.49,1028,43,2.34,102,47,0.0,Clouds,scattered clouds,15
Szemeretelep,47.443056,19.214167,2026-03-08 15:36:46.673713,16.14,14.59,15.43,16.48,1028,30,3.09,90,0,0.0,Clear,clear sky,15
Jósvafő-Aggtelek,48.489722,20.693889,2026-03-08 15:36:47.869883,9.85,8.79,9.85,9.85,1028,43,2.29,97,50,0.0,Clouds,scattered clouds,15
Bódvaszilas,48.5375,20.738056,2026-03-08 15:36:49.072883,9.48,8.34,9.48,9.48,1028,43,2.32,89,54,0.0,Clouds,broken clouds,15
Komjáti,48.5475,20.759722,2026-03-08 15:36:50.272956,9.04,7.86,9.04,9.04,1028,42,2.27,82,57,0.0,Clouds,broken clouds,15
Tornanádaska,48.558333,20.787222,2026-03-08 15:36:51.471283,10.2,8.37,10.2,10.2,1028,42,2.3,81,56,0.0,Clouds,broken clouds,15
Onga,48.121111,20.906667,2026-03-08 15:36:52.681348,11.6,9.94,11.6,15.18,1028,43,2.58,97,17,0.0,Clouds,few clouds,15
Szikszó-Vásártér,48.193056,20.934722,2026-03-08 15:36:53.883895,11.57,10.04,11.57,15.14,1028,48,2.67,110,15,0.0,Clouds,few clouds,15
Szikszó,48.201667,20.941667,2026-03-08 15:36:55.087956,11.58,10.05,11.58,11.58,1028,48,2.69,107,14,0.0,Clouds,few clouds,15
Aszaló,48.219867,20.961466,2026-03-08 15:36:56.284247,11.56,10.0,11.56,11.56,1028,47,2.73,110,13,0.0,Clouds,few clouds,15
Halmaj,48.246667,20.991667,2026-03-08 15:36:57.480494,9.94,8.58,9.94,9.94,1028,46,2.76,109,13,0.0,Clouds,few clouds,15
Csobád,48.277222,21.033889,2026-03-08 15:36:58.683500,10.05,8.31,10.05,10.05,1028,46,2.77,107,12,0.0,Clouds,few clouds,15
Ináncs,48.291111,21.057778,2026-03-08 15:36:59.887908,10.06,8.3,10.06,10.06,1028,45,2.7,103,11,0.0,Clouds,few clouds,15
Forró-Encs,48.3275,21.117778,2026-03-08 15:37:01.102267,10.08,8.32,10.08,10.08,1028,45,2.61,101,12,0.0,Clouds,few clouds,15
Méra,48.363056,21.140278,2026-03-08 15:37:02.302748,9.94,8.79,9.94,9.94,1028,44,2.44,98,15,0.0,Clouds,few clouds,15
Novajidrány,48.404444,21.170556,2026-03-08 15:37:03.514221,13.88,12.47,13.5,13.88,1028,44,2.27,95,17,0.0,Clouds,few clouds,15
Hernádszurdok,48.487222,21.213889,2026-03-08 15:37:04.727147,13.69,11.98,13.42,14.14,1028,33,2.57,70,0,0.0,Clear,clear sky,15
Hidasnémeti,48.508333,21.229722,2026-03-08 15:37:05.924065,13.69,11.98,13.43,14.14,1028,33,2.57,70,0,0.0,Clear,clear sky,15
Mád,48.19,21.268889,2026-03-08 15:37:07.129513,9.77,8.68,9.77,9.77,1028,48,2.32,78,7,0.0,Clear,clear sky,15
Rátka,48.215,21.230278,2026-03-08 15:37:08.332884,10.11,8.43,10.11,10.11,1028,48,2.32,85,8,0.0,Clear,clear sky,15
Tállya,48.226944,21.225278,2026-03-08 15:37:09.529495,10.11,8.43,10.11,10.11,1028,48,2.32,85,8,0.0,Clear,clear sky,15
Golop,48.242778,21.204167,2026-03-08 15:37:10.735269,10.16,8.46,10.16,10.16,1028,47,2.46,94,8,0.0,Clear,clear sky,15
Abaújszántó,48.286944,21.181667,2026-03-08 15:37:11.936437,9.93,8.79,9.93,9.93,1028,46,2.43,97,10,0.0,Clear,clear sky,15
Abaújszántói fürdő,48.268333,21.179722,2026-03-08 15:37:13.140510,10.16,8.43,10.16,10.16,1028,46,2.44,96,9,0.0,Clear,clear sky,15
Abaújkér,48.309444,21.198333,2026-03-08 15:37:14.340960,9.96,8.84,9.96,9.96,1028,45,2.4,98,11,0.0,Clouds,few clouds,15
Boldogkőváralja,48.345,21.208889,2026-03-08 15:37:15.538625,9.94,9.01,9.94,9.94,1028,45,2.14,94,12,0.0,Clouds,few clouds,15
Korlát-Vizsoly,48.365,21.219167,2026-03-08 15:37:16.747458,10.07,8.31,10.07,10.07,1028,45,2.08,94,13,0.0,Clouds,few clouds,15
Fony,48.411389,21.242778,2026-03-08 15:37:17.943618,13.61,12.18,11.94,13.68,1028,44,1.96,92,16,0.0,Clouds,few clouds,15
Hejce-Vilmány,48.419444,21.245556,2026-03-08 15:37:19.153962,13.55,12.11,11.9,13.65,1028,44,1.96,92,16,0.0,Clouds,few clouds,15
Göncruszka,48.445,21.246944,2026-03-08 15:37:20.348235,13.62,12.16,13.36,14.07,1028,43,1.89,90,18,0.0,Clouds,few clouds,15
Gönc,48.470556,21.261389,2026-03-08 15:37:21.555394,13.52,12.05,13.26,13.97,1028,43,1.71,89,17,0.0,Clouds,few clouds,15
Zsujta,48.4925,21.265,2026-03-08 15:37:22.764581,13.54,11.81,13.28,13.99,1029,33,2.57,70,0,0.0,Clear,clear sky,15
Bodrogkeresztúr,48.175556,21.354167,2026-03-08 15:37:23.967125,9.45,8.27,9.45,9.45,1028,49,2.36,67,7,0.0,Clear,clear sky,15
Szegi,48.201944,21.387778,2026-03-08 15:37:25.177398,12.43,11.01,12.43,12.43,1028,49,2.25,63,6,0.0,Clear,clear sky,15
Erdőbénye,48.218056,21.401944,2026-03-08 15:37:26.373818,12.4,10.98,12.4,12.4,1028,49,2.13,62,6,0.0,Clear,clear sky,15
Olaszliszka-Tolcsva,48.258333,21.448056,2026-03-08 15:37:27.574820,12.43,11.01,12.43,12.43,1029,49,1.89,64,7,0.0,Clear,clear sky,15
Bodrogolaszi,48.286944,21.512778,2026-03-08 15:37:28.781658,12.37,11.02,12.37,12.37,1029,52,1.75,62,8,0.0,Clear,clear sky,15
Sárospatak,48.325833,21.566111,2026-03-08 15:37:29.991935,12.32,10.97,12.32,12.32,1029,52,1.6,52,7,0.0,Clear,clear sky,15
Sátoraljaújhely,48.385833,21.657778,2026-03-08 15:37:31.200848,12.4,11.05,12.4,12.4,1029,52,1.02,44,7,0.0,Clear,clear sky,15
Vecsés,47.40855,19.25652,2026-03-08 15:37:32.395661,16.17,14.6,15.47,16.52,1028,29,3.09,90,0,0.0,Clear,clear sky,15
Vecsés-Kertekalja,47.403333,19.271389,2026-03-08 15:37:33.594452,16.21,14.64,15.51,16.56,1028,29,3.09,90,0,0.0,Clear,clear sky,15
Üllő,47.390833,19.348889,2026-03-08 15:37:34.796047,16.16,14.59,15.46,16.51,1028,29,3.09,90,0,0.0,Clear,clear sky,15
Monor,47.34545,19.43701,2026-03-08 15:37:35.998340,16.07,14.49,16.07,16.07,1028,29,3.09,90,0,0.0,Clear,clear sky,15
Pilis,47.279722,19.536389,2026-03-08 15:37:37.202593,14.19,12.71,14.19,16.03,1028,40,2.97,67,6,0.0,Clear,clear sky,15
Albertirsa,47.240278,19.606389,2026-03-08 15:37:38.415890,14.28,12.68,14.28,14.28,1028,35,2.99,72,5,0.0,Clear,clear sky,15
Ceglédbercel-Cserő,47.210278,19.686944,2026-03-08 15:37:39.614865,14.35,12.75,14.35,14.35,1028,35,3.03,73,4,0.0,Clear,clear sky,15
Cegléd,47.182778,19.806111,2026-03-08 15:37:40.835093,14.5,12.92,14.45,16.07,1028,35,3.06,71,3,0.0,Clear,clear sky,15
Abony,47.173056,20.016389,2026-03-08 15:37:42.047526,15.45,14.02,14.52,15.52,1028,37,2.57,60,0,0.0,Clear,clear sky,15
Szolnok,47.179167,20.175833,2026-03-08 15:37:43.257336,15.24,13.81,14.54,15.54,1028,38,2.57,60,0,0.0,Clear,clear sky,15
Szajol,47.170556,20.295278,2026-03-08 15:37:44.457386,15.01,13.56,15.01,15.55,1028,38,2.57,60,0,0.0,Clear,clear sky,15
Törökszentmiklós,47.170278,20.413611,2026-03-08 15:37:45.662337,15.0,13.55,15.0,15.55,1028,38,2.57,60,0,0.0,Clear,clear sky,15
Rákoscsaba-Újtelep,47.4875,19.271944,2026-03-08 15:37:46.867178,16.05,14.47,15.36,16.42,1028,29,3.09,90,0,0.0,Clear,clear sky,15
Rákoscsaba,47.492222,19.284722,2026-03-08 15:37:48.076291,16.05,14.47,15.36,16.41,1028,29,3.09,90,0,0.0,Clear,clear sky,15
Pécel,47.493889,19.338889,2026-03-08 15:37:49.283538,15.92,14.32,15.23,16.29,1028,29,3.09,90,0,0.0,Clear,clear sky,15
Isaszeg,47.537719,19.388955,2026-03-08 15:37:50.480962,15.8,14.19,15.67,16.2,1028,29,3.09,90,0,0.0,Clear,clear sky,15
Gödöllő,47.592222,19.358611,2026-03-08 15:37:51.680527,15.58,13.95,14.92,15.98,1028,29,3.09,90,0,0.0,Clear,clear sky,15
Máriabesnyő,47.595556,19.389722,2026-03-08 15:37:52.883959,15.7,14.45,15.59,16.12,1028,43,2.42,117,11,0.0,Clouds,few clouds,15
Bag,47.641111,19.471667,2026-03-08 15:37:54.083951,16.08,15.0,16.08,16.08,1028,48,2.59,127,11,0.0,Clouds,few clouds,15
Aszód,47.647467,19.492882,2026-03-08 15:37:55.287722,16.16,15.08,16.16,16.16,1028,48,2.64,126,11,0.0,Clouds,few clouds,15
Hévízgyörk,47.638611,19.526667,2026-03-08 15:37:56.486595,11.67,10.15,11.67,11.67,1028,48,2.71,124,11,0.0,Clouds,few clouds,15
Galgahévíz,47.6325,19.558333,2026-03-08 15:37:57.682418,11.7,10.18,11.7,11.7,1028,48,2.78,114,10,0.0,Clear,clear sky,15
Tura,47.626389,19.5975,2026-03-08 15:37:58.896574,11.55,10.01,11.55,11.55,1028,48,2.84,112,10,0.0,Clear,clear sky,15
Hatvan,47.663611,19.671389,2026-03-08 15:38:00.091848,11.5,9.96,11.5,11.5,1028,48,3.1,119,10,0.0,Clear,clear sky,15
Vámosgyörk,47.686111,19.927778,2026-03-08 15:38:01.296575,11.04,9.45,11.04,11.04,1028,48,3.18,98,8,0.0,Clear,clear sky,15
Adács,47.696389,19.975278,2026-03-08 15:38:02.494542,10.89,9.29,10.89,10.89,1028,48,3.13,95,7,0.0,Clear,clear sky,15
Karácsond,47.718056,20.048611,2026-03-08 15:38:03.690900,10.65,9.02,10.65,10.65,1028,48,3.09,94,7,0.0,Clear,clear sky,15
Ludas,47.723889,20.095556,2026-03-08 15:38:04.896804,10.7,9.08,10.7,10.7,1028,48,3.1,89,6,0.0,Clear,clear sky,15
Nagyút,47.72666666666667,20.161388888888887,2026-03-08 15:38:06.094374,10.6,8.97,10.6,10.6,1028,48,3.1,87,6,0.0,Clear,clear sky,15
Kál-Kápolna,47.734167,20.254167,2026-03-08 15:38:07.297487,10.42,8.74,10.42,10.42,1028,47,3.12,82,7,0.0,Clear,clear sky,15
Füzesabony,47.751389,20.415278,2026-03-08 15:38:08.495541,10.13,8.43,10.13,10.13,1028,47,3.07,74,13,0.0,Clouds,few clouds,15
Szihalom,47.766944,20.491944,2026-03-08 15:38:09.690527,15.17,14.0,15.17,15.17,1028,48,2.99,71,17,0.0,Clouds,few clouds,15
Mezőkövesd,47.797222,20.5675,2026-03-08 15:38:10.893076,15.18,14.03,15.18,15.18,1028,49,2.9,67,22,0.0,Clouds,few clouds,15
Mezőkövesd felső,47.807222,20.591389,2026-03-08 15:38:12.089354,15.16,14.01,15.16,16.92,1028,49,2.9,67,22,0.0,Clouds,few clouds,15
Mezőkeresztes-Mezőnyárád,47.845556,20.670278,2026-03-08 15:38:13.295356,15.16,13.67,15.16,16.92,1028,36,2.76,65,24,0.0,Clouds,few clouds,15
Csincse,47.890833,20.764167,2026-03-08 15:38:14.492505,15.18,13.69,15.18,16.94,1028,36,2.76,63,24,0.0,Clouds,few clouds,15
Emőd,47.930556,20.822778,2026-03-08 15:38:15.694201,15.2,13.72,15.2,16.96,1028,36,2.67,68,24,0.0,Clouds,few clouds,15
Nyékládháza,47.9925,20.840556,2026-03-08 15:38:16.898275,15.23,13.75,15.23,16.99,1028,36,2.57,75,23,0.0,Clouds,few clouds,15
Miskolc-Tiszai,48.098611,20.811389,2026-03-08 15:38:18.095792,15.15,13.66,15.15,16.91,1028,36,2.34,99,19,0.0,Clouds,few clouds,15
Felsőzsolca,48.083611,20.866111,2026-03-08 15:38:19.301327,15.18,13.69,15.18,16.93,1028,36,2.47,96,19,0.0,Clouds,few clouds,15
Hernádnémeti-Bőcs,48.051389,20.985,2026-03-08 15:38:20.500272,11.6,9.94,11.6,15.18,1028,43,2.67,81,19,0.0,Clouds,few clouds,15
Tiszalúc,48.039722,21.0575,2026-03-08 15:38:21.708156,11.64,9.98,11.64,15.22,1028,43,2.79,69,18,0.0,Clouds,few clouds,15
Taktaharkány,48.091667,21.128611,2026-03-08 15:38:22.913198,11.69,10.04,11.69,11.69,1028,43,2.7,76,15,0.0,Clouds,few clouds,15
Taktaszada,48.1125,21.149444,2026-03-08 15:38:24.122285,11.7,10.21,11.7,11.7,1028,49,2.64,78,13,0.0,Clouds,few clouds,15
Szerencs,48.155556,21.214444,2026-03-08 15:38:25.326738,11.7,10.21,11.7,11.7,1028,49,2.43,77,8,0.0,Clear,clear sky,15
Mezőzombor,48.156944,21.267778,2026-03-08 15:38:26.534374,10.15,8.5,10.15,10.15,1028,49,2.39,74,8,0.0,Clear,clear sky,15
Tarcal,48.125,21.34,2026-03-08 15:38:27.731871,10.31,8.7,10.31,10.31,1028,50,2.58,59,7,0.0,Clear,clear sky,15
Tokaj,48.112778,21.406667,2026-03-08 15:38:28.941922,9.83,8.54,9.83,9.83,1028,51,2.63,51,5,0.0,Clear,clear sky,15
Rakamaz,48.12,21.475,2026-03-08 15:38:30.147641,10.38,8.81,10.38,10.38,1028,51,2.66,49,4,0.0,Clear,clear sky,15
Görögszállás,48.04,21.555,2026-03-08 15:38:31.354090,10.5,8.94,10.5,10.5,1028,51,2.99,43,4,0.0,Clear,clear sky,15
Nyírtelek,48.005,21.615556,2026-03-08 15:38:32.548589,10.61,9.06,10.61,10.61,1028,51,3.03,41,3,0.0,Clear,clear sky,15
Rákoshegy,47.468611,19.245556,2026-03-08 15:38:33.757705,16.01,14.45,15.31,16.36,1028,30,3.09,90,0,0.0,Clear,clear sky,15
Ecser,47.439444,19.318056,2026-03-08 15:38:34.962702,16.05,14.47,15.36,16.41,1028,29,3.09,90,0,0.0,Clear,clear sky,15
Maglód,47.438889,19.340833,2026-03-08 15:38:36.168194,15.99,14.4,15.3,16.35,1028,29,3.09,90,0,0.0,Clear,clear sky,15
Maglódi nyaraló,47.434167,19.363611,2026-03-08 15:38:37.377996,15.89,14.29,15.2,16.25,1028,29,3.09,90,0,0.0,Clear,clear sky,15
Gyömrő,47.429722,19.393333,2026-03-08 15:38:38.574346,15.83,14.23,15.69,16.22,1028,29,3.09,90,0,0.0,Clear,clear sky,15
Mende,47.426944,19.439722,2026-03-08 15:38:39.779734,15.79,14.18,15.79,16.18,1028,29,3.09,90,0,0.0,Clear,clear sky,15
Szőlősnyaraló,47.450278,19.561111,2026-03-08 15:38:40.987186,16.02,14.85,14.18,16.02,1028,45,2.97,75,8,0.0,Clear,clear sky,15
Sülysáp,47.451944,19.5275,2026-03-08 15:38:42.191827,16.0,14.8,14.16,16.0,1028,44,2.92,75,8,0.0,Clear,clear sky,15
Tápiószecső,47.443056,19.614722,2026-03-08 15:38:43.399578,14.26,12.92,14.26,16.1,1028,45,2.99,75,8,0.0,Clear,clear sky,15
Szentmártonkáta,47.431944,19.680556,2026-03-08 15:38:44.594792,14.29,12.69,14.29,14.29,1028,35,3.03,75,7,0.0,Clear,clear sky,15
Nagykáta,47.409722,19.737778,2026-03-08 15:38:45.801005,14.36,12.77,14.36,14.36,1028,35,3.07,73,7,0.0,Clear,clear sky,15
Farmos,47.355278,19.8375,2026-03-08 15:38:47.008660,14.47,12.89,14.47,14.47,1028,35,3.12,73,5,0.0,Clear,clear sky,15
Tápiószele,47.346313,19.873504,2026-03-08 15:38:48.212847,14.45,12.86,14.45,14.45,1028,35,3.11,73,4,0.0,Clear,clear sky,15
Tápiógyörgye,47.325,19.95,2026-03-08 15:38:49.412264,14.51,12.93,14.51,15.51,1028,35,3.09,71,3,0.0,Clear,clear sky,15
Újszász,47.285833,20.066944,2026-03-08 15:38:50.609590,14.57,13.0,14.55,15.55,1028,35,2.99,65,3,0.0,Clear,clear sky,15
Szurdokpüspöki,47.851944,19.690278,2026-03-08 15:38:51.818717,11.25,9.71,11.25,11.25,1028,49,2.42,116,9,0.0,Clear,clear sky,15
Lőrinci,47.739444,19.673611,2026-03-08 15:38:53.026110,11.44,9.89,11.44,11.44,1028,48,3.15,124,10,0.0,Clear,clear sky,15
Selyp,47.759167,19.670833,2026-03-08 15:38:54.233992,11.41,9.86,11.41,11.41,1028,48,3.1,125,10,0.0,Clear,clear sky,15
Apc-Zagyvaszántó,47.791328,19.66822,2026-03-08 15:38:55.439937,11.41,9.86,11.41,11.41,1028,48,3.0,125,9,0.0,Clear,clear sky,15
Pásztó,47.918889,19.688889,2026-03-08 15:38:56.637573,11.05,9.49,11.05,11.05,1028,49,2.05,101,9,0.0,Clear,clear sky,15
Mátraszőlős-Hasznos,47.938506,19.706122,2026-03-08 15:38:57.846708,10.95,9.38,10.95,10.95,1028,49,1.94,91,10,0.0,Clear,clear sky,15
Tar,47.956111,19.746389,2026-03-08 15:38:59.049363,10.44,8.82,10.44,10.44,1028,49,1.89,81,11,0.0,Clouds,few clouds,15
Mátraverebély,47.968333,19.778611,2026-03-08 15:39:00.255391,10.44,8.82,10.44,10.44,1028,49,1.89,81,11,0.0,Clouds,few clouds,15
Nagybátony,47.981111,19.82,2026-03-08 15:39:01.473919,10.54,8.93,10.54,10.54,1028,49,1.87,74,11,0.0,Clouds,few clouds,15
Kisterenye,48.009444,19.831944,2026-03-08 15:39:02.672461,10.57,8.94,10.57,10.57,1028,48,1.86,72,10,0.0,Clear,clear sky,15
Kisterenye-Bányatelep,48.021389,19.831944,2026-03-08 15:39:03.877199,10.57,8.94,10.57,10.57,1028,48,1.86,72,10,0.0,Clear,clear sky,15
Salgótarján külső,48.089444,19.790833,2026-03-08 15:39:05.081117,10.11,8.43,10.11,10.11,1028,48,1.86,71,9,0.0,Clear,clear sky,15
Balatonfenyves GV,46.7125,17.479167,2026-03-08 15:39:06.288473,16.08,15.1,16.08,16.08,1027,52,2.69,87,4,0.0,Clear,clear sky,15
Várhegyalja,47.737778,18.366667,2026-03-08 15:39:07.484737,13.73,12.52,13.73,13.73,1027,52,2.47,126,45,0.0,Clouds,scattered clouds,15
Imremajor,46.680556,17.499722,2026-03-08 15:39:08.680588,16.11,15.11,16.11,16.11,1027,51,2.72,87,3,0.0,Clear,clear sky,15
Rákospalota-Kertváros,47.578333,19.122778,2026-03-08 15:39:09.889833,16.12,14.6,15.56,16.61,1028,31,3.09,90,0,0.0,Clear,clear sky,15
Vicziántelep,47.675833,19.286111,2026-03-08 15:39:11.094059,15.59,14.46,15.03,16.08,1028,48,2.38,136,11,0.0,Clouds,few clouds,15
Pálmajor,46.662831,17.457526,2026-03-08 15:39:12.303644,16.1,15.07,16.1,16.1,1027,50,2.73,87,3,0.0,Clear,clear sky,15
Somogyszentpál felső,46.649758,17.471404,2026-03-08 15:39:13.503205,16.07,15.06,16.07,16.07,1027,51,2.75,88,3,0.0,Clear,clear sky,15
Somogyszentpál,46.638611,17.478611,2026-03-08 15:39:14.702454,16.06,15.03,16.06,16.06,1027,50,2.78,89,3,0.0,Clear,clear sky,15
Rudnaykert,47.7175,19.257778,2026-03-08 15:39:15.904162,15.9,14.88,15.9,16.42,1028,51,2.28,141,11,0.0,Clouds,few clouds,15
Maroshegy,47.158333,18.406667,2026-03-08 15:39:17.109155,13.89,12.48,13.89,13.89,1027,44,2.88,91,6,0.0,Clear,clear sky,15
Bánhida,47.573703,18.371737,2026-03-08 15:39:18.314484,13.43,12.16,13.43,13.43,1027,51,2.54,110,33,0.0,Clouds,scattered clouds,15
Magyarkút,47.850278,19.045,2026-03-08 15:39:19.518403,11.95,10.72,11.95,11.95,1028,58,1.41,125,39,0.0,Clouds,scattered clouds,15
Becske alsó,47.897222,19.364722,2026-03-08 15:39:20.715087,11.15,9.63,11.15,11.15,1028,50,2.09,112,6,0.0,Clear,clear sky,15
Hosszúberek-Péteri,47.370556,19.389722,2026-03-08 15:39:21.921631,16.1,14.52,16.1,16.49,1028,29,3.09,90,0,0.0,Clear,clear sky,15
Monorierdő,47.308889,19.499167,2026-03-08 15:39:23.125954,16.01,14.71,14.17,16.01,1028,40,2.97,66,7,0.0,Clear,clear sky,15
Ceglédbercel,47.215833,19.658611,2026-03-08 15:39:24.329435,14.34,12.74,14.34,14.34,1028,35,3.02,72,5,0.0,Clear,clear sky,15
Budai út,47.208333,19.731389,2026-03-08 15:39:25.537509,14.38,12.79,14.38,14.38,1028,35,3.04,73,4,0.0,Clear,clear sky,15
Büdöskútpuszta,48.373056,20.726111,2026-03-08 15:39:26.738829,10.07,8.28,10.07,10.07,1028,44,2.55,115,32,0.0,Clouds,scattered clouds,15
Bánrévei Vízmű,48.282778,20.368333,2026-03-08 15:39:27.934830,16.69,15.59,16.69,16.69,1028,45,1.98,104,12,0.0,Clouds,few clouds,15
Rákoskert,47.456389,19.296111,2026-03-08 15:39:29.139895,15.92,14.3,15.23,16.28,1028,28,3.09,90,0,0.0,Clear,clear sky,15
Szirmabesenyő,48.146944,20.783056,2026-03-08 15:39:30.351959,15.08,13.92,15.08,16.84,1028,49,2.29,111,17,0.0,Clouds,few clouds,15
Kitérőgyár,47.766944,19.935278,2026-03-08 15:39:31.557138,10.65,9.02,10.65,10.65,1028,48,2.99,102,8,0.0,Clear,clear sky,15
Tápiószentmárton,47.373333,19.797778,2026-03-08 15:39:32.752581,14.41,12.82,14.41,14.41,1028,35,3.11,73,5,0.0,Clear,clear sky,15
Zagyvarékas,47.244229,20.097435,2026-03-08 15:39:33.947781,15.32,13.87,14.56,15.56,1028,37,2.57,60,0,0.0,Clear,clear sky,15
Abonyi út,47.206401,20.125204,2026-03-08 15:39:35.158225,15.3,13.85,14.56,15.56,1028,37,2.57,60,0,0.0,Clear,clear sky,15
Jászkisér felső,47.438056,20.202222,2026-03-08 15:39:36.362399,15.0,13.68,15.0,15.0,1028,43,2.98,65,4,0.0,Clear,clear sky,15
Szellőhát,47.425556,20.188889,2026-03-08 15:39:37.570725,14.55,13.16,14.55,14.55,1028,42,2.97,64,4,0.0,Clear,clear sky,15
Szilvásvárad-Szalajkavölgy,48.0956,20.38272,2026-03-08 15:39:38.767689,15.25,13.48,15.25,15.25,1028,25,1.77,97,11,0.0,Clouds,few clouds,15
Vásárosnamény külső,48.084444,22.255556,2026-03-08 15:39:39.966843,11.17,9.7,11.17,11.17,1029,52,1.64,39,0,0.0,Clear,clear sky,15
Újváros,46.660556,20.536111,2026-03-08 15:39:41.178557,15.53,14.13,13.32,15.53,1027,38,2.24,60,0,0.0,Clear,clear sky,15
Városi park,46.697778,19.864722,2026-03-08 15:39:42.381532,16.1,14.78,16.1,16.1,1027,39,2.75,68,0,0.0,Clear,clear sky,15
Belsőkamaráspuszta,46.341944,20.848889,2026-03-08 15:39:43.591369,16.14,14.93,16.14,16.14,1027,43,2.15,70,0,0.0,Clear,clear sky,15
Sajószöged,47.945278,20.981667,2026-03-08 15:39:44.788550,11.7,10.05,11.7,15.27,1028,43,2.91,59,22,0.0,Clouds,few clouds,15
Kazincbarcika alsó,48.255278,20.649167,2026-03-08 15:39:45.988232,16.8,15.76,16.8,16.8,1028,47,2.09,120,16,0.0,Clouds,few clouds,15
Nyárjas,46.857778,19.923611,2026-03-08 15:39:47.195165,16.05,14.36,16.05,16.05,1027,25,3.09,90,0,0.0,Clear,clear sky,15
Pogonyipuszta,48.296389,20.381667,2026-03-08 15:39:48.393484,16.65,15.55,16.65,16.65,1028,45,1.98,104,12,0.0,Clouds,few clouds,15
Sióvölgy,46.911103,18.076964,2026-03-08 15:39:49.599577,14.41,13.37,14.41,15.53,1027,56,2.91,97,4,0.0,Clear,clear sky,15
Répáspuszta,46.430278,17.847222,2026-03-08 15:39:50.794072,13.71,12.55,13.71,13.71,1027,54,2.54,85,3,0.0,Clear,clear sky,15
Virányos,48.066667,21.527222,2026-03-08 15:39:51.999332,10.48,8.92,10.48,10.48,1028,51,2.91,44,4,0.0,Clear,clear sky,15
Füzesbokor,47.988611,21.6475,2026-03-08 15:39:53.199883,10.72,9.18,10.72,10.72,1028,51,3.04,41,3,0.0,Clear,clear sky,15
Kunfehértó,46.355833,19.417222,2026-03-08 15:39:54.395152,13.48,11.9,13.48,13.48,1027,39,3.05,67,0,0.0,Clear,clear sky,15
Erdőszél,46.329444,19.395,2026-03-08 15:39:55.601321,13.46,11.91,13.46,13.46,1027,40,3.07,67,0,0.0,Clear,clear sky,15
Jánoshalma,46.293056,19.330278,2026-03-08 15:39:56.800892,13.69,12.16,13.69,13.69,1027,40,3.06,68,0,0.0,Clear,clear sky,15
Mélykút,46.213056,19.370556,2026-03-08 15:39:58.019941,13.8,12.31,13.8,13.8,1027,41,3.01,67,0,0.0,Clear,clear sky,15
Bácsalmás,46.118056,19.346389,2026-03-08 15:39:59.225486,14.02,12.6,14.02,14.02,1027,43,2.95,66,0,0.0,Clear,clear sky,15
Almás,46.116216,19.328803,2026-03-08 15:40:00.429555,14.02,12.6,14.02,14.02,1027,43,2.95,66,0,0.0,Clear,clear sky,15
Bácsbokod-Bácsborsód,46.115833,19.16,2026-03-08 15:40:01.632265,14.19,12.84,14.19,14.19,1027,45,2.89,68,1,0.0,Clear,clear sky,15
Baja,46.187014,18.957602,2026-03-08 15:40:02.825799,14.55,13.26,14.55,14.55,1027,46,2.81,72,2,0.0,Clear,clear sky,15
Harkakötöny,46.458333,19.601944,2026-03-08 15:40:04.027595,15.4,14.01,15.4,15.4,1027,39,3.0,67,0,0.0,Clear,clear sky,15
Tajó,46.473056,19.650556,2026-03-08 15:40:05.222243,15.44,14.03,15.44,15.44,1027,38,2.98,67,0,0.0,Clear,clear sky,15
Kiskunmajsa,46.501667,19.728056,2026-03-08 15:40:06.416150,15.48,14.08,15.48,15.48,1027,38,2.95,67,0,0.0,Clear,clear sky,15
Jászszentlászló,46.565833,19.753611,2026-03-08 15:40:07.619441,13.03,11.38,13.03,13.03,1027,38,2.86,68,0,0.0,Clear,clear sky,15
Galambos,46.625,19.801111,2026-03-08 15:40:08.815748,12.94,11.31,12.94,12.94,1027,39,2.82,69,0,0.0,Clear,clear sky,15
Pestszentimre,47.402222,19.188611,2026-03-08 15:40:10.029733,16.25,14.71,15.52,16.57,1028,30,3.09,90,0,0.0,Clear,clear sky,15
Gyál felső,47.390278,19.204722,2026-03-08 15:40:11.226616,16.27,14.71,15.53,16.58,1028,29,3.09,90,0,0.0,Clear,clear sky,15
Gyál,47.376667,19.219444,2026-03-08 15:40:12.440369,16.29,14.73,15.55,16.61,1028,29,3.09,90,0,0.0,Clear,clear sky,15
Ócsa,47.301389,19.232222,2026-03-08 15:40:13.642069,16.31,14.75,15.56,16.62,1028,29,3.09,90,0,0.0,Clear,clear sky,15
Inárcs-Kakucs,47.247222,19.317778,2026-03-08 15:40:14.838612,16.23,14.95,16.23,16.23,1028,40,3.03,60,7,0.0,Clear,clear sky,15
Dabas,47.194722,19.328889,2026-03-08 15:40:16.044461,16.24,14.96,16.24,16.24,1028,40,2.99,62,6,0.0,Clear,clear sky,15
Gyón,47.178333,19.355556,2026-03-08 15:40:17.241062,16.21,14.93,16.21,16.21,1028,40,2.98,65,6,0.0,Clear,clear sky,15
Hernád,47.161389,19.4025,2026-03-08 15:40:18.439114,12.67,11.01,12.67,12.67,1028,39,2.98,70,5,0.0,Clear,clear sky,15
Bakonygyirót,47.416389,17.811944,2026-03-08 15:40:19.660027,16.59,15.53,16.59,17.71,1027,47,2.33,119,21,0.0,Clouds,few clouds,15
Vinye,47.360317,17.819635,2026-03-08 15:40:20.861557,17.03,16.02,15.91,17.03,1027,47,2.36,118,22,0.0,Clouds,few clouds,15
Nemesgörzsöny,47.402924,17.376385,2026-03-08 15:40:22.066262,18.16,16.87,18.16,18.16,1027,32,1.03,30,0,0.0,Clear,clear sky,15
Rábahíd,47.438618,17.337525,2026-03-08 15:40:23.269560,18.15,16.86,18.15,18.15,1027,32,1.03,30,0,0.0,Clear,clear sky,15
Öskü,47.162222,18.076389,2026-03-08 15:40:24.489202,14.08,12.74,14.08,14.08,1027,46,2.65,100,12,0.0,Clouds,few clouds,15
Márkó,47.1275,17.813889,2026-03-08 15:40:25.690198,14.31,13.08,14.31,14.31,1027,49,2.41,100,10,0.0,Clear,clear sky,15
Nemeskocs,47.203333,17.188889,2026-03-08 15:40:26.884902,18.11,17.31,18.11,18.11,1027,51,2.74,133,5,0.0,Clear,clear sky,15
Zalagyömörő,47.011111,17.220833,2026-03-08 15:40:28.088134,14.13,12.96,14.13,14.13,1027,52,2.43,115,4,0.0,Clear,clear sky,15
Rigács,47.061667,17.199167,2026-03-08 15:40:29.291950,14.12,12.95,14.12,14.12,1027,52,2.51,119,4,0.0,Clear,clear sky,15
Kemenespálfa,47.139722,17.183056,2026-03-08 15:40:30.489306,14.29,13.11,14.29,14.29,1027,51,2.68,129,4,0.0,Clear,clear sky,15
Lentiszombathely,46.611389,16.5725,2026-03-08 15:40:31.701019,15.13,14.06,15.13,15.13,1026,52,1.82,68,0,0.0,Clear,clear sky,15
Ortaháza,46.626667,16.685833,2026-03-08 15:40:32.898634,13.84,12.69,13.84,13.84,1026,54,1.8,57,0,0.0,Clear,clear sky,15
Rádiháza,46.654722,16.765833,2026-03-08 15:40:34.102105,13.7,12.56,13.7,13.7,1026,55,1.89,56,1,0.0,Clear,clear sky,15
Baktüttös,46.690833,16.826389,2026-03-08 15:40:35.313546,15.6,14.68,15.6,15.6,1026,56,2.14,55,1,0.0,Clear,clear sky,15
Budafa,46.851667,16.624722,2026-03-08 15:40:36.508951,13.82,12.69,13.82,13.82,1027,55,1.93,90,1,0.0,Clear,clear sky,15
Zalapatakalja,46.845556,16.603889,2026-03-08 15:40:37.721318,13.89,12.74,13.89,13.89,1027,54,2.0,93,1,0.0,Clear,clear sky,15
Tormásliget,47.430556,16.781667,2026-03-08 15:40:39.019687,15.3,13.98,15.3,15.3,1027,42,2.27,145,4,0.0,Clear,clear sky,15
Belecska,46.64,18.411389,2026-03-08 15:40:40.226690,14.14,12.86,14.14,14.14,1027,48,2.62,83,5,0.0,Clear,clear sky,15
Almár,47.956111,20.356944,2026-03-08 15:40:41.430211,16.46,14.81,14.7,16.46,1028,25,2.08,96,13,0.0,Clouds,few clouds,15
Vasútmúzeum,47.543889,19.099444,2026-03-08 15:40:42.631911,16.16,14.64,15.56,16.62,1028,31,3.09,90,0,0.0,Clear,clear sky,15
Abda,47.690833,17.540556,2026-03-08 15:40:43.827972,17.09,16.08,17.09,17.09,1027,47,2.89,122,7,0.0,Clear,clear sky,15
Vadaspark,47.526111,18.949167,2026-03-08 15:40:45.032843,14.23,12.52,13.76,14.81,1028,31,1.79,113,9,0.0,Clear,clear sky,15
Barosstelep,47.398889,18.989167,2026-03-08 15:40:46.241897,16.41,14.92,15.62,16.68,1028,31,2.24,81,9,0.0,Clear,clear sky,15
Fegyvernek-Örményes,47.194444,20.5575,2026-03-08 15:40:47.453322,15.02,13.7,15.02,15.02,1028,43,2.77,43,3,0.0,Clear,clear sky,15
Zagyvapálfalva,48.068889,19.785,2026-03-08 15:40:48.655529,10.32,8.66,10.32,10.32,1028,48,1.86,69,9,0.0,Clear,clear sky,15
Salgótarján,48.105556,19.807222,2026-03-08 15:40:49.849372,9.68,8.94,9.68,9.68,1028,48,1.86,75,9,0.0,Clear,clear sky,15
Szabadisóstó,46.933889,18.118056,2026-03-08 15:40:51.043012,14.39,13.35,14.39,15.51,1027,56,2.93,96,5,0.0,Clear,clear sky,15
Siófok,46.907778,18.053889,2026-03-08 15:40:52.249883,14.39,13.35,14.39,15.51,1027,56,2.91,97,4,0.0,Clear,clear sky,15
Balatonszéplak felső,46.898056,18.018056,2026-03-08 15:40:53.454040,14.39,13.35,14.39,15.51,1027,56,2.86,99,4,0.0,Clear,clear sky,15
Balatonszéplak alsó,46.891944,17.993333,2026-03-08 15:40:54.661259,14.39,13.35,14.39,15.51,1027,56,1.34,45,4,0.0,Clear,clear sky,15
Zamárdi felső,46.886111,17.969444,2026-03-08 15:40:55.862358,15.52,14.02,14.4,15.52,1027,34,1.34,45,4,0.0,Clear,clear sky,15
Zamárdi,46.88,17.944722,2026-03-08 15:40:57.066948,15.46,13.95,14.34,15.46,1027,34,1.34,45,4,0.0,Clear,clear sky,15
Szántód,46.861944,17.899167,2026-03-08 15:40:58.280332,15.53,14.03,14.41,15.53,1027,34,1.34,45,3,0.0,Clear,clear sky,15
Szőny-Déli,47.735278,18.141944,2026-03-08 15:40:59.483865,17.12,16.17,17.12,17.12,1027,49,2.91,128,36,0.0,Clouds,scattered clouds,15
Várpalota,47.194444,18.149167,2026-03-08 15:41:00.684649,13.33,11.92,13.33,13.33,1027,46,2.53,99,12,0.0,Clouds,few clouds,15
Pétfürdő,47.1675,18.121389,2026-03-08 15:41:01.885073,14.21,12.89,14.21,14.21,1027,46,2.58,99,11,0.0,Clouds,few clouds,15
Hajmáskér,47.141111,18.009444,2026-03-08 15:41:03.080041,13.99,12.67,13.99,15.11,1027,47,2.65,101,13,0.0,Clouds,few clouds,15
Veszprém,47.118889,17.91,2026-03-08 15:41:04.289195,14.9,13.7,13.78,14.9,1027,48,2.56,99,11,0.0,Clouds,few clouds,15
Herend,47.136944,17.760278,2026-03-08 15:41:05.500233,14.09,12.86,14.09,14.09,1027,50,2.38,101,10,0.0,Clear,clear sky,15
Városlőd,47.144167,17.652778,2026-03-08 15:41:06.696835,16.98,16.04,16.98,16.98,1027,50,2.41,108,9,0.0,Clear,clear sky,15
Városlőd-Kislőd,47.133889,17.631111,2026-03-08 15:41:07.897712,17.09,16.16,17.09,17.09,1027,50,2.38,105,9,0.0,Clear,clear sky,15
Ajka,47.105902,17.572938,2026-03-08 15:41:09.094248,17.39,16.49,17.39,17.39,1027,50,2.44,108,7,0.0,Clear,clear sky,15
Ajka-Gyártelep,47.096806,17.555219,2026-03-08 15:41:10.297096,17.44,16.55,17.44,17.44,1027,50,2.44,108,7,0.0,Clear,clear sky,15
Devecser,47.1125,17.435278,2026-03-08 15:41:11.496440,17.84,16.99,17.84,17.84,1027,50,2.54,112,7,0.0,Clear,clear sky,15
Somlóvásárhely,47.124444,17.369167,2026-03-08 15:41:12.698056,17.95,17.11,17.95,17.95,1027,50,2.63,118,6,0.0,Clear,clear sky,15
Tüskevár,47.128611,17.331389,2026-03-08 15:41:13.899981,17.99,17.18,17.99,17.99,1027,51,2.64,120,6,0.0,Clear,clear sky,15
Karakószörcsök,47.133611,17.287778,2026-03-08 15:41:15.097195,14.2,13.01,14.2,14.2,1027,51,2.65,121,6,0.0,Clear,clear sky,15
Kerta,47.151944,17.237222,2026-03-08 15:41:16.300058,14.34,13.16,14.34,14.34,1027,51,2.69,128,5,0.0,Clear,clear sky,15
Boba,47.183333,17.191389,2026-03-08 15:41:17.514421,14.34,13.16,14.34,14.34,1027,51,2.72,132,5,0.0,Clear,clear sky,15
Börgönd,47.140278,18.515,2026-03-08 15:41:18.723335,13.74,12.29,13.74,13.74,1027,43,3.11,88,7,0.0,Clear,clear sky,15
Belsőbáránd,47.102778,18.499722,2026-03-08 15:41:19.921857,13.72,12.27,13.72,13.72,1027,43,3.02,88,6,0.0,Clear,clear sky,15
Zichyújfalu,47.124444,18.6725,2026-03-08 15:41:21.119696,13.65,12.12,13.65,13.65,1027,40,3.38,82,7,0.0,Clear,clear sky,15
Seregélyes,47.121111,18.580556,2026-03-08 15:41:22.327014,13.85,12.41,13.85,13.85,1027,43,3.18,87,7,0.0,Clear,clear sky,15
Polgárdi-Ipartelepek,47.079167,18.314444,2026-03-08 15:41:23.534019,14.02,12.6,14.02,14.02,1027,43,2.8,91,6,0.0,Clear,clear sky,15
Polgárdi,47.07,18.284167,2026-03-08 15:41:24.739264,14.02,12.6,14.02,14.02,1027,43,2.8,91,6,0.0,Clear,clear sky,15
Füle,47.05,18.255278,2026-03-08 15:41:25.937626,13.99,12.57,13.99,13.99,1027,43,2.82,92,6,0.0,Clear,clear sky,15
Zánka-Erzsébettábor,46.8775,17.709167,2026-03-08 15:41:27.135812,15.46,13.95,14.34,15.46,1027,34,2.68,97,3,0.0,Clear,clear sky,15
Csajág,47.033889,18.186389,2026-03-08 15:41:28.346645,14.23,13.17,14.23,15.35,1027,56,2.89,93,6,0.0,Clear,clear sky,15
Balatonakarattya,47.017222,18.167778,2026-03-08 15:41:29.550916,14.08,13.01,14.08,15.2,1027,56,2.89,93,6,0.0,Clear,clear sky,15
Csittényhegy,47.025278,18.1375,2026-03-08 15:41:30.747248,14.3,13.25,14.3,15.42,1027,56,2.91,93,6,0.0,Clear,clear sky,15
Balatonkenese,47.0325,18.105556,2026-03-08 15:41:31.948894,14.38,13.34,14.38,15.5,1027,56,2.94,94,6,0.0,Clear,clear sky,15
Balatonfűzfő,47.060278,18.0425,2026-03-08 15:41:33.145850,14.41,13.37,14.41,15.53,1027,56,2.89,94,7,0.0,Clear,clear sky,15
Balatonalmádi,47.028333,18.015,2026-03-08 15:41:34.346480,14.38,13.34,14.38,15.5,1027,56,2.92,93,6,0.0,Clear,clear sky,15
Káptalanfüred,47.008889,18.003889,2026-03-08 15:41:35.553582,14.41,13.37,14.41,15.53,1027,56,2.91,93,5,0.0,Clear,clear sky,15
Alsóörs,46.985278,17.974722,2026-03-08 15:41:36.752277,15.54,14.04,14.42,15.54,1027,34,1.34,45,5,0.0,Clear,clear sky,15
Csopak,46.974722,17.931111,2026-03-08 15:41:37.955561,15.41,13.89,14.29,15.41,1027,34,1.34,45,4,0.0,Clear,clear sky,15
Balatonarács,46.9625,17.8975,2026-03-08 15:41:39.158619,15.31,13.78,14.19,15.31,1027,34,1.34,45,4,0.0,Clear,clear sky,15
Balatonfüred,46.955833,17.883056,2026-03-08 15:41:40.364003,15.38,13.86,14.26,15.38,1027,34,1.34,45,4,0.0,Clear,clear sky,15
Aszófő,46.925556,17.8325,2026-03-08 15:41:41.563984,15.48,13.97,14.36,15.48,1027,34,1.34,45,3,0.0,Clear,clear sky,15
Örvényes,46.9125,17.818056,2026-03-08 15:41:42.760373,15.5,13.99,14.38,15.5,1027,34,1.34,45,3,0.0,Clear,clear sky,15
Balatonudvari,46.904722,17.808056,2026-03-08 15:41:43.957444,15.53,14.03,14.41,15.53,1027,34,1.34,45,3,0.0,Clear,clear sky,15
Fövenyes,46.893611,17.789444,2026-03-08 15:41:45.163810,15.55,14.05,14.43,15.55,1027,34,1.34,45,3,0.0,Clear,clear sky,15
Balatonakali-Dörgicse,46.88,17.747778,2026-03-08 15:41:46.373429,15.54,14.04,14.42,15.54,1027,34,2.66,96,3,0.0,Clear,clear sky,15
Zánka-Köveskál,46.872778,17.687778,2026-03-08 15:41:47.580517,15.53,14.03,14.41,15.53,1027,34,2.67,96,4,0.0,Clear,clear sky,15
Balatonszepezd,46.851111,17.663056,2026-03-08 15:41:48.776791,15.53,14.03,15.53,15.53,1027,34,2.72,97,3,0.0,Clear,clear sky,15
Szepezdfürdő,46.839722,17.649444,2026-03-08 15:41:49.976284,15.5,14.49,15.5,15.5,1027,53,2.7,96,4,0.0,Clear,clear sky,15
Révfülöp,46.829167,17.632222,2026-03-08 15:41:51.195591,15.51,14.5,15.51,15.51,1027,53,2.7,96,4,0.0,Clear,clear sky,15
Balatonrendes,46.824722,17.582778,2026-03-08 15:41:52.401534,15.51,14.5,15.51,15.51,1027,53,2.66,91,4,0.0,Clear,clear sky,15
Ábrahámhegy,46.815,17.572222,2026-03-08 15:41:53.602513,15.48,14.47,15.48,15.48,1027,53,2.66,91,4,0.0,Clear,clear sky,15
Badacsonyörs,46.805556,17.531667,2026-03-08 15:41:54.801161,13.96,12.8,13.96,13.96,1027,53,2.61,89,4,0.0,Clear,clear sky,15
Kisújszállás,47.223889,20.751111,2026-03-08 15:41:56.000227,11.93,10.33,11.93,11.93,1028,44,2.73,43,4,0.0,Clear,clear sky,15
Karcag,47.303333,20.928056,2026-03-08 15:41:57.208276,11.69,10.12,11.69,11.69,1028,46,2.82,45,5,0.0,Clear,clear sky,15
Püspökladány,47.3275,21.128889,2026-03-08 15:41:58.418877,11.73,10.19,11.73,11.73,1028,47,2.95,49,5,0.0,Clear,clear sky,15
Kaba,47.368889,21.259444,2026-03-08 15:41:59.621282,16.1,15.02,16.1,16.1,1028,48,3.11,52,4,0.0,Clear,clear sky,15
Hajdúszoboszló,47.429444,21.406944,2026-03-08 15:42:00.825200,16.09,14.56,16.09,16.09,1028,31,3.09,70,0,0.0,Clear,clear sky,15
Ebes,47.462778,21.488889,2026-03-08 15:42:02.038312,16.04,14.51,16.04,16.04,1028,31,3.09,70,0,0.0,Clear,clear sky,15
Debrecen,47.520278,21.628611,2026-03-08 15:42:03.241261,15.92,14.38,15.92,15.92,1028,31,3.09,70,0,0.0,Clear,clear sky,15
Debrecen-Csapókert,47.540556,21.648056,2026-03-08 15:42:04.451416,15.87,14.32,15.87,15.87,1028,31,3.09,70,0,0.0,Clear,clear sky,15
Apafa,47.584045,21.655858,2026-03-08 15:42:05.653948,15.83,14.28,15.83,15.83,1028,31,3.09,70,0,0.0,Clear,clear sky,15
Bocskaikert,47.6425,21.666389,2026-03-08 15:42:06.854090,15.76,14.2,15.76,15.76,1028,31,3.09,70,0,0.0,Clear,clear sky,15
Hajdúhadház,47.686944,21.679167,2026-03-08 15:42:08.058556,15.73,14.66,15.73,15.73,1028,50,3.09,55,4,0.0,Clear,clear sky,15
Téglás,47.714722,21.684722,2026-03-08 15:42:09.260223,15.8,14.74,15.8,15.8,1028,50,3.1,54,4,0.0,Clear,clear sky,15
Újfehértó,47.814444,21.706389,2026-03-08 15:42:10.465636,11.03,9.52,11.03,11.03,1028,51,3.15,48,4,0.0,Clear,clear sky,15
Nyíregyháza,47.946667,21.705556,2026-03-08 15:42:11.674169,10.83,9.3,10.83,10.83,1028,51,3.08,43,4,0.0,Clear,clear sky,15
Sóstó,47.998051,21.729047,2026-03-08 15:42:12.870587,10.85,9.32,10.85,10.85,1028,51,2.94,42,4,0.0,Clear,clear sky,15
Sóstóhegy,48.012222,21.742778,2026-03-08 15:42:14.069181,10.89,9.37,10.89,10.89,1028,51,2.91,41,3,0.0,Clear,clear sky,15
Kemecse,48.065556,21.801667,2026-03-08 15:42:15.273349,10.99,9.48,10.99,10.99,1028,51,2.76,41,4,0.0,Clear,clear sky,15
Nyírbogdány,48.082222,21.855278,2026-03-08 15:42:16.478200,10.98,9.47,10.98,10.98,1028,51,2.66,41,4,0.0,Clear,clear sky,15
Kék,48.093333,21.883889,2026-03-08 15:42:17.692088,11.15,9.63,11.15,11.15,1028,50,2.52,41,3,0.0,Clear,clear sky,15
Demecser,48.111667,21.926667,2026-03-08 15:42:18.888455,11.15,9.63,11.15,11.15,1028,50,2.38,39,3,0.0,Clear,clear sky,15
Gégény,48.128333,21.951944,2026-03-08 15:42:20.082250,11.09,9.59,11.09,11.09,1028,51,2.24,36,3,0.0,Clear,clear sky,15
Pátroha,48.158611,21.996667,2026-03-08 15:42:21.275239,11.08,9.58,11.08,11.08,1029,51,2.09,32,3,0.0,Clear,clear sky,15
Ajak,48.1865,22.048972,2026-03-08 15:42:22.477961,11.01,9.52,11.01,11.01,1029,52,1.94,27,3,0.0,Clear,clear sky,15
Kisvárda,48.208333,22.078333,2026-03-08 15:42:23.681182,10.98,9.52,10.98,10.98,1029,53,1.77,17,2,0.0,Clear,clear sky,15
Kisvárda-Hármasút,48.228333,22.091944,2026-03-08 15:42:24.881328,10.98,9.52,10.98,10.98,1029,53,1.77,17,2,0.0,Clear,clear sky,15
Fényeslitke,48.267222,22.107222,2026-03-08 15:42:26.092437,10.84,9.39,10.84,10.84,1029,54,1.65,2,1,0.0,Clear,clear sky,15
Komoró,48.305278,22.118056,2026-03-08 15:42:27.291278,10.82,9.37,10.82,10.82,1029,54,1.61,356,1,0.0,Clear,clear sky,15
Tuzsér,48.342222,22.131667,2026-03-08 15:42:28.492393,10.72,9.26,10.72,10.72,1029,54,1.52,344,1,0.0,Clear,clear sky,15
Tiszabezdéd,48.371389,22.145,2026-03-08 15:42:29.697259,10.75,9.32,10.75,10.75,1029,55,1.53,334,1,0.0,Clear,clear sky,15
Záhony,48.402222,22.183611,2026-03-08 15:42:30.913878,10.76,9.33,10.76,10.76,1029,55,1.56,325,1,0.0,Clear,clear sky,15
Karcag-Vásártér,47.3225,20.9075,2026-03-08 15:42:32.123371,11.69,10.12,11.69,11.69,1028,46,2.82,45,5,0.0,Clear,clear sky,15
Berekfürdő,47.374722,20.827222,2026-03-08 15:42:33.321662,11.46,9.86,11.46,11.46,1028,46,2.88,40,4,0.0,Clear,clear sky,15
Kunmadaras,47.415278,20.793056,2026-03-08 15:42:34.537244,11.25,9.66,11.25,11.25,1028,47,2.93,39,4,0.0,Clear,clear sky,15
Tiszaszentimre,47.490833,20.733056,2026-03-08 15:42:35.744496,10.99,9.37,10.99,10.99,1028,47,2.96,41,5,0.0,Clear,clear sky,15
Tiszaszőlős,47.555556,20.728056,2026-03-08 15:42:36.941193,10.77,9.16,10.77,10.77,1028,48,3.02,42,8,0.0,Clear,clear sky,15
Hosszúhát,47.235556,21.101944,2026-03-08 15:42:38.142232,12.05,10.51,12.05,12.05,1028,46,2.78,51,4,0.0,Clear,clear sky,15
Szerep,47.234444,21.145833,2026-03-08 15:42:39.341260,12.07,10.53,12.07,12.07,1028,46,2.81,51,4,0.0,Clear,clear sky,15
Sárrétudvari,47.231667,21.180833,2026-03-08 15:42:40.548547,12.07,10.53,12.07,12.07,1028,46,2.83,51,3,0.0,Clear,clear sky,15
Biharnagybajom,47.208889,21.221944,2026-03-08 15:42:41.753356,12.15,10.62,12.15,12.15,1027,46,2.82,50,2,0.0,Clear,clear sky,15
Füzesgyarmat,47.113056,21.194444,2026-03-08 15:42:42.951093,12.43,10.9,12.43,12.43,1027,45,2.46,50,2,0.0,Clear,clear sky,15
Füzesgyarmatfürdő,47.093787,21.201582,2026-03-08 15:42:44.150521,12.43,10.9,12.43,12.43,1027,45,2.46,50,2,0.0,Clear,clear sky,15
Báránd,47.299722,21.235278,2026-03-08 15:42:45.352574,11.91,10.38,11.91,11.91,1028,47,3.03,51,3,0.0,Clear,clear sky,15
Sáp,47.259722,21.360556,2026-03-08 15:42:46.559688,12.12,10.59,12.12,12.12,1028,46,3.05,50,2,0.0,Clear,clear sky,15
Berettyóújfalu,47.211944,21.535556,2026-03-08 15:42:47.763145,12.3,10.81,12.3,12.3,1027,47,3.13,47,1,0.0,Clear,clear sky,15
Mezőpeterd,47.176111,21.625278,2026-03-08 15:42:48.964991,16.28,15.22,16.28,16.28,1027,48,3.13,44,2,0.0,Clear,clear sky,15
Biharkeresztes,47.135556,21.721389,2026-03-08 15:42:50.167568,16.25,14.74,16.25,16.25,1027,31,5.14,20,0,0.0,Clear,clear sky,15
Tócóvölgy,47.529444,21.588889,2026-03-08 15:42:51.365853,15.97,14.43,15.97,15.97,1028,31,3.09,70,0,0.0,Clear,clear sky,15
Sáregres,46.7825,18.588889,2026-03-08 15:42:52.557343,13.98,12.53,13.98,13.98,1027,42,2.94,85,6,0.0,Clear,clear sky,15
Simontornya,46.756582,18.540674,2026-03-08 15:42:53.762688,13.96,12.53,13.96,13.96,1027,43,2.86,87,5,0.0,Clear,clear sky,15
Tolnanémedi,46.727778,18.475833,2026-03-08 15:42:54.958216,14.04,12.65,14.04,14.04,1027,44,2.83,87,5,0.0,Clear,clear sky,15
Pincehely,46.681389,18.43,2026-03-08 15:42:56.163972,13.99,12.65,13.99,13.99,1027,46,2.67,86,5,0.0,Clear,clear sky,15
Keszőhidegkút-Gyönk,46.597778,18.426111,2026-03-08 15:42:57.365976,14.04,12.78,14.04,14.04,1027,49,2.59,81,5,0.0,Clear,clear sky,15
Szárazd,46.575556,18.420833,2026-03-08 15:42:58.564803,14.09,12.86,14.09,14.09,1027,50,2.57,79,5,0.0,Clear,clear sky,15
Regöly,46.568889,18.396111,2026-03-08 15:42:59.773087,14.09,12.86,14.09,14.09,1027,50,2.57,79,5,0.0,Clear,clear sky,15
Szakály-Hőgyész,46.523611,18.389444,2026-03-08 15:43:00.974238,14.02,12.81,14.02,14.02,1027,51,2.46,77,5,0.0,Clear,clear sky,15
Dúzs,46.493889,18.377222,2026-03-08 15:43:02.169724,14.05,12.87,14.05,14.05,1027,52,2.41,77,5,0.0,Clear,clear sky,15
Csibrák,46.466667,18.336389,2026-03-08 15:43:03.372335,14.12,12.97,14.12,14.12,1027,53,2.35,77,5,0.0,Clear,clear sky,15
Kurd,46.449167,18.319167,2026-03-08 15:43:04.582050,13.76,12.58,13.76,13.76,1027,53,2.29,78,5,0.0,Clear,clear sky,15
Döbrököz,46.418889,18.255,2026-03-08 15:43:05.790246,14.04,12.91,14.04,14.04,1027,54,2.22,80,5,0.0,Clear,clear sky,15
Dombóvár,46.37,18.149722,2026-03-08 15:43:06.991075,14.0,12.89,14.0,14.0,1027,55,2.15,84,4,0.0,Clear,clear sky,15
Dombóvár alsó,46.363889,18.134167,2026-03-08 15:43:08.192013,14.0,12.89,14.0,14.0,1027,55,2.15,84,4,0.0,Clear,clear sky,15
Somoskőújfalu,48.154722,19.815556,2026-03-08 15:43:09.389576,8.59,7.63,8.59,8.59,1028,48,1.91,85,10,0.0,Clear,clear sky,15
Jászfényszaru,47.593056,19.754444,2026-03-08 15:43:10.587980,11.42,9.84,11.42,11.42,1028,47,3.05,97,9,0.0,Clear,clear sky,15
Pusztamonostor,47.564444,19.794167,2026-03-08 15:43:11.792296,13.83,12.47,13.83,13.83,1028,46,3.05,90,8,0.0,Clear,clear sky,15
Jászberény,47.494444,19.893333,2026-03-08 15:43:12.998136,13.93,12.53,13.93,13.93,1028,44,3.1,77,7,0.0,Clear,clear sky,15
Meggyespele,47.441944,19.938889,2026-03-08 15:43:14.195301,13.95,12.34,13.95,13.95,1028,36,3.11,73,5,0.0,Clear,clear sky,15
Portelek,47.418056,19.958889,2026-03-08 15:43:15.393161,13.97,12.36,13.97,13.97,1028,36,3.11,72,5,0.0,Clear,clear sky,15
Jászboldogháza-Jánoshida,47.366944,20.001389,2026-03-08 15:43:16.596554,13.96,12.35,13.96,13.96,1028,36,3.09,70,4,0.0,Clear,clear sky,15
Jászárokszállás,47.635556,19.971111,2026-03-08 15:43:17.811639,11.24,9.62,11.24,11.24,1028,46,3.14,89,7,0.0,Clear,clear sky,15
Jászdózsa,47.563056,20.028056,2026-03-08 15:43:19.013899,11.36,9.73,11.36,11.36,1028,45,3.11,81,6,0.0,Clear,clear sky,15
Jászapáti,47.513611,20.155,2026-03-08 15:43:20.218866,11.42,9.77,11.42,11.42,1028,44,3.05,71,5,0.0,Clear,clear sky,15
Jászkisér,47.456111,20.203333,2026-03-08 15:43:21.428944,11.57,9.91,11.57,11.57,1028,43,3.0,67,4,0.0,Clear,clear sky,15
Jászladány,47.373333,20.159167,2026-03-08 15:43:22.628138,14.01,12.56,14.01,15.01,1028,42,2.97,64,4,0.0,Clear,clear sky,15
Szászberek,47.320556,20.090833,2026-03-08 15:43:23.826804,14.0,12.4,14.0,15.55,1028,36,2.98,64,3,0.0,Clear,clear sky,15
Gyöngyöshalász,47.743056,19.932222,2026-03-08 15:43:25.021689,10.85,9.24,10.85,10.85,1028,48,3.08,102,8,0.0,Clear,clear sky,15
Gyöngyös,47.783056,19.937222,2026-03-08 15:43:26.225970,10.4,8.75,10.4,10.4,1028,48,2.97,99,8,0.0,Clear,clear sky,15
Erdőtelek,47.683333,20.3025,2026-03-08 15:43:27.427483,10.54,8.88,10.54,10.54,1028,47,3.17,77,7,0.0,Clear,clear sky,15
Heves,47.609444,20.306111,2026-03-08 15:43:28.633489,10.9,9.25,10.9,10.9,1028,46,3.1,71,5,0.0,Clear,clear sky,15
Hevesvezekény,47.562222,20.365833,2026-03-08 15:43:29.846379,10.96,9.31,10.96,10.96,1028,46,3.06,65,5,0.0,Clear,clear sky,15
Tarnaszentmiklós,47.546944,20.390833,2026-03-08 15:43:31.053715,11.07,9.41,11.07,11.07,1028,45,3.01,63,4,0.0,Clear,clear sky,15
Kisköre,47.495556,20.481667,2026-03-08 15:43:32.262501,11.16,9.51,11.16,11.16,1028,45,2.91,53,3,0.0,Clear,clear sky,15
Abádszalók,47.455278,20.553056,2026-03-08 15:43:33.464322,11.19,9.54,11.19,11.19,1028,45,2.89,50,3,0.0,Clear,clear sky,15
Kunhegyes,47.376667,20.641111,2026-03-08 15:43:34.667422,11.38,9.75,11.38,11.38,1028,45,2.89,40,3,0.0,Clear,clear sky,15
Kenderes,47.254444,20.686111,2026-03-08 15:43:35.876134,11.83,10.22,11.83,11.83,1028,44,2.8,41,3,0.0,Clear,clear sky,15
Maklár,47.808056,20.404722,2026-03-08 15:43:37.074009,16.8,15.79,16.8,16.8,1028,48,2.88,77,15,0.0,Clouds,few clouds,15
Andornaktálya,47.852203,20.402295,2026-03-08 15:43:38.275059,16.74,15.72,14.98,16.74,1028,48,2.63,80,17,0.0,Clouds,few clouds,15
Eger,47.891667,20.381667,2026-03-08 15:43:39.471134,16.65,15.62,14.89,16.65,1028,48,2.47,87,14,0.0,Clouds,few clouds,15
Egervár,47.908056,20.380556,2026-03-08 15:43:40.677526,16.47,14.83,14.71,16.47,1028,25,2.33,89,15,0.0,Clouds,few clouds,15
Eger-Felnémet,47.936667,20.370556,2026-03-08 15:43:41.876440,16.52,14.88,14.76,16.52,1028,25,2.19,91,15,0.0,Clouds,few clouds,15
Szarvaskő,47.988611,20.3325,2026-03-08 15:43:43.071014,16.11,14.43,16.11,16.11,1028,25,1.98,97,13,0.0,Clouds,few clouds,15
Mónosbél,48.031944,20.33,2026-03-08 15:43:44.283399,15.93,14.23,15.93,15.93,1028,25,1.86,98,11,0.0,Clouds,few clouds,15
Bélapátfalva,48.055556,20.340556,2026-03-08 15:43:45.483025,15.64,13.91,15.64,15.64,1028,25,1.82,99,11,0.0,Clouds,few clouds,15
Bélapátfalvi Cementgyár,48.058056,20.355,2026-03-08 15:43:46.694984,15.59,13.86,15.59,15.59,1028,25,1.82,99,11,0.0,Clouds,few clouds,15
Szilvásvárad,48.11345,20.37919,2026-03-08 15:43:47.892800,15.46,13.71,15.46,15.46,1028,25,1.77,97,10,0.0,Clear,clear sky,15
Hejőkeresztúr,47.960278,20.869444,2026-03-08 15:43:49.091254,11.66,10.0,10.16,11.66,1028,43,2.69,69,24,0.0,Clouds,few clouds,15
Tiszaújváros,47.926111,21.030556,2026-03-08 15:43:50.291258,11.71,10.06,10.21,11.71,1028,43,2.94,58,22,0.0,Clouds,few clouds,15
Miskolc-Gömöri,48.106667,20.800278,2026-03-08 15:43:51.503227,13.63,12.07,11.56,16.89,1028,39,2.34,105,18,0.0,Clouds,few clouds,15
Sajókeresztúr,48.168008,20.774014,2026-03-08 15:43:52.707032,15.08,13.9,11.51,16.84,1028,48,2.33,116,17,0.0,Clouds,few clouds,15
Sajóecseg,48.186111,20.766667,2026-03-08 15:43:53.903712,16.2,15.13,11.55,16.88,1028,48,2.38,119,17,0.0,Clouds,few clouds,15
Sajószentpéter,48.222222,20.708056,2026-03-08 15:43:55.120368,16.78,15.74,15.03,16.78,1028,47,2.33,122,17,0.0,Clouds,few clouds,15
Kazincbarcika,48.264444,20.6275,2026-03-08 15:43:56.318413,16.79,15.73,16.79,16.79,1028,46,2.07,118,16,0.0,Clouds,few clouds,15
Sajókaza,48.272778,20.581944,2026-03-08 15:43:57.515723,16.78,15.71,16.78,16.78,1028,46,1.99,116,15,0.0,Clouds,few clouds,15
Vadna,48.276389,20.555278,2026-03-08 15:43:58.727349,16.76,15.69,16.76,16.76,1028,46,1.99,116,15,0.0,Clouds,few clouds,15
Dubicsány,48.280833,20.504722,2026-03-08 15:43:59.922172,16.75,15.68,16.75,16.75,1028,46,1.88,107,11,0.0,Clouds,few clouds,15
Raposka,46.851389,17.412778,2026-03-08 15:44:01.117936,16.06,15.13,16.06,16.06,1027,54,2.31,85,4,0.0,Clear,clear sky,15
Ivacs,47.641944,19.273889,2026-03-08 15:44:02.320244,15.8,14.3,15.19,16.24,1028,33,2.34,131,11,0.0,Clouds,few clouds,15
Kisköre-Tiszahíd,47.480835,20.507698,2026-03-08 15:44:03.526940,11.24,9.59,11.24,11.24,1028,45,2.89,51,2,0.0,Clear,clear sky,15
Rozsály,47.912778,22.7825,2026-03-08 15:44:04.751260,16.03,15.02,16.03,16.03,1028,51,1.35,24,0,0.0,Clear,clear sky,15
Pusztakettős,47.453611,20.749722,2026-03-08 15:44:05.946222,11.16,9.56,11.16,11.16,1028,47,2.94,39,4,0.0,Clear,clear sky,15
Kisvác,47.795278,19.113611,2026-03-08 15:44:07.153712,16.05,15.2,15.89,16.05,1028,57,1.67,132,17,0.0,Clouds,few clouds,15
Tiszafüred-Gyártelep,47.6075,20.736111,2026-03-08 15:44:08.360286,10.57,8.94,10.57,10.57,1028,48,3.05,44,11,0.0,Clouds,few clouds,15
Újkenéz,48.251111,22.221667,2026-03-08 15:44:09.561989,10.96,9.5,10.96,10.96,1029,53,1.58,352,0,0.0,Clear,clear sky,15
Püspökladány-Vásártér,47.319167,21.096111,2026-03-08 15:44:10.764597,11.82,10.28,11.82,11.82,1028,47,2.91,50,4,0.0,Clear,clear sky,15
Végegyháza alsó,46.3675,20.866944,2026-03-08 15:44:11.961691,16.16,14.95,16.16,16.16,1027,43,2.09,72,0,0.0,Clear,clear sky,15
Orosháza felső,46.553611,20.655278,2026-03-08 15:44:13.162964,15.51,14.16,15.51,15.51,1027,40,2.13,64,0,0.0,Clear,clear sky,15
Ambrózfalva,46.353056,20.740556,2026-03-08 15:44:14.363525,13.4,11.89,13.4,13.4,1027,42,2.17,72,0,0.0,Clear,clear sky,15
Alsónyék,46.199444,18.738056,2026-03-08 15:44:15.567089,14.61,13.38,14.61,14.61,1027,48,2.52,76,4,0.0,Clear,clear sky,15
Tompapuszta,46.321389,20.966389,2026-03-08 15:44:16.771227,16.15,16.43,16.06,16.17,1027,100,2.05,66,0,0.0,Clear,clear sky,15
Halászlak,46.911879,20.56228,2026-03-08 15:44:17.978091,15.54,14.17,15.54,15.54,1027,39,2.49,55,0,0.0,Clear,clear sky,15
Sirató,46.840556,20.61,2026-03-08 15:44:19.175067,15.55,14.2,15.55,15.55,1027,40,2.41,56,0,0.0,Clear,clear sky,15
Csabacsűd felső,46.829167,20.649167,2026-03-08 15:44:20.377482,15.54,14.19,15.54,15.54,1027,40,2.41,56,0,0.0,Clear,clear sky,15
Orosháza-Üveggyár,46.579979,20.683644,2026-03-08 15:44:21.577603,15.5,14.18,15.5,15.5,1027,41,2.12,64,0,0.0,Clear,clear sky,15
Gyulai városerdő,46.69482,21.32281,2026-03-08 15:44:22.780596,12.9,11.39,12.9,12.9,1027,44,1.61,60,1,0.0,Clear,clear sky,15
Kórógyszentgyörgy,46.564377,20.224998,2026-03-08 15:44:23.990346,13.34,11.85,13.34,15.55,1027,43,2.45,64,0,0.0,Clear,clear sky,15
Kunszállás,46.784444,19.767222,2026-03-08 15:44:25.186459,16.04,14.35,15.08,16.04,1027,25,3.09,90,0,0.0,Clear,clear sky,15
Selymes,46.655321,19.8534,2026-03-08 15:44:26.395194,12.92,11.29,12.92,12.92,1027,39,2.78,69,0,0.0,Clear,clear sky,15
Petőfiszállási tanyák,46.587805,19.874509,2026-03-08 15:44:27.590871,15.57,14.17,15.57,15.57,1027,38,2.78,69,0,0.0,Clear,clear sky,15
Kisteleki szőlők,46.514199,19.92868,2026-03-08 15:44:28.800781,15.56,14.16,15.56,15.56,1027,38,2.75,67,0,0.0,Clear,clear sky,15
Kapitányság,46.435336,19.987564,2026-03-08 15:44:30.005909,15.58,14.21,15.58,15.58,1027,39,2.7,65,0,0.0,Clear,clear sky,15
Őszeszék,46.39025,20.016017,2026-03-08 15:44:31.207730,15.61,14.24,15.61,15.61,1027,39,2.67,64,0,0.0,Clear,clear sky,15
Vilmaszállás,46.366389,20.030833,2026-03-08 15:44:32.412988,15.59,14.22,15.59,15.59,1027,39,2.24,36,0,0.0,Clear,clear sky,15
Jánosszállás,46.334359,20.051199,2026-03-08 15:44:33.613154,15.62,14.26,15.62,15.62,1027,39,2.69,64,0,0.0,Clear,clear sky,15
Felsőpakony,47.343056,19.230556,2026-03-08 15:44:34.825219,16.34,14.81,15.58,16.64,1028,30,3.09,90,0,0.0,Clear,clear sky,15
Felsőméntelek,46.987074,19.557745,2026-03-08 15:44:36.033668,14.92,13.56,14.92,15.88,1028,42,3.09,90,0,0.0,Clear,clear sky,15
Alsóméntelek,46.961558,19.579121,2026-03-08 15:44:37.233594,14.95,13.6,14.95,15.91,1027,42,3.09,90,0,0.0,Clear,clear sky,15
Nagynyír,46.943319,19.585447,2026-03-08 15:44:38.436638,14.95,13.6,14.95,15.9,1027,42,3.09,90,0,0.0,Clear,clear sky,15
Úrihegy,46.917778,19.621389,2026-03-08 15:44:39.631971,14.97,13.62,14.97,15.93,1027,42,3.09,90,0,0.0,Clear,clear sky,15
Miklóstelep,46.913412,19.630913,2026-03-08 15:44:40.830952,14.99,13.64,14.99,15.94,1027,42,3.09,90,0,0.0,Clear,clear sky,15
Tiszajenő alsó,47.016944,20.134444,2026-03-08 15:44:42.040222,15.57,14.15,15.02,15.57,1028,37,2.57,60,0,0.0,Clear,clear sky,15
Óbög,46.987222,20.111111,2026-03-08 15:44:43.243740,15.38,13.94,15.01,16.17,1028,37,2.57,60,0,0.0,Clear,clear sky,15
Árpádszállás,46.866456,19.989163,2026-03-08 15:44:44.448144,15.85,14.14,15.14,16.1,1027,25,3.09,90,0,0.0,Clear,clear sky,15
Tőserdő,46.851111,19.980278,2026-03-08 15:44:45.646335,15.82,14.11,15.16,16.12,1027,25,3.09,90,0,0.0,Clear,clear sky,15
Tiszaalpár felső,46.836256,19.976753,2026-03-08 15:44:46.842101,15.84,14.13,13.28,16.14,1027,25,3.09,90,0,0.0,Clear,clear sky,15
Borsihalom,46.773056,19.92,2026-03-08 15:44:48.046489,15.78,14.43,13.27,16.13,1027,39,2.72,66,0,0.0,Clear,clear sky,15
Petőfiváros,46.725556,19.848611,2026-03-08 15:44:49.242247,16.1,14.78,15.14,16.1,1027,39,2.78,68,1,0.0,Clear,clear sky,15
Csorna,47.601944,17.248889,2026-03-08 15:44:50.446498,16.11,15.03,16.11,16.11,1027,48,2.89,120,5,0.0,Clear,clear sky,15
Szorgalmatos,47.986667,21.366389,2026-03-08 15:44:51.655305,10.36,8.78,10.36,10.36,1028,51,3.1,45,6,0.0,Clear,clear sky,15
Fótfürdő,47.6225,19.200556,2026-03-08 15:44:52.849936,15.77,14.21,15.19,16.24,1028,31,2.32,123,7,0.0,Clear,clear sky,15
Fenyveshegy,47.818333,19.068056,2026-03-08 15:44:54.053419,16.12,15.3,16.12,16.12,1028,58,1.52,129,22,0.0,Clouds,few clouds,15
Hűvösvölgy,47.541202,18.96351,2026-03-08 15:44:55.251884,15.2,13.59,14.73,15.78,1028,31,1.79,86,8,0.0,Clear,clear sky,15
Hárshegy,47.535318,18.961433,2026-03-08 15:44:56.447249,15.2,13.59,14.73,15.78,1028,31,1.79,86,8,0.0,Clear,clear sky,15
Szépjuhászné,47.528277,18.955246,2026-03-08 15:44:57.644050,14.31,12.61,13.84,14.89,1028,31,1.79,86,9,0.0,Clear,clear sky,15
Jánoshegy,47.51433,18.95047,2026-03-08 15:44:58.838466,14.23,12.52,13.75,14.8,1028,31,1.79,86,9,0.0,Clear,clear sky,15
Virágvölgy,47.505965,18.95876,2026-03-08 15:45:00.038505,13.92,12.18,13.44,14.49,1028,31,2.24,81,9,0.0,Clear,clear sky,15
Csillebérc,47.498196,18.961694,2026-03-08 15:45:01.244889,13.7,11.94,13.2,14.26,1028,31,2.24,81,9,0.0,Clear,clear sky,15
Normafa,47.5,18.970558,2026-03-08 15:45:02.447003,13.74,11.98,13.25,14.31,1028,31,2.24,81,9,0.0,Clear,clear sky,15
Széchenyihegy,47.49413,18.977049,2026-03-08 15:45:03.641601,13.78,12.02,13.27,14.33,1028,31,2.24,81,9,0.0,Clear,clear sky,15
Balatonfőkajár felső,47.031389,18.215278,2026-03-08 15:45:04.843454,14.06,12.98,14.06,15.18,1027,56,2.87,93,6,0.0,Clear,clear sky,15
Piroska,47.148333,20.129722,2026-03-08 15:45:06.046858,15.33,13.88,14.01,15.57,1028,37,2.57,60,0,0.0,Clear,clear sky,15
Somodor,46.4725,17.836667,2026-03-08 15:45:07.248302,13.82,12.67,13.82,13.82,1027,54,2.6,85,3,0.0,Clear,clear sky,15
Középmező,45.995833,18.668889,2026-03-08 15:45:08.462348,16.73,15.71,16.73,16.73,1026,48,2.79,82,1,0.0,Clear,clear sky,15
Jobbágyi,47.828889,19.6875,2026-03-08 15:45:09.666294,11.27,9.73,11.27,11.27,1028,49,2.64,120,9,0.0,Clear,clear sky,15
Ferihegy,47.437222,19.223889,2026-03-08 15:45:10.864143,16.13,14.58,15.42,16.48,1028,30,3.09,90,0,0.0,Clear,clear sky,15
Máriapócs,47.852778,22.019167,2026-03-08 15:45:12.073251,11.49,9.97,11.49,11.49,1028,49,2.96,51,1,0.0,Clear,clear sky,15
Máriaudvar,47.751944,19.165,2026-03-08 15:45:13.272850,16.08,15.18,15.92,16.08,1028,55,1.88,135,10,0.0,Clear,clear sky,15
Nagyberki,46.353333,18.004167,2026-03-08 15:45:14.489997,13.81,12.68,13.81,13.81,1027,55,2.24,86,3,0.0,Clear,clear sky,15
Badacsonytomaj,46.804722,17.518056,2026-03-08 15:45:15.688527,13.96,12.8,13.96,13.96,1027,53,2.61,89,4,0.0,Clear,clear sky,15
Badacsony,46.788611,17.506389,2026-03-08 15:45:16.885543,16.11,15.16,16.11,16.11,1027,53,2.58,87,4,0.0,Clear,clear sky,15
Badacsonylábdihegy,46.793889,17.470833,2026-03-08 15:45:18.082221,16.1,15.15,16.1,16.1,1027,53,2.58,87,4,0.0,Clear,clear sky,15
Badacsonytördemic-Szigliget,46.809722,17.469167,2026-03-08 15:45:19.289290,16.03,15.07,16.03,16.03,1027,53,2.55,88,4,0.0,Clear,clear sky,15
Nemesgulács-Kisapáti,46.836944,17.476389,2026-03-08 15:45:20.503689,16.07,15.12,16.07,16.07,1027,53,2.52,89,5,0.0,Clear,clear sky,15
Tapolca,46.877778,17.428611,2026-03-08 15:45:21.707554,15.99,15.05,15.99,15.99,1027,54,2.3,88,5,0.0,Clear,clear sky,15
Uzsabánya alsó,46.898333,17.345278,2026-03-08 15:45:22.904610,15.79,14.83,15.79,15.79,1027,54,2.18,90,4,0.0,Clear,clear sky,15
Uzsa,46.920278,17.331667,2026-03-08 15:45:24.113094,15.75,14.76,15.75,15.75,1027,53,2.22,94,5,0.0,Clear,clear sky,15
Sümegi Bazaltbánya,46.9525,17.2925,2026-03-08 15:45:25.306950,13.8,12.62,13.8,13.8,1027,53,2.24,99,5,0.0,Clear,clear sky,15
Sümeg,46.981111,17.270833,2026-03-08 15:45:26.511554,14.04,12.88,14.04,14.04,1027,53,2.27,105,4,0.0,Clear,clear sky,15
Gógánfa,47.021111,17.207778,2026-03-08 15:45:27.707110,14.13,12.96,14.13,14.13,1027,52,2.43,115,4,0.0,Clear,clear sky,15
Ukk,47.041944,17.195833,2026-03-08 15:45:28.906864,14.22,13.06,14.22,14.22,1027,52,2.51,120,4,0.0,Clear,clear sky,15
Nemeskeresztúr,47.093611,17.183611,2026-03-08 15:45:30.112134,14.2,13.01,14.2,14.2,1027,51,2.63,126,4,0.0,Clear,clear sky,15
Jánosháza,47.115833,17.171667,2026-03-08 15:45:31.309379,14.29,13.11,14.29,14.29,1027,51,2.68,129,4,0.0,Clear,clear sky,15
Keszthely,46.758333,17.248056,2026-03-08 15:45:32.512877,16.08,14.76,16.08,16.08,1027,39,3.09,60,0,0.0,Clear,clear sky,15
Alsógyenes,46.765844,17.276435,2026-03-08 15:45:33.725159,16.08,14.76,16.08,16.08,1027,39,3.09,60,0,0.0,Clear,clear sky,15
Gyenesdiás,46.763333,17.292778,2026-03-08 15:45:34.923199,16.08,14.76,16.08,16.08,1027,39,3.09,60,0,0.0,Clear,clear sky,15
Vonyarcvashegy,46.755278,17.318333,2026-03-08 15:45:36.123951,16.09,14.77,16.09,16.09,1027,39,3.09,60,0,0.0,Clear,clear sky,15
Balatongyörök,46.751944,17.354444,2026-03-08 15:45:37.320346,16.11,14.79,16.11,16.11,1027,39,3.09,60,0,0.0,Clear,clear sky,15
Becehegy,46.776111,17.372778,2026-03-08 15:45:38.530071,16.08,14.76,16.08,16.08,1027,39,3.09,60,0,0.0,Clear,clear sky,15
Balatonederics,46.8025,17.385,2026-03-08 15:45:39.744990,16.03,15.1,16.03,16.03,1027,54,2.26,80,4,0.0,Clear,clear sky,15
Dabronc,47.025766,17.167006,2026-03-08 15:45:40.941957,14.18,13.01,14.18,14.18,1027,52,2.42,116,4,0.0,Clear,clear sky,15
Türje,46.994444,17.093611,2026-03-08 15:45:42.149011,14.15,13.0,14.15,14.15,1027,53,2.29,115,3,0.0,Clear,clear sky,15
Zalabér-Batyk,46.983056,17.040833,2026-03-08 15:45:43.344568,14.23,13.09,14.23,14.23,1027,53,2.17,112,2,0.0,Clear,clear sky,15
Pakod,46.959167,16.996667,2026-03-08 15:45:44.548077,14.14,12.99,14.14,14.14,1027,53,2.18,113,2,0.0,Clear,clear sky,15
Pókaszepetk,46.924444,16.972222,2026-03-08 15:45:45.752315,14.17,13.05,14.17,14.17,1027,54,2.04,97,2,0.0,Clear,clear sky,15
Kemendollár,46.905833,16.946667,2026-03-08 15:45:46.947986,15.91,14.97,15.91,15.91,1027,54,2.03,98,2,0.0,Clear,clear sky,15
Zalaegerszeg,46.833056,16.848333,2026-03-08 15:45:48.154904,15.73,14.82,15.73,15.73,1027,56,1.94,80,1,0.0,Clear,clear sky,15
Bocfölde,46.780278,16.853611,2026-03-08 15:45:49.355580,15.79,14.89,15.79,15.79,1027,56,2.1,65,1,0.0,Clear,clear sky,15
Sárhida,46.755833,16.851389,2026-03-08 15:45:50.564927,15.75,14.84,15.75,15.75,1027,56,2.08,62,1,0.0,Clear,clear sky,15
Bak,46.7325,16.849167,2026-03-08 15:45:51.766988,15.77,14.86,15.77,15.77,1026,56,2.11,59,1,0.0,Clear,clear sky,15
Tófej,46.670833,16.801944,2026-03-08 15:45:52.976482,15.61,14.69,15.61,15.61,1026,56,2.04,55,1,0.0,Clear,clear sky,15
Gutorfölde,46.646944,16.739722,2026-03-08 15:45:54.172519,13.7,12.56,13.7,13.7,1026,55,1.89,56,1,0.0,Clear,clear sky,15
Csömödér-Páka,46.608056,16.641111,2026-03-08 15:45:55.369461,15.18,14.14,15.18,15.18,1026,53,1.75,60,0,0.0,Clear,clear sky,15
Iklódbördőce,46.603056,16.604722,2026-03-08 15:45:56.576379,15.18,14.11,15.18,15.18,1026,52,1.79,65,0,0.0,Clear,clear sky,15
Lenti,46.621389,16.528611,2026-03-08 15:45:57.779993,15.12,14.05,15.12,15.12,1026,52,1.93,72,0,0.0,Clear,clear sky,15
Rédics,46.618056,16.471111,2026-03-08 15:45:58.982806,15.12,14.02,15.12,15.12,1026,51,1.98,75,0,0.0,Clear,clear sky,15
Zalalövő,46.845556,16.576389,2026-03-08 15:46:00.180108,13.88,12.73,13.88,13.88,1027,54,2.04,93,1,0.0,Clear,clear sky,15
Zalaegerszeg-Ola,46.849167,16.844722,2026-03-08 15:46:01.388011,13.81,12.71,13.81,13.81,1027,56,1.94,80,1,0.0,Clear,clear sky,15
Andráshida,46.863116,16.7792,2026-03-08 15:46:02.591216,13.8,12.7,13.8,13.8,1027,56,1.92,90,1,0.0,Clear,clear sky,15
Bagod,46.875,16.746111,2026-03-08 15:46:03.807665,13.91,12.82,13.91,13.91,1027,56,1.92,94,1,0.0,Clear,clear sky,15
Zalaszentgyörgy,46.872222,16.7125,2026-03-08 15:46:05.004791,13.88,12.76,13.88,13.88,1027,55,1.94,96,1,0.0,Clear,clear sky,15
Zalacséb-Salomvár,46.858056,16.662222,2026-03-08 15:46:06.201172,13.68,12.54,13.68,13.68,1027,55,1.96,97,1,0.0,Clear,clear sky,15
Kópháza,47.631389,16.6375,2026-03-08 15:46:07.400796,15.66,14.51,15.21,15.66,1027,47,2.51,145,17,0.0,Clouds,few clouds,15
Nagycenk,47.601111,16.690278,2026-03-08 15:46:08.606428,15.77,14.63,15.32,15.77,1027,47,2.41,145,15,0.0,Clouds,few clouds,15
Sopronkövesd,47.548333,16.748056,2026-03-08 15:46:09.813280,15.15,13.87,15.15,15.6,1027,44,2.26,144,10,0.0,Clear,clear sky,15
Lövő,47.509444,16.7775,2026-03-08 15:46:11.013078,15.19,13.91,15.19,15.64,1027,44,2.22,142,7,0.0,Clear,clear sky,15
Újkér,47.457778,16.786667,2026-03-08 15:46:12.240080,15.21,13.94,15.21,15.21,1027,44,2.24,145,5,0.0,Clear,clear sky,15
Bük,47.388611,16.752222,2026-03-08 15:46:13.437035,15.27,14.0,15.27,15.27,1027,44,2.29,147,4,0.0,Clear,clear sky,15
Acsád,47.308333,16.734722,2026-03-08 15:46:14.646088,15.02,13.73,15.02,15.02,1027,44,2.4,145,5,0.0,Clear,clear sky,15
Salköveskút-Vassurány,47.291389,16.704167,2026-03-08 15:46:15.853685,15.03,13.74,15.03,15.03,1027,44,2.47,145,5,0.0,Clear,clear sky,15
Zalaszentiván,46.8875,16.909444,2026-03-08 15:46:17.056325,15.89,14.97,15.89,15.89,1027,55,1.99,93,1,0.0,Clear,clear sky,15
Alsónemesapáti,46.854167,16.936389,2026-03-08 15:46:18.261373,15.88,14.96,15.88,15.88,1027,55,2.06,81,2,0.0,Clear,clear sky,15
Józsa,47.600833,21.584444,2026-03-08 15:46:19.455220,15.86,14.31,15.86,15.86,1028,31,3.09,70,0,0.0,Clear,clear sky,15
Hajdúszentgyörgy,47.608056,21.578333,2026-03-08 15:46:20.663083,15.83,14.28,15.83,15.83,1028,31,3.09,70,0,0.0,Clear,clear sky,15
Zelemér,47.627778,21.578333,2026-03-08 15:46:21.865429,15.78,14.22,15.78,15.78,1028,31,3.09,70,0,0.0,Clear,clear sky,15
Hajdúböszörmény,47.668056,21.524167,2026-03-08 15:46:23.059068,15.81,14.75,15.81,15.81,1028,50,3.09,52,5,0.0,Clear,clear sky,15
Hajdúvid,47.749444,21.508056,2026-03-08 15:46:24.270440,10.95,9.41,10.95,10.95,1028,50,3.16,48,5,0.0,Clear,clear sky,15
Hajdúdorog,47.805556,21.493056,2026-03-08 15:46:25.474886,10.81,9.28,10.81,10.81,1028,51,3.2,46,5,0.0,Clear,clear sky,15
Hajdúnánás,47.831944,21.426667,2026-03-08 15:46:26.683323,10.71,9.17,10.71,10.71,1028,51,3.24,44,5,0.0,Clear,clear sky,15
Hajdúnánás-Vásártér,47.843056,21.407222,2026-03-08 15:46:27.898433,10.71,9.17,10.71,10.71,1028,51,3.24,44,5,0.0,Clear,clear sky,15
Tedej,47.903611,21.404444,2026-03-08 15:46:29.100861,10.54,8.98,10.54,10.54,1028,51,3.23,43,6,0.0,Clear,clear sky,15
Tiszavasvári,47.945278,21.374722,2026-03-08 15:46:30.310485,10.43,8.86,10.43,10.43,1028,51,3.2,43,6,0.0,Clear,clear sky,15
Egyházerdő,47.9725,21.365,2026-03-08 15:46:31.507195,10.4,8.83,10.4,10.4,1028,51,3.15,44,6,0.0,Clear,clear sky,15
Tiszalök,48.013056,21.369167,2026-03-08 15:46:32.718681,10.32,8.74,10.32,10.32,1028,51,3.03,46,6,0.0,Clear,clear sky,15
Hajnalos,47.998889,21.414167,2026-03-08 15:46:33.922972,10.43,8.86,10.43,10.43,1028,51,3.1,44,6,0.0,Clear,clear sky,15
Kisfástanya,47.989167,21.47,2026-03-08 15:46:35.120098,10.44,8.87,10.44,10.44,1028,51,3.11,43,5,0.0,Clear,clear sky,15
Tiszaeszlár,48.010556,21.491944,2026-03-08 15:46:36.331305,10.5,8.94,10.5,10.5,1028,51,3.06,43,4,0.0,Clear,clear sky,15
Bashalom,48.026111,21.514722,2026-03-08 15:46:37.530398,10.49,8.93,10.49,10.49,1028,51,2.99,44,4,0.0,Clear,clear sky,15
Sáránd,47.415556,21.625,2026-03-08 15:46:38.735987,16.01,14.48,16.01,16.01,1028,31,3.09,70,0,0.0,Clear,clear sky,15
Derecske,47.365,21.584167,2026-03-08 15:46:39.933514,16.08,14.55,16.08,16.08,1028,31,3.09,70,0,0.0,Clear,clear sky,15
Derecske-Vásártér,47.352222,21.58,2026-03-08 15:46:41.132680,16.08,14.55,16.08,16.08,1028,31,3.09,70,0,0.0,Clear,clear sky,15
Konyár,47.323611,21.666111,2026-03-08 15:46:42.336420,16.05,14.52,16.05,16.05,1028,31,3.09,70,0,0.0,Clear,clear sky,15
Konyári Sóstófürdő,47.324167,21.744444,2026-03-08 15:46:43.537582,16.06,15.0,16.06,16.06,1028,49,3.55,57,1,0.0,Clear,clear sky,15
Pocsaj-Esztár,47.288333,21.793056,2026-03-08 15:46:44.746537,16.05,15.02,16.05,16.05,1027,50,3.6,57,1,0.0,Clear,clear sky,15
Kismarja,47.243889,21.813889,2026-03-08 15:46:45.944939,16.24,15.23,16.24,16.24,1027,50,3.52,53,2,0.0,Clear,clear sky,15
Nagykereki,47.191667,21.8,2026-03-08 15:46:47.155657,16.23,15.24,16.23,16.23,1027,51,3.35,47,3,0.0,Clear,clear sky,15
Debrecen-Szabadságtelep,47.527778,21.658611,2026-03-08 15:46:48.351365,15.89,14.34,15.89,15.89,1028,31,3.09,70,0,0.0,Clear,clear sky,15
Kondoroskert,47.525556,21.713889,2026-03-08 15:46:49.554099,15.92,14.38,15.92,15.92,1028,31,3.09,70,0,0.0,Clear,clear sky,15
Nagycsere,47.523889,21.763056,2026-03-08 15:46:50.768005,15.9,14.36,15.9,15.9,1028,31,3.09,70,0,0.0,Clear,clear sky,15
Haláp,47.521667,21.818333,2026-03-08 15:46:51.964863,15.9,14.36,15.9,15.9,1028,31,3.09,70,0,0.0,Clear,clear sky,15
Vámospércs,47.518056,21.893889,2026-03-08 15:46:53.164684,15.84,14.76,15.84,15.84,1028,49,3.16,66,0,0.0,Clear,clear sky,15
Szentannapuszta,47.52,21.965833,2026-03-08 15:46:54.360428,15.79,14.7,15.79,15.79,1028,49,3.15,68,0,0.0,Clear,clear sky,15
Nyírábrány,47.523889,22.016944,2026-03-08 15:46:55.559038,11.84,10.36,11.84,11.84,1028,49,3.15,69,0,0.0,Clear,clear sky,15
Dombostanya,47.602778,21.706389,2026-03-08 15:46:56.777329,15.82,14.27,15.82,15.82,1028,31,3.09,70,0,0.0,Clear,clear sky,15
Hajdúsámson,47.608056,21.755278,2026-03-08 15:46:57.989398,15.82,14.27,15.82,15.82,1028,31,3.09,70,0,0.0,Clear,clear sky,15
Tamásipuszta,47.632778,21.796111,2026-03-08 15:46:59.192536,15.77,14.71,15.77,15.77,1028,50,3.07,59,1,0.0,Clear,clear sky,15
Aradványpuszta,47.662778,21.8425,2026-03-08 15:47:00.390884,15.72,14.65,15.72,15.72,1028,50,3.08,58,1,0.0,Clear,clear sky,15
Nyíradony,47.699444,21.903333,2026-03-08 15:47:01.606400,11.35,9.87,11.35,11.35,1028,51,3.11,55,0,0.0,Clear,clear sky,15
Nyírmihálydi,47.7375,21.958889,2026-03-08 15:47:02.819060,11.35,9.87,11.35,11.35,1028,51,3.11,54,0,0.0,Clear,clear sky,15
Nyírgelse,47.750833,21.987778,2026-03-08 15:47:04.024467,11.33,9.85,11.33,11.33,1028,51,3.12,53,0,0.0,Clear,clear sky,15
Nyírbogát,47.793056,22.066389,2026-03-08 15:47:05.227997,11.48,9.99,11.48,11.48,1028,50,3.07,51,0,0.0,Clear,clear sky,15
Nagykálló,47.871111,21.825833,2026-03-08 15:47:06.433723,11.23,9.71,11.23,11.23,1028,50,3.01,47,3,0.0,Clear,clear sky,15
Kállósemjén,47.854722,21.935,2026-03-08 15:47:07.633256,11.4,9.88,11.4,11.4,1028,49,2.99,50,2,0.0,Clear,clear sky,15
Nyírbátor,47.8425,22.131111,2026-03-08 15:47:08.837965,11.47,9.98,11.47,11.47,1028,50,3.0,51,0,0.0,Clear,clear sky,15
Nyírcsászári,47.865556,22.179167,2026-03-08 15:47:10.033407,11.52,10.06,11.52,11.52,1028,51,2.87,52,0,0.0,Clear,clear sky,15
Hodász,47.896111,22.213611,2026-03-08 15:47:11.230304,11.41,9.94,11.41,11.41,1028,51,2.73,53,0,0.0,Clear,clear sky,15
Nyírmeggyes,47.9225,22.256667,2026-03-08 15:47:12.435221,11.39,9.94,11.39,11.39,1028,52,2.44,54,0,0.0,Clear,clear sky,15
Mátészalka,47.951389,22.313333,2026-03-08 15:47:13.640838,11.4,9.95,11.4,11.4,1028,52,2.24,54,0,0.0,Clear,clear sky,15
Kocsord,47.941944,22.375833,2026-03-08 15:47:14.846246,11.61,10.18,11.61,11.61,1028,52,2.16,53,0,0.0,Clear,clear sky,15
Kocsord alsó,47.946389,22.400556,2026-03-08 15:47:16.040748,11.61,10.18,11.61,11.61,1028,52,2.16,53,0,0.0,Clear,clear sky,15
Győrtelek,47.936667,22.424722,2026-03-08 15:47:17.243441,11.65,10.23,11.65,11.65,1028,52,2.07,52,0,0.0,Clear,clear sky,15
Győrtelek alsó,47.921111,22.443333,2026-03-08 15:47:18.446859,11.75,10.34,11.75,11.75,1028,52,2.17,51,0,0.0,Clear,clear sky,15
Ököritófülpös,47.911389,22.495,2026-03-08 15:47:19.644125,11.78,10.37,11.78,11.78,1028,52,2.09,50,0,0.0,Clear,clear sky,15
Porcsalma-Tyukod,47.868056,22.568333,2026-03-08 15:47:20.850877,16.05,15.07,16.05,16.05,1028,52,2.21,49,0,0.0,Clear,clear sky,15
Csenger,47.826111,22.666389,2026-03-08 15:47:22.045838,16.04,15.06,16.04,16.04,1028,52,2.19,48,0,0.0,Clear,clear sky,15
Kisfái,46.888303,19.807366,2026-03-08 15:47:23.264063,16.02,14.33,16.02,16.02,1027,25,3.09,90,0,0.0,Clear,clear sky,15
Nyárlőrinci szőlők,46.8775,19.828333,2026-03-08 15:47:24.463299,16.03,14.34,16.03,16.03,1027,25,3.09,90,0,0.0,Clear,clear sky,15
Nyárlőrinc alsó,46.863889,19.878889,2026-03-08 15:47:25.656610,16.05,14.36,16.05,16.05,1027,25,3.09,90,0,0.0,Clear,clear sky,15
Tiszaug-Tiszahídfő,46.866106,20.052098,2026-03-08 15:47:26.864316,16.06,14.74,15.55,16.2,1027,39,2.72,61,0,0.0,Clear,clear sky,15
Csongrádi úti tanyák,46.690278,19.921667,2026-03-08 15:47:28.068195,13.3,11.68,13.3,16.16,1027,38,2.7,69,0,0.0,Clear,clear sky,15
Kettőshalom,46.689167,20.0225,2026-03-08 15:47:29.267424,13.33,11.84,13.33,15.54,1027,43,2.63,69,0,0.0,Clear,clear sky,15
Csongrád alsó,46.711389,20.126389,2026-03-08 15:47:30.463893,13.33,11.84,13.33,15.54,1027,43,2.56,68,0,0.0,Clear,clear sky,15
Dónát,46.66988,20.368168,2026-03-08 15:47:31.659222,15.56,14.16,13.35,15.56,1027,38,2.24,55,0,0.0,Clear,clear sky,15
Pusztatemplom,46.676667,20.407222,2026-03-08 15:47:32.864246,15.55,14.15,13.34,15.55,1027,38,2.24,55,0,0.0,Clear,clear sky,15
Előhát,47.364722,20.653611,2026-03-08 15:47:34.067840,14.44,13.01,14.44,14.44,1028,41,2.88,40,3,0.0,Clear,clear sky,15
Polgárdi-Tekerespuszta,47.017778,18.297778,2026-03-08 15:47:35.273641,14.28,12.86,14.28,14.28,1027,42,2.84,92,6,0.0,Clear,clear sky,15
Szatina-Kishajmás,46.202778,18.083611,2026-03-08 15:47:36.470647,16.25,15.37,16.25,16.25,1026,55,2.01,90,3,0.0,Clear,clear sky,15
Márok,45.886944,18.499167,2026-03-08 15:47:37.668192,16.5,15.46,16.47,16.5,1026,48,0.45,41,1,0.0,Clear,clear sky,15
Nagynyárád,45.953333,18.564722,2026-03-08 15:47:38.874198,16.57,15.54,16.53,16.57,1026,48,2.84,83,1,0.0,Clear,clear sky,15
Szászvár,46.2875,18.369722222222222,2026-03-08 15:47:40.071818,13.58,12.43,13.58,13.58,1027,55,2.08,84,4,0.0,Clear,clear sky,15
Cikó,46.263514,18.557605,2026-03-08 15:47:41.279528,14.1,12.92,14.1,14.1,1027,52,2.29,80,5,0.0,Clear,clear sky,15
Gyöngyfa-Magyarmecske,45.983889,17.958889,2026-03-08 15:47:42.476341,16.57,15.67,16.57,16.57,1026,53,2.43,88,1,0.0,Clear,clear sky,15
Nagyhát,47.581389,21.445,2026-03-08 15:47:43.681152,15.92,14.38,15.92,15.92,1028,31,3.09,70,0,0.0,Clear,clear sky,15
Balmazújváros,47.613889,21.348056,2026-03-08 15:47:44.887303,16.1,15.07,16.1,16.1,1028,50,3.11,49,5,0.0,Clear,clear sky,15
Kónya,47.600833,21.2375,2026-03-08 15:47:46.085055,11.06,9.53,11.06,11.06,1028,50,3.13,47,5,0.0,Clear,clear sky,15
Hortobágy,47.586111,21.154722,2026-03-08 15:47:47.286179,10.94,9.4,10.94,10.94,1028,50,3.15,44,6,0.0,Clear,clear sky,15
Hortobágyi Halastó,47.604167,21.074167,2026-03-08 15:47:48.482395,10.81,9.25,10.81,10.81,1028,50,3.17,42,6,0.0,Clear,clear sky,15
Ohat-Pusztakócs,47.623333,20.951111,2026-03-08 15:47:49.681719,10.57,8.96,10.57,10.57,1028,49,3.17,40,9,0.0,Clear,clear sky,15
Egyek,47.616944,20.883611,2026-03-08 15:47:50.889505,14.41,13.19,14.41,14.41,1028,49,3.13,41,11,0.0,Clouds,few clouds,15
Tiszafüred,47.627778,20.756111,2026-03-08 15:47:52.084179,14.41,13.19,14.41,14.41,1028,49,3.08,44,13,0.0,Clouds,few clouds,15
Poroszló,47.657778,20.654444,2026-03-08 15:47:53.280586,14.42,13.17,14.42,14.42,1028,48,3.07,53,14,0.0,Clouds,few clouds,15
Kétútköz,47.694167,20.565,2026-03-08 15:47:54.478110,14.39,13.14,14.39,14.39,1028,48,3.09,61,17,0.0,Clouds,few clouds,15
Egerfarmos,47.711667,20.5225,2026-03-08 15:47:55.681525,14.37,13.12,14.37,14.37,1028,48,3.11,65,15,0.0,Clouds,few clouds,15
Piliscsaba,47.638056,18.829722,2026-03-08 15:47:56.886213,15.03,13.45,14.25,15.87,1028,33,0.89,90,19,0.0,Clouds,few clouds,15
Pilisjászfalu,47.656111,18.797778,2026-03-08 15:47:58.084642,15.34,13.74,14.5,16.12,1028,31,1.95,111,22,0.0,Clouds,few clouds,15
Leányvár,47.687594,18.772553,2026-03-08 15:47:59.279172,15.6,14.03,14.67,15.6,1028,31,1.8,110,28,0.0,Clouds,scattered clouds,15
Dorog,47.723333,18.732778,2026-03-08 15:48:00.472286,15.82,14.92,15.82,15.82,1028,56,1.65,110,40,0.0,Clouds,scattered clouds,15
Esztergom-Kertváros,47.743333,18.719167,2026-03-08 15:48:01.668944,15.89,15.0,15.89,15.89,1028,56,1.63,110,44,0.0,Clouds,scattered clouds,15
Esztergom,47.7775,18.743611,2026-03-08 15:48:02.870877,15.95,15.09,15.95,15.95,1028,57,1.52,110,43,0.0,Clouds,scattered clouds,15
Dunaalmás,47.733056,18.326389,2026-03-08 15:48:04.070503,13.9,12.68,13.9,13.9,1027,51,2.56,127,44,0.0,Clouds,scattered clouds,15
Neszmély,47.734444,18.345278,2026-03-08 15:48:05.274000,13.9,12.68,13.9,13.9,1027,51,2.56,127,44,0.0,Clouds,scattered clouds,15
Süttő,47.761111,18.455,2026-03-08 15:48:06.481612,13.67,12.48,13.67,13.67,1027,53,2.2,122,48,0.0,Clouds,scattered clouds,15
Piszke,47.75307,18.478017,2026-03-08 15:48:07.677548,13.64,12.47,13.64,13.64,1027,54,2.11,120,48,0.0,Clouds,scattered clouds,15
Lábatlan,47.751944,18.513333,2026-03-08 15:48:08.889729,13.57,12.39,13.57,13.57,1027,54,2.02,118,49,0.0,Clouds,scattered clouds,15
Eternitgyár,47.755544,18.530014,2026-03-08 15:48:10.089131,13.57,12.39,13.57,13.57,1027,54,2.02,118,49,0.0,Clouds,scattered clouds,15
Nyergesújfalu felső,47.762222,18.540556,2026-03-08 15:48:11.288366,13.57,12.39,13.57,13.57,1027,54,2.02,118,49,0.0,Clouds,scattered clouds,15
Nyergesújfalu,47.761111,18.561667,2026-03-08 15:48:12.484732,13.46,12.3,13.46,13.46,1027,55,1.94,117,49,0.0,Clouds,scattered clouds,15
Tokod,47.735,18.675,2026-03-08 15:48:13.679631,15.91,15.02,15.91,15.91,1028,56,1.69,110,42,0.0,Clouds,scattered clouds,15
Környe,47.541667,18.330278,2026-03-08 15:48:14.885385,13.52,12.23,13.52,13.52,1027,50,2.65,107,32,0.0,Clouds,scattered clouds,15
Kecskéd alsó,47.519722,18.316667,2026-03-08 15:48:16.084628,13.57,12.26,13.57,13.57,1027,49,2.73,105,30,0.0,Clouds,scattered clouds,15
Oroszlány,47.486944,18.308611,2026-03-08 15:48:17.279903,13.48,12.16,13.48,13.48,1027,49,2.74,102,28,0.0,Clouds,scattered clouds,15
Győrszabadhegy,47.663056,17.648056,2026-03-08 15:48:18.482388,17.08,15.65,17.08,17.08,1027,31,4.12,110,0,0.0,Clear,clear sky,15
Ménfőcsanak felső,47.638333,17.615,2026-03-08 15:48:19.678420,17.08,15.65,17.08,17.08,1027,31,4.12,110,0,0.0,Clear,clear sky,15
Gyömöre-Tét,47.501672,17.559596,2026-03-08 15:48:20.879672,18.03,16.72,16.91,18.03,1027,32,1.03,30,0,0.0,Clear,clear sky,15
Szerecseny,47.469167,17.5475,2026-03-08 15:48:22.085586,18.02,16.71,16.9,18.02,1027,32,1.03,30,0,0.0,Clear,clear sky,15
Gecse-Gyarmat,47.456111,17.515,2026-03-08 15:48:23.286533,18.05,16.75,16.94,18.05,1027,32,1.03,30,0,0.0,Clear,clear sky,15
