station_name,station_lat,station_lon,observation_time,temp,feels_like,temp_min,temp_max,pressure,humidity,wind_speed,wind_deg,clouds,precipitation_1h,weather_main,weather_description,collection_hour
Búcsúszentlászló,46.793056,16.932778,2026-03-19 13:19:00.418730,12.84,11.2,12.84,12.84,1020,39,5.64,43,100,0.0,Clouds,overcast clouds,13
Angyalföld,47.549722,19.09,2026-03-19 13:19:01.623961,13.04,11.44,12.23,14.54,1020,40,5.66,90,0,0.0,Clear,clear sky,13
Felsőjánosfa,46.841389,16.544167,2026-03-19 13:19:02.821828,12.99,11.39,12.99,12.99,1020,40,5.88,41,74,0.0,Clouds,broken clouds,13
Pankasz,46.835833,16.496111,2026-03-19 13:19:04.027655,12.71,11.08,12.71,12.71,1020,40,5.95,42,68,0.0,Clouds,broken clouds,13
Nagyrákos,46.827222,16.455556,2026-03-19 13:19:05.232626,12.68,11.05,12.68,12.68,1020,40,6.0,43,65,0.0,Clouds,broken clouds,13
Őriszentpéter,46.828889,16.415278,2026-03-19 13:19:06.437899,12.8,11.21,12.8,12.8,1020,41,6.07,45,62,0.0,Clouds,broken clouds,13
Törökbálint,47.45,18.908611,2026-03-19 13:19:07.640691,12.51,10.89,12.0,13.08,1020,41,4.47,108,83,0.0,Clouds,broken clouds,13
Bicske alsó,47.486389,18.642778,2026-03-19 13:19:08.845097,12.29,10.59,12.27,12.45,1020,39,4.84,45,76,0.0,Clouds,broken clouds,13
Bajánsenye,46.818056,16.358056,2026-03-19 13:19:10.050169,12.84,11.25,12.84,12.84,1020,41,6.12,45,61,0.0,Clouds,broken clouds,13
Aquincum,47.566218,19.048273,2026-03-19 13:19:11.254869,13.0,11.4,12.25,14.56,1020,40,4.47,108,91,0.0,Clouds,overcast clouds,13
Piliscsév,47.673889,18.791389,2026-03-19 13:19:12.454907,12.28,10.63,12.21,12.92,1020,41,4.27,41,84,0.0,Clouds,broken clouds,13
Tát,47.741201,18.64783,2026-03-19 13:19:13.657375,12.62,10.93,12.62,12.62,1020,38,3.9,49,47,0.0,Clouds,scattered clouds,13
Süttő felső,47.756667,18.437222,2026-03-19 13:19:14.863114,13.92,12.33,13.92,13.92,1020,37,4.02,49,21,0.0,Clouds,few clouds,13
Budatétény,47.405,19.016389,2026-03-19 13:19:16.073149,12.76,11.16,12.29,14.6,1020,41,5.66,90,0,0.0,Clear,clear sky,13
Seregélyes-Szőlőhegy,47.119444,18.612222,2026-03-19 13:19:17.275356,13.69,12.11,13.69,13.69,1020,38,5.15,54,41,0.0,Clouds,scattered clouds,13
Gödöllő-Állami telepek,47.564444,19.375556,2026-03-19 13:19:18.479589,11.99,10.29,11.74,12.82,1020,40,5.66,90,0,0.0,Clear,clear sky,13
Dunakeszi alsó,47.607778,19.128889,2026-03-19 13:19:19.682049,13.14,11.55,12.22,14.53,1020,40,1.34,345,92,0.0,Clouds,overcast clouds,13
Vác-Alsóváros,47.773056,19.149722,2026-03-19 13:19:20.886998,13.28,11.68,12.58,13.28,1020,39,4.03,41,64,0.0,Clouds,broken clouds,13
Szob alsó,47.816667,18.8725,2026-03-19 13:19:22.091066,12.61,10.92,12.61,12.61,1020,38,3.66,49,63,0.0,Clouds,broken clouds,13
Zalaszentmihály-Pacsa,46.7225,16.951944,2026-03-19 13:19:23.299883,12.75,11.07,12.75,12.75,1020,38,6.17,70,0,0.0,Clear,clear sky,13
Pötréte,46.682778,16.9575,2026-03-19 13:19:24.502608,12.75,11.07,12.75,12.75,1020,38,6.17,70,0,0.0,Clear,clear sky,13
Felsőrajk,46.667222,16.982778,2026-03-19 13:19:25.705976,12.81,11.14,12.81,12.81,1020,38,6.17,70,0,0.0,Clear,clear sky,13
Gelse,46.600556,16.982778,2026-03-19 13:19:26.915201,12.81,11.14,12.81,12.81,1020,38,6.17,70,0,0.0,Clear,clear sky,13
Őrtilos,46.297778,16.887778,2026-03-19 13:19:28.132104,13.03,11.49,13.03,13.03,1020,42,6.46,43,45,0.0,Clouds,scattered clouds,13
Zákány,46.251944,16.9425,2026-03-19 13:19:29.338154,12.87,11.31,12.87,12.87,1019,42,6.84,35,58,0.0,Clouds,broken clouds,13
Berzence,46.201389,17.143611,2026-03-19 13:19:30.598881,13.24,11.69,13.24,13.24,1019,41,6.37,37,86,0.0,Clouds,overcast clouds,13
Somogyudvarhely,46.163333,17.179722,2026-03-19 13:19:31.803153,13.22,11.67,13.22,13.22,1019,41,6.14,39,92,0.0,Clouds,overcast clouds,13
Bélavár,46.122778,17.207778,2026-03-19 13:19:33.003130,13.31,11.79,13.31,13.31,1019,42,5.77,42,95,0.0,Clouds,overcast clouds,13
Vízvár,46.101389,17.239444,2026-03-19 13:19:34.207107,13.22,11.69,13.22,13.22,1019,42,5.57,43,94,0.0,Clouds,overcast clouds,13
Babócsa,46.028359,17.342276,2026-03-19 13:19:35.508381,13.26,11.74,13.26,13.26,1019,42,5.19,47,90,0.0,Clouds,overcast clouds,13
Péterhida-Komlósd,46.006667,17.358056,2026-03-19 13:19:36.707041,13.33,11.82,13.33,13.33,1019,42,5.05,48,88,0.0,Clouds,overcast clouds,13
Barcs,45.951944,17.446944,2026-03-19 13:19:37.913935,13.36,11.85,13.36,13.36,1019,42,4.89,49,83,0.0,Clouds,broken clouds,13
Barcs felső,45.958333,17.486389,2026-03-19 13:19:39.124674,13.27,11.75,13.27,13.27,1019,42,4.89,49,82,0.0,Clouds,broken clouds,13
Középrigóc,45.970556,17.525,2026-03-19 13:19:40.326435,13.18,11.65,13.18,13.18,1019,42,4.91,49,81,0.0,Clouds,broken clouds,13
Darány,45.992222,17.598611,2026-03-19 13:19:41.531606,13.17,11.67,13.17,13.17,1019,43,5.01,49,79,0.0,Clouds,broken clouds,13
Kisdobsza,46.012222,17.668056,2026-03-19 13:19:42.731133,13.19,11.69,13.19,13.19,1019,43,5.09,49,77,0.0,Clouds,broken clouds,13
Nemeske,46.023333,17.705278,2026-03-19 13:19:43.943097,13.2,11.7,13.2,13.2,1019,43,5.09,49,76,0.0,Clouds,broken clouds,13
Molvány,46.035278,17.748611,2026-03-19 13:19:45.138842,13.16,11.68,13.16,13.16,1019,44,5.15,49,75,0.0,Clouds,broken clouds,13
Szigetvár,46.043333,17.801944,2026-03-19 13:19:46.341027,13.13,11.65,13.13,13.13,1019,44,5.13,49,75,0.0,Clouds,broken clouds,13
Nagypeterd,46.039444,17.871667,2026-03-19 13:19:47.543939,12.53,10.96,12.53,12.53,1019,43,5.02,50,75,0.0,Clouds,broken clouds,13
Szentdénes,46.036667,17.926944,2026-03-19 13:19:48.747603,12.48,10.91,12.48,12.48,1019,43,4.95,50,75,0.0,Clouds,broken clouds,13
Háros,47.412222,19.035,2026-03-19 13:19:49.949594,12.71,11.11,12.25,14.56,1020,41,5.66,90,0,0.0,Clear,clear sky,13
Nagytétény-Diósd,47.398333,18.974444,2026-03-19 13:19:51.150034,12.76,11.16,12.29,14.6,1020,41,2.68,91,83,0.0,Clouds,broken clouds,13
Érdliget,47.390278,18.937778,2026-03-19 13:19:52.364687,12.69,11.11,12.2,14.51,1020,42,2.68,91,82,0.0,Clouds,broken clouds,13
Érd felső,47.381111,18.922222,2026-03-19 13:19:53.569910,12.64,11.06,12.17,13.25,1020,42,2.68,91,81,0.0,Clouds,broken clouds,13
Érd,47.369722,18.900833,2026-03-19 13:19:54.798759,12.6,11.01,12.13,13.21,1020,42,4.58,57,79,0.0,Clouds,broken clouds,13
Százhalombatta,47.322222,18.899167,2026-03-19 13:19:56.001370,12.57,10.95,12.12,13.2,1020,41,4.71,59,73,0.0,Clouds,broken clouds,13
Dunai Finomító,47.294444,18.878889,2026-03-19 13:19:57.205002,12.35,10.71,12.35,12.51,1020,41,4.71,60,68,0.0,Clouds,broken clouds,13
Ercsi,47.247222,18.875278,2026-03-19 13:19:58.413380,12.58,10.89,12.58,12.74,1020,38,4.76,60,65,0.0,Clouds,broken clouds,13
Iváncsa,47.177778,18.811944,2026-03-19 13:19:59.617492,13.6,12.01,13.6,13.6,1020,38,4.95,58,57,0.0,Clouds,broken clouds,13
Pusztaszabolcs,47.139722,18.761667,2026-03-19 13:20:00.813508,13.66,12.07,13.66,13.66,1020,38,5.23,56,55,0.0,Clouds,broken clouds,13
Szabadegyháza,47.082778,18.704167,2026-03-19 13:20:02.016577,13.61,12.02,13.61,13.61,1020,38,5.53,52,51,0.0,Clouds,broken clouds,13
Sárosd,47.039722,18.660278,2026-03-19 13:20:03.225572,13.66,12.07,13.66,13.66,1020,38,5.65,51,42,0.0,Clouds,scattered clouds,13
Nagylók,46.979444,18.635833,2026-03-19 13:20:04.428527,13.47,11.86,13.47,13.47,1020,38,5.97,49,43,0.0,Clouds,scattered clouds,13
Sárbogárd,46.896944,18.611944,2026-03-19 13:20:05.632783,13.64,12.05,13.64,13.64,1020,38,6.08,49,45,0.0,Clouds,scattered clouds,13
Rétszilas,46.814167,18.601389,2026-03-19 13:20:06.832132,13.64,12.05,13.64,13.64,1019,38,6.1,49,58,0.0,Clouds,broken clouds,13
Nagyatád,46.228611,17.354167,2026-03-19 13:20:08.035947,13.18,11.62,13.18,13.18,1019,41,5.77,47,91,0.0,Clouds,overcast clouds,13
Budapest-Keleti,47.500278,19.084167,2026-03-19 13:20:09.229750,12.82,11.2,12.2,14.51,1020,40,5.66,90,0,0.0,Clear,clear sky,13
Ferencváros,47.468611,19.088056,2026-03-19 13:20:10.438287,12.76,11.14,12.22,14.53,1020,40,5.66,90,0,0.0,Clear,clear sky,13
Budapest-Nyugati,47.510833,19.0575,2026-03-19 13:20:11.640012,12.85,11.26,12.21,14.53,1020,41,5.66,90,0,0.0,Clear,clear sky,13
Kőbánya felső,47.491944,19.133889,2026-03-19 13:20:12.852185,12.82,11.2,12.14,14.45,1020,40,5.66,90,0,0.0,Clear,clear sky,13
Rákos,47.488889,19.174722,2026-03-19 13:20:14.055001,12.9,11.26,12.1,14.42,1020,39,5.66,90,0,0.0,Clear,clear sky,13
Rákosrendező,47.525556,19.089444,2026-03-19 13:20:15.254294,12.97,11.37,12.25,14.56,1020,40,5.66,90,0,0.0,Clear,clear sky,13
Zugló,47.511389,19.101389,2026-03-19 13:20:16.464141,12.88,11.27,12.21,14.52,1020,40,5.66,90,0,0.0,Clear,clear sky,13
Mezőtárkány,47.725,20.480278,2026-03-19 13:20:17.667618,11.39,9.6,11.39,11.39,1020,39,6.42,42,95,0.0,Clouds,overcast clouds,13
Istvántelek,47.550278,19.106389,2026-03-19 13:20:18.866577,13.08,11.49,12.23,14.55,1020,40,5.66,90,0,0.0,Clear,clear sky,13
Rákospalota-Újpest,47.565833,19.111944,2026-03-19 13:20:20.074551,13.11,11.52,12.23,14.54,1020,40,5.66,90,0,0.0,Clear,clear sky,13
Kőbánya alsó,47.483056,19.127222,2026-03-19 13:20:21.270486,12.8,11.18,12.16,14.47,1020,40,5.66,90,0,0.0,Clear,clear sky,13
Kőbánya-Kispest,47.463889,19.149444,2026-03-19 13:20:22.478138,12.83,11.21,12.16,14.47,1020,40,5.66,90,0,0.0,Clear,clear sky,13
Pestszentlőrinc,47.454722,19.182778,2026-03-19 13:20:23.679736,12.85,11.21,12.1,14.41,1020,39,5.66,90,0,0.0,Clear,clear sky,13
Kispest,47.448135,19.157552,2026-03-19 13:20:24.879868,12.84,11.22,12.16,14.47,1020,40,5.66,90,0,0.0,Clear,clear sky,13
Újpest,47.558889,19.079722,2026-03-19 13:20:26.097725,13.05,11.45,12.23,14.55,1020,40,5.66,90,0,0.0,Clear,clear sky,13
Pestszentimre felső,47.413611,19.173333,2026-03-19 13:20:27.306716,12.87,11.26,12.19,14.5,1020,40,5.66,90,0,0.0,Clear,clear sky,13
Dunakeszi,47.626111,19.136111,2026-03-19 13:20:28.514989,13.05,11.45,12.13,14.44,1020,40,1.34,345,91,0.0,Clouds,overcast clouds,13
Dunakeszi-Gyártelep,47.643611,19.135,2026-03-19 13:20:29.721775,13.06,11.47,12.18,13.26,1020,40,3.76,43,90,0.0,Clouds,overcast clouds,13
Alsógöd,47.676944,19.134444,2026-03-19 13:20:30.919641,13.02,11.37,12.17,13.25,1020,38,3.8,41,87,0.0,Clouds,overcast clouds,13
Göd,47.687778,19.1375,2026-03-19 13:20:32.125994,13.03,11.38,12.19,13.27,1020,38,3.8,41,87,0.0,Clouds,overcast clouds,13
Felsőgöd,47.705556,19.143333,2026-03-19 13:20:33.330543,13.29,11.67,12.61,13.32,1020,38,3.85,40,83,0.0,Clouds,broken clouds,13
Sződ-Sződliget,47.728056,19.154722,2026-03-19 13:20:34.540663,13.27,11.64,12.6,13.31,1020,38,3.9,40,78,0.0,Clouds,broken clouds,13
Vác,47.782778,19.133056,2026-03-19 13:20:35.745914,13.28,11.68,12.58,13.28,1020,39,4.03,41,64,0.0,Clouds,broken clouds,13
Verőce,47.823889,19.029444,2026-03-19 13:20:36.941672,13.12,11.51,12.41,13.12,1020,39,3.89,48,46,0.0,Clouds,scattered clouds,13
Kismaros,47.8275,19.010278,2026-03-19 13:20:38.145287,12.54,10.87,12.54,12.54,1020,39,3.83,48,48,0.0,Clouds,scattered clouds,13
Nagymaros-Visegrád,47.791389,18.959167,2026-03-19 13:20:39.341836,12.56,10.89,12.56,13.27,1020,39,3.88,44,66,0.0,Clouds,broken clouds,13
Nagymaros,47.780278,18.952222,2026-03-19 13:20:40.544383,12.64,10.98,12.64,13.34,1020,39,3.88,44,66,0.0,Clouds,broken clouds,13
Zebegény,47.801389,18.908889,2026-03-19 13:20:41.751031,12.61,10.94,12.61,13.32,1020,39,3.77,47,60,0.0,Clouds,broken clouds,13
Szob,47.821111,18.861944,2026-03-19 13:20:42.952420,12.57,10.87,12.57,12.57,1020,38,3.58,52,55,0.0,Clouds,broken clouds,13
Alagimajor,47.601944,19.153889,2026-03-19 13:20:44.156047,13.14,11.53,12.18,14.49,1020,39,5.66,90,0,0.0,Clear,clear sky,13
Fót,47.611389,19.181667,2026-03-19 13:20:45.351025,12.96,11.36,12.07,13.15,1020,40,3.73,45,92,0.0,Clouds,overcast clouds,13
Fótújfalu,47.615,19.192778,2026-03-19 13:20:46.552746,12.84,11.22,11.97,13.05,1020,40,3.73,45,92,0.0,Clouds,overcast clouds,13
Csomád,47.635556,19.222778,2026-03-19 13:20:47.756068,12.53,10.83,11.69,12.78,1020,38,3.74,46,92,0.0,Clouds,overcast clouds,13
Veresegyház,47.649167,19.288611,2026-03-19 13:20:48.957111,12.7,11.02,11.84,12.93,1020,38,3.82,47,92,0.0,Clouds,overcast clouds,13
Erdőkertes,47.662222,19.295833,2026-03-19 13:20:50.170226,12.68,10.97,11.8,12.88,1020,37,3.82,47,92,0.0,Clouds,overcast clouds,13
Őrbottyán,47.685833,19.283611,2026-03-19 13:20:51.371777,13.14,11.5,11.71,14.03,1020,38,3.82,45,91,0.0,Clouds,overcast clouds,13
Váchartyán,47.725833,19.248889,2026-03-19 13:20:52.575182,13.16,11.52,13.16,14.39,1020,38,3.88,42,82,0.0,Clouds,broken clouds,13
Magyarkút-Verőce,47.826111,19.044444,2026-03-19 13:20:53.780925,13.28,11.68,13.28,13.28,1020,39,3.89,48,46,0.0,Clouds,scattered clouds,13
Szokolya,47.871111,19.030556,2026-03-19 13:20:54.985447,12.16,10.45,12.16,12.16,1020,39,3.8,54,29,0.0,Clouds,scattered clouds,13
Berkenye,47.885278,19.071944,2026-03-19 13:20:56.196687,12.86,11.22,12.86,12.86,1020,39,3.88,52,28,0.0,Clouds,scattered clouds,13
Nógrád,47.901944,19.0475,2026-03-19 13:20:57.398263,12.51,10.81,12.51,12.51,1020,38,3.76,57,22,0.0,Clouds,few clouds,13
Diósjenő,47.94,19.049444,2026-03-19 13:20:58.606544,12.13,10.39,12.13,12.13,1020,38,3.7,60,15,0.0,Clouds,few clouds,13
Borsosberény,47.971389,19.093056,2026-03-19 13:20:59.807466,12.81,11.14,12.81,12.81,1020,38,3.92,58,6,0.0,Clear,clear sky,13
Nagyoroszi,47.993611,19.101111,2026-03-19 13:21:01.021352,12.65,10.94,12.65,12.65,1020,37,3.87,61,3,0.0,Clear,clear sky,13
Drégelyvár,48.001944,19.079444,2026-03-19 13:21:02.227370,12.93,11.24,12.93,12.93,1020,37,3.56,66,3,0.0,Clear,clear sky,13
Drégely,48.042222,19.056111,2026-03-19 13:21:03.421270,13.31,11.66,13.31,13.31,1020,37,3.46,68,4,0.0,Clear,clear sky,13
Drégelypalánk,48.055,19.046111,2026-03-19 13:21:04.652776,13.48,11.82,13.48,13.48,1020,36,3.19,69,7,0.0,Clear,clear sky,13
Ipolyvece,48.056944,19.106389,2026-03-19 13:21:05.855185,13.41,11.77,13.41,13.41,1020,37,3.63,67,5,0.0,Clear,clear sky,13
Dejtár,48.045556,19.196389,2026-03-19 13:21:07.066136,13.28,11.63,13.28,13.28,1020,37,3.99,63,3,0.0,Clear,clear sky,13
Ipolyszög,48.054444,19.221944,2026-03-19 13:21:08.272713,13.28,11.63,13.28,13.28,1020,37,4.05,64,7,0.0,Clear,clear sky,13
Iklad-Domony,47.658056,19.444444,2026-03-19 13:21:09.468829,14.42,12.91,12.1,14.42,1020,38,4.23,52,94,0.0,Clouds,overcast clouds,13
Iklad-Domony felső,47.667778,19.428056,2026-03-19 13:21:10.677060,14.37,12.85,12.09,14.4,1020,38,4.06,49,93,0.0,Clouds,overcast clouds,13
Galgamácsa,47.693889,19.3925,2026-03-19 13:21:11.880157,14.39,12.88,13.16,14.39,1020,38,3.9,46,89,0.0,Clouds,overcast clouds,13
Vácrátót,47.732778,19.217778,2026-03-19 13:21:13.078474,13.08,11.44,13.08,14.31,1020,38,3.89,41,80,0.0,Clouds,broken clouds,13
Csörög,47.735833,19.196389,2026-03-19 13:21:14.283439,13.08,11.44,12.38,13.08,1020,38,3.91,40,79,0.0,Clouds,broken clouds,13
Galgagyörk,47.735278,19.372222,2026-03-19 13:21:15.481002,14.29,12.77,13.06,14.29,1020,38,3.91,44,86,0.0,Clouds,overcast clouds,13
Püspökhatvan,47.768611,19.366944,2026-03-19 13:21:16.690197,13.07,11.42,13.07,13.07,1020,38,3.99,43,76,0.0,Clouds,broken clouds,13
Acsa-Erdőkürt,47.801111,19.386111,2026-03-19 13:21:17.898856,12.9,11.24,12.9,12.9,1020,38,4.04,42,70,0.0,Clouds,broken clouds,13
Galgaguta,47.848611,19.385556,2026-03-19 13:21:19.110087,12.58,10.89,12.58,12.58,1020,38,4.11,42,55,0.0,Clouds,broken clouds,13
Nógrádkövesd,47.879444,19.371111,2026-03-19 13:21:20.321942,12.74,11.06,12.74,12.74,1020,38,4.14,42,48,0.0,Clouds,scattered clouds,13
Magyarnándor,47.970833,19.356667,2026-03-19 13:21:21.524165,12.62,10.9,12.62,12.62,1020,37,4.23,48,22,0.0,Clouds,few clouds,13
Mohora,47.995556,19.347778,2026-03-19 13:21:22.734100,12.73,11.02,12.73,12.73,1020,37,4.26,50,18,0.0,Clouds,few clouds,13
Szügy,48.036389,19.333056,2026-03-19 13:21:23.950860,12.97,11.29,12.97,12.97,1020,37,4.31,55,15,0.0,Clouds,few clouds,13
Balassagyarmat,48.071111,19.293611,2026-03-19 13:21:25.150759,13.11,11.44,13.11,13.11,1020,37,4.28,60,13,0.0,Clouds,few clouds,13
Őrhalom,48.078773,19.403936,2026-03-19 13:21:26.358796,12.73,11.02,12.73,12.73,1020,37,4.37,57,22,0.0,Clouds,few clouds,13
Hugyag,48.083056,19.421111,2026-03-19 13:21:27.584983,12.73,11.02,12.73,12.73,1020,37,4.37,57,22,0.0,Clouds,few clouds,13
Szécsény,48.093056,19.521111,2026-03-19 13:21:28.815661,12.8,11.1,12.8,12.8,1020,37,4.17,52,29,0.0,Clouds,scattered clouds,13
Ludányhalászi,48.1325,19.529444,2026-03-19 13:21:30.016964,12.8,11.08,12.8,12.8,1020,36,4.31,57,17,0.0,Clouds,few clouds,13
Nógrádszakál,48.178333,19.521667,2026-03-19 13:21:31.236148,12.77,11.04,12.77,12.77,1020,36,4.37,60,12,0.0,Clouds,few clouds,13
Ráróspuszta,48.207222,19.541389,2026-03-19 13:21:32.451882,12.26,10.48,12.26,12.26,1020,36,4.42,64,6,0.0,Clear,clear sky,13
Litke,48.215833,19.598611,2026-03-19 13:21:33.674614,12.65,10.91,12.65,12.65,1020,36,4.44,59,5,0.0,Clear,clear sky,13
Nyíregyháza külső,47.943056,21.740278,2026-03-19 13:21:34.883458,11.88,10.19,11.88,11.88,1019,41,5.64,18,98,0.0,Clouds,overcast clouds,13
Oros,47.945833,21.806389,2026-03-19 13:21:36.108744,11.93,10.22,11.93,11.93,1019,40,5.44,18,100,0.0,Clouds,overcast clouds,13
Napkor,47.948889,21.873056,2026-03-19 13:21:37.330655,11.99,10.29,11.99,11.99,1019,40,5.25,19,99,0.0,Clouds,overcast clouds,13
Apagy,47.953775,21.939044,2026-03-19 13:21:38.599731,12.01,10.31,12.01,12.01,1019,40,5.13,20,99,0.0,Clouds,overcast clouds,13
Levelek-Magy,47.948056,21.993611,2026-03-19 13:21:39.828880,12.0,10.27,12.0,12.0,1019,39,4.89,22,97,0.0,Clouds,overcast clouds,13
Ófehértó,47.940556,22.041389,2026-03-19 13:21:41.055364,11.93,10.2,11.93,11.93,1019,39,4.65,25,96,0.0,Clouds,overcast clouds,13
Ligettanya,47.951667,22.071389,2026-03-19 13:21:42.287226,11.91,10.17,11.91,11.91,1019,39,4.45,25,94,0.0,Clouds,overcast clouds,13
Baktalórántháza,47.988611,22.083333,2026-03-19 13:21:43.512096,11.93,10.2,11.93,11.93,1019,39,4.55,23,96,0.0,Clouds,overcast clouds,13
Vaja-Rohod,48.006389,22.164167,2026-03-19 13:21:44.788620,11.98,10.25,11.98,11.98,1019,39,4.26,22,95,0.0,Clouds,overcast clouds,13
Rákóczitanya,48.022222,22.178333,2026-03-19 13:21:46.056844,11.97,10.24,11.97,11.97,1019,39,4.06,22,94,0.0,Clouds,overcast clouds,13
Nyírmada,48.059167,22.203056,2026-03-19 13:21:47.295294,12.0,10.27,12.0,12.0,1019,39,4.29,19,96,0.0,Clouds,overcast clouds,13
Tunyogmatolcs,47.960244,22.442247,2026-03-19 13:21:48.794594,12.29,10.59,12.29,12.29,1019,39,2.54,32,91,0.0,Clouds,overcast clouds,13
Tunyogmatolcs alsó,47.966025,22.464713,2026-03-19 13:21:50.353011,11.33,9.62,11.33,11.33,1019,42,2.43,33,88,0.0,Clouds,overcast clouds,13
Fehérgyarmat,47.979167,22.524444,2026-03-19 13:21:51.590059,11.32,9.6,11.32,11.32,1020,42,2.18,28,69,0.0,Clouds,broken clouds,13
Penyige,47.995278,22.566944,2026-03-19 13:21:53.138476,11.34,9.6,11.34,11.34,1019,41,2.09,27,59,0.0,Clouds,broken clouds,13
Nagyszekeres,47.976111,22.6125,2026-03-19 13:21:54.408000,11.33,9.59,11.33,11.33,1020,41,2.01,26,49,0.0,Clouds,scattered clouds,13
Kisszekeres,47.965833,22.629444,2026-03-19 13:21:55.651801,11.5,9.72,11.5,11.5,1020,39,2.05,31,49,0.0,Clouds,scattered clouds,13
Jánkmajtis,47.941944,22.657222,2026-03-19 13:21:56.880823,11.49,9.71,11.49,11.49,1020,39,2.06,34,40,0.0,Clouds,scattered clouds,13
Gacsály,47.926111,22.745,2026-03-19 13:21:59.140129,12.26,10.56,12.03,12.26,1020,39,1.93,26,14,0.0,Clouds,few clouds,13
Zajta,47.9025,22.796111,2026-03-19 13:22:00.376056,12.25,10.52,12.03,12.25,1020,38,1.93,20,6,0.0,Clear,clear sky,13
Eperjeske alsó,48.360556,22.19,2026-03-19 13:22:01.612877,11.4,9.93,11.4,11.4,1020,51,5.43,16,88,0.0,Clouds,overcast clouds,13
Mándok,48.326944,22.196389,2026-03-19 13:22:02.847150,11.36,9.88,11.36,11.36,1020,51,5.37,15,90,0.0,Clouds,overcast clouds,13
Tornyospálca,48.268333,22.201944,2026-03-19 13:22:04.084165,11.39,9.89,11.39,11.39,1019,50,5.25,15,93,0.0,Clouds,overcast clouds,13
Aranyosapáti,48.211303,22.253534,2026-03-19 13:22:05.324006,11.44,9.89,11.44,11.44,1019,48,5.0,17,95,0.0,Clouds,overcast clouds,13
Gyüre,48.171389,22.269167,2026-03-19 13:22:06.565040,11.44,9.84,11.44,11.44,1019,46,4.66,17,96,0.0,Clouds,overcast clouds,13
Varsány,48.151722,22.290047,2026-03-19 13:22:07.815176,11.45,9.83,11.45,11.45,1019,45,4.4,17,96,0.0,Clouds,overcast clouds,13
Vásárosnamény,48.126667,22.306111,2026-03-19 13:22:09.390083,11.46,9.84,11.46,11.46,1019,45,4.16,17,97,0.0,Clouds,overcast clouds,13
Vitka,48.095556,22.308056,2026-03-19 13:22:10.919818,11.47,9.82,11.47,11.47,1019,44,3.92,18,97,0.0,Clouds,overcast clouds,13
Nagydobos,48.054167,22.311111,2026-03-19 13:22:12.166300,11.41,9.73,11.41,11.41,1019,43,3.69,20,96,0.0,Clouds,overcast clouds,13
Ópályi,47.997778,22.318333,2026-03-19 13:22:13.412026,11.42,9.71,11.42,11.42,1019,42,3.23,26,93,0.0,Clouds,overcast clouds,13
Nyírcsaholy,47.908056,22.348333,2026-03-19 13:22:14.683503,11.49,9.74,11.49,11.49,1019,40,2.99,36,87,0.0,Clouds,overcast clouds,13
Nagyecsed,47.864722,22.385556,2026-03-19 13:22:15.970392,11.53,9.76,11.53,11.53,1019,39,2.94,43,82,0.0,Clouds,broken clouds,13
Tiborszállás,47.815278,22.402778,2026-03-19 13:22:17.237153,11.53,9.76,11.53,11.53,1019,39,3.17,44,76,0.0,Clouds,broken clouds,13
Kiskunhalas,46.434444,19.493611,2026-03-19 13:22:18.883791,12.62,10.93,12.62,12.62,1019,38,5.05,54,98,0.0,Clouds,overcast clouds,13
Kecskemét alsó,46.895833,19.692222,2026-03-19 13:22:20.117377,11.99,10.16,11.99,12.66,1020,35,6.17,70,0,0.0,Clear,clear sky,13
Putnok,48.286667,20.4375,2026-03-19 13:22:21.395880,11.11,9.37,9.47,11.11,1020,42,5.4,59,71,0.0,Clouds,broken clouds,13
Bánréve,48.299722,20.351944,2026-03-19 13:22:22.929197,11.1,9.36,11.1,11.1,1020,42,5.06,60,58,0.0,Clouds,broken clouds,13
Ipolytarnóc,48.236667,19.629167,2026-03-19 13:22:24.431137,12.32,10.6,12.32,12.32,1020,38,4.54,59,3,0.0,Clear,clear sky,13
Rákosliget,47.486111,19.257778,2026-03-19 13:22:25.661763,12.35,10.68,12.03,13.11,1020,40,5.66,90,0,0.0,Clear,clear sky,13
Ikrény,47.657778,17.524167,2026-03-19 13:22:26.935179,14.08,12.48,14.08,14.08,1021,36,4.23,25,70,0.0,Clouds,broken clouds,13
Rábapatona,47.648889,17.461944,2026-03-19 13:22:28.238117,14.1,12.51,14.1,14.1,1021,36,4.12,22,65,0.0,Clouds,broken clouds,13
Enese,47.644167,17.425278,2026-03-19 13:22:30.495542,14.1,12.51,14.1,14.1,1021,36,4.0,17,57,0.0,Clouds,broken clouds,13
Kóny,47.632222,17.357222,2026-03-19 13:22:32.770436,14.4,12.86,14.4,14.4,1021,37,4.06,18,55,0.0,Clouds,broken clouds,13
Farád,47.595278,17.195833,2026-03-19 13:22:34.044009,12.79,11.09,12.79,12.79,1021,37,4.0,2,46,0.0,Clouds,scattered clouds,13
Rábatamási,47.592778,17.161389,2026-03-19 13:22:35.314168,12.79,11.09,12.79,12.79,1021,37,4.0,2,46,0.0,Clouds,scattered clouds,13
Szárföld,47.589167,17.123889,2026-03-19 13:22:36.810070,12.77,11.07,12.77,12.77,1021,37,4.04,359,45,0.0,Clouds,scattered clouds,13
Veszkény,47.586944,17.101389,2026-03-19 13:22:38.789405,12.78,11.03,12.78,12.78,1021,35,4.09,356,44,0.0,Clouds,scattered clouds,13
Kapuvár,47.581944,17.046944,2026-03-19 13:22:40.028643,12.76,11.01,12.76,12.76,1021,35,4.25,356,50,0.0,Clouds,scattered clouds,13
Vitnyéd-Csermajor,47.5825,16.987222,2026-03-19 13:22:41.270238,12.77,11.02,12.77,12.77,1021,35,4.3,355,51,0.0,Clouds,broken clouds,13
Petőháza,47.595278,16.893056,2026-03-19 13:22:42.576875,12.72,10.96,12.72,12.72,1021,35,4.03,357,46,0.0,Clouds,scattered clouds,13
Fertőszentmiklós,47.6,16.858889,2026-03-19 13:22:43.817344,12.72,10.96,12.72,12.82,1021,35,3.96,1,46,0.0,Clouds,scattered clouds,13
Pinnye,47.600278,16.768611,2026-03-19 13:22:46.167608,12.6,10.83,12.6,12.7,1021,35,3.77,16,38,0.0,Clouds,scattered clouds,13
Fertőboz,47.625,16.691667,2026-03-19 13:22:47.626307,12.44,10.65,12.44,12.54,1021,35,3.63,23,24,0.0,Clouds,few clouds,13
Sopron,47.677778,16.587222,2026-03-19 13:22:49.886596,12.14,10.4,12.14,12.24,1021,38,3.6,23,7,0.0,Clear,clear sky,13
Fertőszéplak-Fertőd,47.618889,16.850833,2026-03-19 13:22:51.127291,12.74,10.98,12.74,12.84,1021,35,3.69,5,38,0.0,Clouds,scattered clouds,13
Nyúl,47.587778,17.698056,2026-03-19 13:22:52.615850,14.02,12.34,13.14,14.02,1021,33,6.69,40,0,0.0,Clear,clear sky,13
Pannonhalma,47.547778,17.740833,2026-03-19 13:22:54.123755,13.96,12.27,13.08,13.96,1021,33,6.69,40,0,0.0,Clear,clear sky,13
Tarjánpuszta,47.504722,17.789167,2026-03-19 13:22:55.363113,13.73,12.02,12.84,13.73,1021,33,6.69,40,0,0.0,Clear,clear sky,13
Győrasszonyfa,47.4925,17.799167,2026-03-19 13:22:56.707006,13.66,11.94,12.77,13.66,1021,33,6.69,40,0,0.0,Clear,clear sky,13
Veszprémvarsány,47.443333,17.818333,2026-03-19 13:22:57.987306,13.71,12.08,12.83,13.71,1021,36,5.51,36,78,0.0,Clouds,broken clouds,13
Bakonyszentlászló,47.395556,17.8175,2026-03-19 13:23:00.516569,12.58,10.86,12.58,13.47,1021,37,5.58,38,85,0.0,Clouds,overcast clouds,13
Porva-Csesznek,47.326944,17.841111,2026-03-19 13:23:01.751869,11.59,9.77,11.59,11.59,1021,37,5.56,40,90,0.0,Clouds,overcast clouds,13
Zirc,47.266667,17.878056,2026-03-19 13:23:03.290839,10.9,9.01,10.9,10.9,1021,37,5.37,45,89,0.0,Clouds,overcast clouds,13
Eplény,47.192778,17.921667,2026-03-19 13:23:04.573555,11.03,9.18,11.03,11.03,1021,38,5.23,51,75,0.0,Clouds,broken clouds,13
Marcaltő,47.4275,17.348889,2026-03-19 13:23:06.082861,13.17,11.53,13.17,13.17,1021,38,5.14,60,0,0.0,Clear,clear sky,13
Szany-Rábaszentandrás,47.460833,17.315278,2026-03-19 13:23:07.352358,13.17,11.53,13.17,13.17,1021,38,5.14,60,0,0.0,Clear,clear sky,13
Egyed-Rábacsanak,47.521944,17.316389,2026-03-19 13:23:08.599239,13.18,11.52,13.18,13.18,1021,37,4.64,30,64,0.0,Clouds,broken clouds,13
Rábapordány,47.557222,17.315,2026-03-19 13:23:09.839025,13.18,11.52,13.18,13.18,1021,37,4.44,27,61,0.0,Clouds,broken clouds,13
Albertfalva,47.440784,19.033965,2026-03-19 13:23:11.355070,12.77,11.17,12.28,14.59,1020,41,5.66,90,0,0.0,Clear,clear sky,13
Budafok,47.425833,19.041389,2026-03-19 13:23:12.598048,12.76,11.16,12.29,14.6,1020,41,5.66,90,0,0.0,Clear,clear sky,13
Tétényliget,47.384722,18.955278,2026-03-19 13:23:14.170782,12.78,11.21,12.31,14.62,1020,42,2.68,91,82,0.0,Clouds,broken clouds,13
Érd alsó,47.379722,18.923056,2026-03-19 13:23:15.682435,12.64,11.06,12.17,13.25,1020,42,2.68,91,81,0.0,Clouds,broken clouds,13
Tárnok,47.365556,18.873889,2026-03-19 13:23:18.283793,12.7,11.1,12.23,13.32,1020,41,4.63,57,75,0.0,Clouds,broken clouds,13
Martonvásár,47.321389,18.781667,2026-03-19 13:23:19.568828,12.59,10.95,12.54,12.72,1020,40,4.64,59,68,0.0,Clouds,broken clouds,13
Baracska,47.297222,18.753333,2026-03-19 13:23:21.063738,14.55,13.11,12.66,14.89,1020,40,4.64,59,65,0.0,Clouds,broken clouds,13
Pettend,47.26,18.708889,2026-03-19 13:23:22.302419,14.79,13.37,14.79,14.79,1020,40,4.62,59,61,0.0,Clouds,broken clouds,13
Kápolnásnyék,47.245556,18.692222,2026-03-19 13:23:23.886297,14.82,13.4,14.82,14.82,1020,40,4.65,59,58,0.0,Clouds,broken clouds,13
Velence,47.226944,18.663889,2026-03-19 13:23:25.119995,14.84,13.42,14.84,14.84,1020,40,4.64,58,56,0.0,Clouds,broken clouds,13
Velencefürdő,47.218611,18.648056,2026-03-19 13:23:26.786891,13.62,12.06,13.62,13.62,1020,39,4.73,58,53,0.0,Clouds,broken clouds,13
Gárdony,47.205833,18.624722,2026-03-19 13:23:28.310116,13.66,12.1,13.66,13.66,1020,39,4.73,57,51,0.0,Clouds,broken clouds,13
Agárd,47.197666,18.604907,2026-03-19 13:23:29.621108,13.66,12.1,13.66,13.66,1020,39,4.73,57,51,0.0,Clouds,broken clouds,13
Dinnyés,47.179722,18.560833,2026-03-19 13:23:30.859727,13.65,12.09,13.65,13.65,1020,39,4.83,55,42,0.0,Clouds,scattered clouds,13
Székesfehérvár,47.183611,18.424722,2026-03-19 13:23:32.354407,13.7,12.14,13.7,13.7,1020,39,4.77,54,42,0.0,Clouds,scattered clouds,13
Szabadbattyán,47.105278,18.388333,2026-03-19 13:23:33.590751,13.62,12.03,13.62,13.62,1020,38,5.12,53,34,0.0,Clouds,scattered clouds,13
Kiscséripuszta,47.048056,18.355,2026-03-19 13:23:34.818851,11.9,10.14,11.9,11.9,1020,38,5.36,52,36,0.0,Clouds,scattered clouds,13
Lepsény,46.9875,18.248056,2026-03-19 13:23:36.364009,12.12,10.54,11.01,12.12,1020,44,5.59,52,44,0.0,Clouds,scattered clouds,13
Balatonaliga,46.984444,18.171389,2026-03-19 13:23:37.980454,11.93,10.33,10.82,11.93,1020,44,5.6,52,52,0.0,Clouds,broken clouds,13
Balatonvilágos,46.964167,18.157222,2026-03-19 13:23:39.217092,11.97,10.37,10.86,11.97,1020,44,5.71,52,53,0.0,Clouds,broken clouds,13
Szabadifürdő,46.926111,18.103333,2026-03-19 13:23:40.562632,12.14,10.56,11.03,12.14,1020,44,5.87,50,54,0.0,Clouds,broken clouds,13
Ózd alsó,48.227778,20.306111,2026-03-19 13:23:43.112253,10.94,9.19,10.94,10.94,1019,42,5.06,59,48,0.0,Clouds,scattered clouds,13
Ózd,48.2225,20.294722,2026-03-19 13:23:44.686454,10.99,9.24,10.99,10.99,1019,42,5.06,59,48,0.0,Clouds,scattered clouds,13
Alsóboldva,48.212778,20.792222,2026-03-19 13:23:46.186730,10.39,9.1,9.68,11.79,1020,62,7.33,37,83,0.0,Clouds,broken clouds,13
Boldva,48.223333,20.790278,2026-03-19 13:23:48.093965,10.38,8.54,9.67,11.79,1020,41,7.33,37,83,0.0,Clouds,broken clouds,13
Borsodszirák,48.259167,20.770556,2026-03-19 13:23:49.357753,10.35,8.51,9.63,11.27,1020,41,7.26,41,82,0.0,Clouds,broken clouds,13
Edelény alsó,48.279167,20.760833,2026-03-19 13:23:50.595830,10.53,8.76,9.61,10.53,1020,43,7.26,41,82,0.0,Clouds,broken clouds,13
Edelény,48.299722,20.749444,2026-03-19 13:23:51.879943,10.51,8.74,9.59,10.51,1020,43,7.33,42,83,0.0,Clouds,broken clouds,13
Szendrőlád,48.334444,20.731944,2026-03-19 13:23:53.388347,10.42,8.64,10.42,10.42,1020,43,7.32,46,83,0.0,Clouds,broken clouds,13
Szendrő,48.400725,20.721346,2026-03-19 13:23:54.627762,11.28,9.61,11.28,11.28,1020,44,7.45,48,83,0.0,Clouds,broken clouds,13
Szendrő felső,48.409907,20.720148,2026-03-19 13:23:55.863125,11.28,9.61,11.28,11.28,1020,44,7.45,48,83,0.0,Clouds,broken clouds,13
Szalonna,48.449444,20.722222,2026-03-19 13:23:57.099994,11.38,9.72,11.38,11.38,1020,44,7.47,49,84,0.0,Clouds,broken clouds,13
Perkupa,48.471389,20.691111,2026-03-19 13:23:58.679427,10.72,9.0,10.72,10.72,1020,44,6.68,52,78,0.0,Clouds,broken clouds,13
Szemeretelep,47.443056,19.214167,2026-03-19 13:24:00.935653,12.89,11.25,12.09,14.4,1020,39,5.66,90,0,0.0,Clear,clear sky,13
Jósvafő-Aggtelek,48.489722,20.693889,2026-03-19 13:24:02.446650,11.05,9.36,11.05,11.05,1020,44,6.57,51,77,0.0,Clouds,broken clouds,13
Bódvaszilas,48.5375,20.738056,2026-03-19 13:24:03.718416,10.65,8.92,10.65,10.65,1020,44,7.15,49,84,0.0,Clouds,broken clouds,13
Komjáti,48.5475,20.759722,2026-03-19 13:24:04.982214,10.2,8.42,10.2,10.2,1019,44,7.19,47,86,0.0,Clouds,overcast clouds,13
Tornanádaska,48.558333,20.787222,2026-03-19 13:24:06.623520,11.34,9.68,11.34,11.34,1019,44,7.4,46,88,0.0,Clouds,overcast clouds,13
Onga,48.121111,20.906667,2026-03-19 13:24:07.868097,10.65,9.0,9.73,11.85,1020,47,7.61,32,90,0.0,Clouds,overcast clouds,13
Szikszó-Vásártér,48.193056,20.934722,2026-03-19 13:24:09.405809,10.56,8.74,9.7,11.81,1020,41,7.63,33,91,0.0,Clouds,overcast clouds,13
Szikszó,48.201667,20.941667,2026-03-19 13:24:10.648029,10.64,8.83,9.71,10.64,1020,41,7.63,33,93,0.0,Clouds,overcast clouds,13
Aszaló,48.219867,20.961466,2026-03-19 13:24:11.885543,10.62,8.81,9.69,10.62,1020,41,7.66,33,93,0.0,Clouds,overcast clouds,13
Halmaj,48.246667,20.991667,2026-03-19 13:24:13.137880,10.6,8.89,10.6,10.6,1020,45,7.69,33,94,0.0,Clouds,overcast clouds,13
Csobád,48.277222,21.033889,2026-03-19 13:24:14.414257,10.57,8.86,10.57,10.57,1020,45,7.7,33,94,0.0,Clouds,overcast clouds,13
Ináncs,48.291111,21.057778,2026-03-19 13:24:15.686047,10.57,8.88,10.57,10.57,1019,46,7.62,33,93,0.0,Clouds,overcast clouds,13
Forró-Encs,48.3275,21.117778,2026-03-19 13:24:17.009304,11.28,9.69,11.28,11.28,1019,47,7.56,33,91,0.0,Clouds,overcast clouds,13
Méra,48.363056,21.140278,2026-03-19 13:24:18.530597,11.1,9.49,11.1,11.1,1019,47,7.49,32,89,0.0,Clouds,overcast clouds,13
Novajidrány,48.404444,21.170556,2026-03-19 13:24:19.772433,10.55,8.91,10.55,11.5,1019,48,7.34,32,88,0.0,Clouds,overcast clouds,13
Hernádszurdok,48.487222,21.213889,2026-03-19 13:24:21.009707,10.76,8.88,9.69,11.42,1019,38,3.6,50,0,0.0,Clear,clear sky,13
Hidasnémeti,48.508333,21.229722,2026-03-19 13:24:23.317480,10.78,8.91,9.69,11.43,1019,38,3.6,50,0,0.0,Clear,clear sky,13
Mád,48.19,21.268889,2026-03-19 13:24:24.818434,12.29,10.49,12.29,12.29,1019,35,6.96,34,89,0.0,Clouds,overcast clouds,13
Rátka,48.215,21.230278,2026-03-19 13:24:26.058823,12.45,10.66,12.45,12.45,1019,35,7.01,34,90,0.0,Clouds,overcast clouds,13
Tállya,48.226944,21.225278,2026-03-19 13:24:27.303752,12.4,10.61,12.4,12.4,1019,35,7.01,34,90,0.0,Clouds,overcast clouds,13
Golop,48.242778,21.204167,2026-03-19 13:24:28.539158,12.52,10.74,12.52,12.52,1019,35,7.22,33,92,0.0,Clouds,overcast clouds,13
Abaújszántó,48.286944,21.181667,2026-03-19 13:24:30.034631,12.43,10.98,12.43,12.43,1019,48,7.26,32,91,0.0,Clouds,overcast clouds,13
Abaújszántói fürdő,48.268333,21.179722,2026-03-19 13:24:31.314699,12.49,11.05,12.49,12.49,1019,48,7.24,33,92,0.0,Clouds,overcast clouds,13
Abaújkér,48.309444,21.198333,2026-03-19 13:24:32.628458,12.39,10.94,12.39,12.39,1019,48,7.29,32,91,0.0,Clouds,overcast clouds,13
Boldogkőváralja,48.345,21.208889,2026-03-19 13:24:36.002260,12.19,10.74,12.19,12.19,1019,49,7.0,33,90,0.0,Clouds,overcast clouds,13
Korlát-Vizsoly,48.365,21.219167,2026-03-19 13:24:37.284478,12.1,10.65,12.1,12.1,1019,49,7.0,33,90,0.0,Clouds,overcast clouds,13
Fony,48.411389,21.242778,2026-03-19 13:24:38.522624,10.53,8.89,9.16,11.3,1019,48,6.97,32,90,0.0,Clouds,overcast clouds,13
Hejce-Vilmány,48.419444,21.245556,2026-03-19 13:24:39.792018,10.56,8.92,9.12,11.27,1019,48,6.97,32,90,0.0,Clouds,overcast clouds,13
Göncruszka,48.445,21.246944,2026-03-19 13:24:41.038885,10.69,9.07,9.21,11.36,1019,48,6.93,32,90,0.0,Clouds,overcast clouds,13
Gönc,48.470556,21.261389,2026-03-19 13:24:43.332184,10.55,8.91,9.12,11.26,1019,48,6.69,32,92,0.0,Clouds,overcast clouds,13
Zsujta,48.4925,21.265,2026-03-19 13:24:44.659809,10.52,8.62,9.14,11.28,1019,38,3.6,50,0,0.0,Clear,clear sky,13
Bodrogkeresztúr,48.175556,21.354167,2026-03-19 13:24:45.969505,12.56,10.79,12.56,12.56,1019,35,6.91,35,87,0.0,Clouds,overcast clouds,13
Szegi,48.201944,21.387778,2026-03-19 13:24:48.225621,12.6,10.83,9.65,12.6,1019,35,6.8,34,88,0.0,Clouds,overcast clouds,13
Erdőbénye,48.218056,21.401944,2026-03-19 13:24:49.748183,12.57,10.8,9.62,12.57,1019,35,6.69,34,89,0.0,Clouds,overcast clouds,13
Olaszliszka-Tolcsva,48.258333,21.448056,2026-03-19 13:24:51.026935,12.6,10.83,9.65,12.6,1019,35,6.49,34,91,0.0,Clouds,overcast clouds,13
Bodrogolaszi,48.286944,21.512778,2026-03-19 13:24:54.114698,9.59,6.6,9.59,12.54,1019,84,6.39,33,91,0.0,Clouds,overcast clouds,13
Sárospatak,48.325833,21.566111,2026-03-19 13:24:55.386667,9.54,6.56,9.54,12.49,1019,84,6.31,29,86,0.0,Clouds,overcast clouds,13
Sátoraljaújhely,48.385833,21.657778,2026-03-19 13:24:56.890587,9.62,6.71,9.62,9.62,1018,84,6.14,27,85,0.0,Clouds,overcast clouds,13
Vecsés,47.40855,19.25652,2026-03-19 13:24:58.177303,12.18,10.5,12.13,13.21,1021,40,5.66,90,0,0.0,Clear,clear sky,13
Vecsés-Kertekalja,47.403333,19.271389,2026-03-19 13:24:59.508250,12.22,10.54,12.17,13.25,1021,40,5.66,90,0,0.0,Clear,clear sky,13
Üllő,47.390833,19.348889,2026-03-19 13:25:02.390635,12.17,10.49,12.12,13.21,1020,40,5.66,90,0,0.0,Clear,clear sky,13
Monor,47.34545,19.43701,2026-03-19 13:25:04.738340,12.07,10.38,12.07,14.38,1020,40,5.66,90,0,0.0,Clear,clear sky,13
Pilis,47.279722,19.536389,2026-03-19 13:25:06.555347,13.08,11.49,12.03,14.34,1020,40,5.96,47,80,0.0,Clouds,broken clouds,13
Albertirsa,47.240278,19.606389,2026-03-19 13:25:09.022411,13.17,11.48,13.17,13.17,1020,36,6.12,45,84,0.0,Clouds,broken clouds,13
Ceglédbercel-Cserő,47.210278,19.686944,2026-03-19 13:25:10.321613,13.24,11.56,13.24,13.24,1020,36,6.16,45,86,0.0,Clouds,overcast clouds,13
Cegléd,47.182778,19.806111,2026-03-19 13:25:12.440642,13.26,11.58,11.57,13.34,1020,36,6.17,46,89,0.0,Clouds,overcast clouds,13
Abony,47.173056,20.016389,2026-03-19 13:25:13.685593,11.67,10.02,11.63,13.41,1019,43,6.17,50,0,0.0,Clear,clear sky,13
Szolnok,47.179167,20.175833,2026-03-19 13:25:16.763234,11.84,10.18,11.65,13.43,1020,42,6.17,50,0,0.0,Clear,clear sky,13
Szajol,47.170556,20.295278,2026-03-19 13:25:18.064220,12.01,10.31,11.66,12.01,1020,40,6.17,50,0,0.0,Clear,clear sky,13
Törökszentmiklós,47.170278,20.413611,2026-03-19 13:25:19.592207,12.0,10.3,11.66,12.0,1020,40,6.17,50,0,0.0,Clear,clear sky,13
Rákoscsaba-Újtelep,47.4875,19.271944,2026-03-19 13:25:20.923058,12.34,10.67,12.03,13.11,1020,40,5.66,90,0,0.0,Clear,clear sky,13
Rákoscsaba,47.492222,19.284722,2026-03-19 13:25:25.234399,12.13,10.42,12.02,13.1,1020,39,5.66,90,0,0.0,Clear,clear sky,13
Pécel,47.493889,19.338889,2026-03-19 13:25:26.481690,12.03,10.33,11.94,13.02,1020,40,5.66,90,0,0.0,Clear,clear sky,13
Isaszeg,47.537719,19.388955,2026-03-19 13:25:27.726841,13.42,11.81,11.81,14.12,1020,38,5.66,90,0,0.0,Clear,clear sky,13
Gödöllő,47.592222,19.358611,2026-03-19 13:25:28.980613,11.96,10.26,11.58,12.67,1020,40,5.66,90,0,0.0,Clear,clear sky,13
Máriabesnyő,47.595556,19.389722,2026-03-19 13:25:30.614124,13.41,11.75,11.73,14.04,1020,36,4.06,52,93,0.0,Clouds,overcast clouds,13
Bag,47.641111,19.471667,2026-03-19 13:25:32.952286,14.4,12.94,12.08,14.4,1020,40,4.23,52,94,0.0,Clouds,overcast clouds,13
Aszód,47.647467,19.492882,2026-03-19 13:25:34.205254,14.47,13.02,12.16,14.47,1020,40,4.34,52,95,0.0,Clouds,overcast clouds,13
Hévízgyörk,47.638611,19.526667,2026-03-19 13:25:35.522422,14.48,13.03,14.48,14.48,1020,40,4.47,53,94,0.0,Clouds,overcast clouds,13
Galgahévíz,47.6325,19.558333,2026-03-19 13:25:37.778611,14.47,13.02,14.47,14.47,1020,40,4.8,55,94,0.0,Clouds,overcast clouds,13
Tura,47.626389,19.5975,2026-03-19 13:25:39.039098,14.5,13.05,14.5,14.5,1020,40,4.93,56,94,0.0,Clouds,overcast clouds,13
Hatvan,47.663611,19.671389,2026-03-19 13:25:40.291527,12.69,11.06,12.69,12.69,1020,40,5.07,56,95,0.0,Clouds,overcast clouds,13
Vámosgyörk,47.686111,19.927778,2026-03-19 13:25:42.568957,12.35,10.68,12.35,12.35,1020,40,5.85,53,99,0.0,Clouds,overcast clouds,13
Adács,47.696389,19.975278,2026-03-19 13:25:43.879110,12.24,10.56,12.24,12.24,1020,40,5.89,52,100,0.0,Clouds,overcast clouds,13
Karácsond,47.718056,20.048611,2026-03-19 13:25:45.154288,12.04,10.34,12.04,12.04,1020,40,5.86,52,100,0.0,Clouds,overcast clouds,13
Ludas,47.723889,20.095556,2026-03-19 13:25:46.410241,12.1,10.44,12.1,12.1,1020,41,5.98,51,100,0.0,Clouds,overcast clouds,13
Nagyút,47.72666666666667,20.161388888888887,2026-03-19 13:25:48.537397,12.0,10.33,12.0,12.0,1020,41,6.02,50,100,0.0,Clouds,overcast clouds,13
Kál-Kápolna,47.734167,20.254167,2026-03-19 13:25:49.786159,11.83,10.14,11.83,11.83,1020,41,6.15,48,99,0.0,Clouds,overcast clouds,13
Füzesabony,47.751389,20.415278,2026-03-19 13:25:52.041963,11.61,9.9,11.61,11.61,1020,41,6.31,43,93,0.0,Clouds,overcast clouds,13
Szihalom,47.766944,20.491944,2026-03-19 13:25:54.112747,11.84,10.18,11.84,11.84,1020,42,6.31,41,90,0.0,Clouds,overcast clouds,13
Mezőkövesd,47.797222,20.5675,2026-03-19 13:25:56.041155,11.85,10.19,11.85,11.85,1020,42,6.39,38,90,0.0,Clouds,overcast clouds,13
Mezőkövesd felső,47.807222,20.591389,2026-03-19 13:25:57.303939,11.8,10.13,9.72,11.83,1020,42,6.39,38,90,0.0,Clouds,overcast clouds,13
Mezőkeresztes-Mezőnyárád,47.845556,20.670278,2026-03-19 13:25:58.557634,11.59,9.93,9.72,11.83,1020,43,6.68,34,90,0.0,Clouds,overcast clouds,13
Csincse,47.890833,20.764167,2026-03-19 13:26:00.875492,11.52,9.85,9.74,11.85,1020,43,7.05,33,92,0.0,Clouds,overcast clouds,13
Emőd,47.930556,20.822778,2026-03-19 13:26:02.489893,11.37,10.02,9.74,11.86,1020,56,7.31,32,89,0.0,Clouds,overcast clouds,13
Nyékládháza,47.9925,20.840556,2026-03-19 13:26:04.006141,11.15,9.81,9.78,11.9,1020,57,7.51,32,88,0.0,Clouds,overcast clouds,13
Miskolc-Tiszai,48.098611,20.811389,2026-03-19 13:26:06.666665,10.57,9.2,9.71,11.82,1020,58,7.49,32,84,0.0,Clouds,broken clouds,13
Felsőzsolca,48.083611,20.866111,2026-03-19 13:26:09.090181,10.7,9.31,9.73,11.85,1020,57,7.62,32,87,0.0,Clouds,overcast clouds,13
Hernádnémeti-Bőcs,48.051389,20.985,2026-03-19 13:26:10.346919,10.86,9.07,9.73,11.85,1020,41,7.43,33,89,0.0,Clouds,overcast clouds,13
Tiszalúc,48.039722,21.0575,2026-03-19 13:26:11.731892,11.16,9.48,9.78,12.59,1020,44,7.18,36,86,0.0,Clouds,overcast clouds,13
Taktaharkány,48.091667,21.128611,2026-03-19 13:26:13.385684,12.64,10.87,10.75,12.64,1020,35,7.23,35,89,0.0,Clouds,overcast clouds,13
Taktaszada,48.1125,21.149444,2026-03-19 13:26:14.970687,12.65,10.88,10.76,12.65,1020,35,7.21,35,90,0.0,Clouds,overcast clouds,13
Szerencs,48.155556,21.214444,2026-03-19 13:26:16.216831,12.62,10.85,12.62,12.62,1020,35,7.04,35,89,0.0,Clouds,overcast clouds,13
Mezőzombor,48.156944,21.267778,2026-03-19 13:26:17.475369,12.64,10.87,12.64,12.64,1019,35,7.0,35,88,0.0,Clouds,overcast clouds,13
Tarcal,48.125,21.34,2026-03-19 13:26:18.766432,12.66,10.9,12.66,12.66,1019,35,6.98,35,85,0.0,Clouds,overcast clouds,13
Tokaj,48.112778,21.406667,2026-03-19 13:26:20.078689,12.62,10.85,12.62,12.62,1019,35,6.94,32,85,0.0,Clouds,overcast clouds,13
Rakamaz,48.12,21.475,2026-03-19 13:26:21.342394,12.62,10.85,12.62,12.62,1019,35,6.92,31,84,0.0,Clouds,broken clouds,13
Görögszállás,48.04,21.555,2026-03-19 13:26:22.873401,12.58,10.81,12.58,12.58,1019,35,6.84,26,83,0.0,Clouds,broken clouds,13
Nyírtelek,48.005,21.615556,2026-03-19 13:26:24.211514,12.62,11.22,12.62,12.62,1019,49,6.49,20,87,0.0,Clouds,overcast clouds,13
Rákoshegy,47.468611,19.245556,2026-03-19 13:26:25.528717,12.39,10.73,11.97,13.48,1020,40,5.66,90,0,0.0,Clear,clear sky,13
Ecser,47.439444,19.318056,2026-03-19 13:26:26.827145,11.94,10.23,11.88,12.97,1020,40,5.66,90,0,0.0,Clear,clear sky,13
Maglód,47.438889,19.340833,2026-03-19 13:26:28.085648,12.04,10.34,11.96,13.47,1020,40,5.66,90,0,0.0,Clear,clear sky,13
Maglódi nyaraló,47.434167,19.363611,2026-03-19 13:26:29.435973,11.94,10.23,11.86,13.37,1020,40,5.66,90,0,0.0,Clear,clear sky,13
Gyömrő,47.429722,19.393333,2026-03-19 13:26:31.807443,13.12,11.48,11.82,14.14,1020,38,5.66,90,0,0.0,Clear,clear sky,13
Mende,47.426944,19.439722,2026-03-19 13:26:33.337557,13.13,11.49,11.79,14.1,1020,38,5.66,90,0,0.0,Clear,clear sky,13
Szőlősnyaraló,47.450278,19.561111,2026-03-19 13:26:35.919861,13.98,12.37,12.02,14.33,1020,36,5.48,52,89,0.0,Clouds,overcast clouds,13
Sülysáp,47.451944,19.5275,2026-03-19 13:26:37.176630,13.61,11.97,12.0,14.31,1020,36,5.36,53,88,0.0,Clouds,overcast clouds,13
Tápiószecső,47.443056,19.614722,2026-03-19 13:26:38.455666,13.64,12.1,12.1,14.42,1020,40,5.53,52,89,0.0,Clouds,overcast clouds,13
Szentmártonkáta,47.431944,19.680556,2026-03-19 13:26:39.860882,13.18,11.49,13.18,14.44,1020,36,5.6,51,89,0.0,Clouds,overcast clouds,13
Nagykáta,47.409722,19.737778,2026-03-19 13:26:42.241368,13.25,11.57,13.25,13.25,1020,36,5.75,50,89,0.0,Clouds,overcast clouds,13
Farmos,47.355278,19.8375,2026-03-19 13:26:44.353631,13.36,11.69,13.36,13.36,1020,36,0.89,54,93,0.0,Clouds,overcast clouds,13
Tápiószele,47.346313,19.873504,2026-03-19 13:26:45.881640,13.34,11.67,13.34,13.34,1020,36,0.89,54,95,0.0,Clouds,overcast clouds,13
Tápiógyörgye,47.325,19.95,2026-03-19 13:26:48.407518,13.4,11.74,11.62,13.4,1020,36,0.89,54,97,0.0,Clouds,overcast clouds,13
Újszász,47.285833,20.066944,2026-03-19 13:26:49.945589,13.41,11.75,11.66,13.44,1020,36,6.32,46,100,0.0,Clouds,overcast clouds,13
Szurdokpüspöki,47.851944,19.690278,2026-03-19 13:26:51.410427,12.46,10.78,12.46,12.46,1020,39,4.06,49,93,0.0,Clouds,overcast clouds,13
Lőrinci,47.739444,19.673611,2026-03-19 13:26:53.001657,12.6,10.96,12.6,12.6,1020,40,4.9,55,96,0.0,Clouds,overcast clouds,13
Selyp,47.759167,19.670833,2026-03-19 13:26:55.557810,12.58,10.94,12.58,12.58,1020,40,4.78,54,96,0.0,Clouds,overcast clouds,13
Apc-Zagyvaszántó,47.791328,19.66822,2026-03-19 13:26:57.257959,12.58,10.94,12.58,12.58,1020,40,4.63,53,96,0.0,Clouds,overcast clouds,13
Pásztó,47.918889,19.688889,2026-03-19 13:26:59.869973,12.31,10.61,12.31,12.31,1020,39,3.71,46,87,0.0,Clouds,overcast clouds,13
Mátraszőlős-Hasznos,47.938506,19.706122,2026-03-19 13:27:01.126011,12.24,10.54,12.24,12.24,1020,39,3.59,46,85,0.0,Clouds,overcast clouds,13
Tar,47.956111,19.746389,2026-03-19 13:27:03.723715,11.75,10.02,11.75,11.75,1020,40,3.59,47,79,0.0,Clouds,broken clouds,13
Mátraverebély,47.968333,19.778611,2026-03-19 13:27:05.064847,11.36,9.6,11.36,11.36,1020,40,3.51,46,74,0.0,Clouds,broken clouds,13
Nagybátony,47.981111,19.82,2026-03-19 13:27:07.473912,11.85,10.13,11.85,11.85,1020,40,3.63,47,72,0.0,Clouds,broken clouds,13
Kisterenye,48.009444,19.831944,2026-03-19 13:27:08.824777,11.87,10.16,11.87,11.87,1020,40,3.75,48,64,0.0,Clouds,broken clouds,13
Kisterenye-Bányatelep,48.021389,19.831944,2026-03-19 13:27:10.119698,11.87,10.16,11.87,11.87,1020,40,3.75,48,64,0.0,Clouds,broken clouds,13
Salgótarján külső,48.089444,19.790833,2026-03-19 13:27:12.369520,11.41,9.62,11.41,11.41,1020,39,3.73,46,43,0.0,Clouds,scattered clouds,13
Balatonfenyves GV,46.7125,17.479167,2026-03-19 13:27:13.898121,13.08,11.49,13.08,13.08,1020,40,5.94,60,9,0.0,Clear,clear sky,13
Várhegyalja,47.737778,18.366667,2026-03-19 13:27:15.150069,13.92,12.36,13.92,13.92,1020,38,4.14,47,35,0.0,Clouds,scattered clouds,13
Imremajor,46.680556,17.499722,2026-03-19 13:27:16.671010,13.11,11.52,13.11,13.11,1020,40,5.94,57,13,0.0,Clouds,few clouds,13
Rákospalota-Kertváros,47.578333,19.122778,2026-03-19 13:27:19.848463,13.14,11.53,12.22,14.53,1020,39,5.66,90,0,0.0,Clear,clear sky,13
Vicziántelep,47.675833,19.286111,2026-03-19 13:27:21.110771,12.64,11.0,11.69,12.77,1020,40,3.82,45,91,0.0,Clouds,overcast clouds,13
Pálmajor,46.662831,17.457526,2026-03-19 13:27:22.418697,13.1,11.51,13.1,13.1,1020,40,5.87,55,22,0.0,Clouds,few clouds,13
Somogyszentpál felső,46.649758,17.471404,2026-03-19 13:27:23.943621,13.07,11.48,13.07,13.07,1020,40,5.95,54,19,0.0,Clouds,few clouds,13
Somogyszentpál,46.638611,17.478611,2026-03-19 13:27:26.144560,13.06,11.47,13.06,13.06,1020,40,5.96,50,26,0.0,Clouds,scattered clouds,13
Rudnaykert,47.7175,19.257778,2026-03-19 13:27:28.015868,13.12,11.53,13.12,14.34,1020,40,3.88,42,82,0.0,Clouds,broken clouds,13
Maroshegy,47.158333,18.406667,2026-03-19 13:27:30.342225,13.67,12.11,13.67,13.67,1020,39,4.88,54,38,0.0,Clouds,scattered clouds,13
Bánhida,47.573703,18.371737,2026-03-19 13:27:31.642022,13.59,12.0,13.59,13.59,1020,38,4.65,44,67,0.0,Clouds,broken clouds,13
Magyarkút,47.850278,19.045,2026-03-19 13:27:32.952537,12.67,11.04,12.67,12.67,1020,40,3.85,50,38,0.0,Clouds,scattered clouds,13
Becske alsó,47.897222,19.364722,2026-03-19 13:27:36.252948,11.93,10.2,11.93,11.93,1020,39,4.17,43,41,0.0,Clouds,scattered clouds,13
Hosszúberek-Péteri,47.370556,19.389722,2026-03-19 13:27:37.496523,13.24,11.61,12.1,14.42,1020,38,5.66,90,0,0.0,Clear,clear sky,13
Monorierdő,47.308889,19.499167,2026-03-19 13:27:39.758653,13.22,11.64,12.01,14.32,1020,40,5.85,48,79,0.0,Clouds,broken clouds,13
Ceglédbercel,47.215833,19.658611,2026-03-19 13:27:41.023550,13.23,11.55,13.23,13.23,1020,36,6.12,45,84,0.0,Clouds,broken clouds,13
Budai út,47.208333,19.731389,2026-03-19 13:27:44.044031,13.27,11.59,13.27,13.27,1020,36,6.19,45,88,0.0,Clouds,overcast clouds,13
Büdöskútpuszta,48.373056,20.726111,2026-03-19 13:27:46.143816,11.39,9.71,11.39,11.39,1020,43,7.4,47,83,0.0,Clouds,broken clouds,13
Bánrévei Vízmű,48.282778,20.368333,2026-03-19 13:27:47.993204,11.13,9.4,11.13,11.13,1020,42,5.16,60,63,0.0,Clouds,broken clouds,13
Rákoskert,47.456389,19.296111,2026-03-19 13:27:49.299578,11.97,10.27,11.89,13.39,1020,40,5.66,90,0,0.0,Clear,clear sky,13
Szirmabesenyő,48.146944,20.783056,2026-03-19 13:27:50.648632,10.37,9.08,9.63,11.75,1020,62,7.27,34,82,0.0,Clouds,broken clouds,13
Kitérőgyár,47.766944,19.935278,2026-03-19 13:27:53.787266,12.01,10.31,12.01,12.01,1020,40,5.52,53,98,0.0,Clouds,overcast clouds,13
Tápiószentmárton,47.373333,19.797778,2026-03-19 13:27:55.030703,13.3,11.63,13.3,13.3,1020,36,0.89,54,92,0.0,Clouds,overcast clouds,13
Zagyvarékas,47.244229,20.097435,2026-03-19 13:27:57.165436,11.82,10.15,11.67,13.45,1020,42,6.17,50,0,0.0,Clear,clear sky,13
Abonyi út,47.206401,20.125204,2026-03-19 13:27:58.495134,11.84,10.18,11.67,13.45,1020,42,6.17,50,0,0.0,Clear,clear sky,13
Jászkisér felső,47.438056,20.202222,2026-03-19 13:28:00.225859,12.39,10.73,12.39,12.39,1020,40,6.41,46,99,0.0,Clouds,overcast clouds,13
Szellőhát,47.425556,20.188889,2026-03-19 13:28:01.829205,13.44,11.88,13.44,13.44,1020,40,6.41,46,100,0.0,Clouds,overcast clouds,13
Szilvásvárad-Szalajkavölgy,48.0956,20.38272,2026-03-19 13:28:03.445412,9.69,7.13,8.05,9.69,1019,44,5.19,51,57,0.0,Clouds,broken clouds,13
Vásárosnamény külső,48.084444,22.255556,2026-03-19 13:28:04.972380,11.37,9.74,11.37,11.37,1019,45,4.04,18,96,0.0,Clouds,overcast clouds,13
Újváros,46.660556,20.536111,2026-03-19 13:28:06.854691,12.21,10.43,12.21,12.21,1019,36,5.46,29,87,0.0,Clouds,overcast clouds,13
Városi park,46.697778,19.864722,2026-03-19 13:28:08.098679,12.79,11.12,12.1,13.25,1020,38,5.46,39,89,0.0,Clouds,overcast clouds,13
Belsőkamaráspuszta,46.341944,20.848889,2026-03-19 13:28:09.359931,11.7,9.92,11.7,11.7,1018,38,5.43,29,94,0.0,Clouds,overcast clouds,13
Sajószöged,47.945278,20.981667,2026-03-19 13:28:11.630861,11.67,10.02,9.83,11.94,1020,43,7.04,36,82,0.0,Clouds,broken clouds,13
Kazincbarcika alsó,48.255278,20.649167,2026-03-19 13:28:14.328392,10.22,8.42,9.6,11.24,1020,43,6.57,46,82,0.0,Clouds,broken clouds,13
Nyárjas,46.857778,19.923611,2026-03-19 13:28:15.895288,12.44,10.73,12.05,13.2,1020,38,6.17,70,0,0.0,Clear,clear sky,13
Pogonyipuszta,48.296389,20.381667,2026-03-19 13:28:19.465809,11.09,9.35,11.09,11.09,1020,42,5.16,60,63,0.0,Clouds,broken clouds,13
Sióvölgy,46.911103,18.076964,2026-03-19 13:28:21.264568,12.19,10.61,11.64,12.19,1020,44,5.82,51,49,0.0,Clouds,scattered clouds,13
Répáspuszta,46.430278,17.847222,2026-03-19 13:28:22.780402,13.14,11.53,13.14,13.14,1019,39,6.19,48,92,0.0,Clouds,overcast clouds,13
Virányos,48.066667,21.527222,2026-03-19 13:28:24.089079,12.61,10.84,12.61,12.61,1019,35,6.86,26,83,0.0,Clouds,broken clouds,13
Füzesbokor,47.988611,21.6475,2026-03-19 13:28:25.872527,12.61,11.18,12.61,12.61,1019,48,6.26,19,90,0.0,Clouds,overcast clouds,13
Kunfehértó,46.355833,19.417222,2026-03-19 13:28:27.453839,12.58,10.91,12.58,12.58,1019,39,4.5,56,91,0.0,Clouds,overcast clouds,13
Erdőszél,46.329444,19.395,2026-03-19 13:28:28.697241,12.47,10.79,12.47,12.47,1019,39,4.28,58,84,0.0,Clouds,broken clouds,13
Jánoshalma,46.293056,19.330278,2026-03-19 13:28:29.987932,12.59,10.92,12.59,12.59,1019,39,3.82,59,79,0.0,Clouds,broken clouds,13
Mélykút,46.213056,19.370556,2026-03-19 13:28:32.526928,12.54,10.89,12.54,12.54,1019,40,3.26,56,83,0.0,Clouds,broken clouds,13
Bácsalmás,46.118056,19.346389,2026-03-19 13:28:33.784491,12.54,10.89,12.54,12.54,1019,40,2.82,50,89,0.0,Clouds,overcast clouds,13
Almás,46.116216,19.328803,2026-03-19 13:28:36.127953,12.54,10.89,12.54,12.54,1019,40,2.82,50,89,0.0,Clouds,overcast clouds,13
Bácsbokod-Bácsborsód,46.115833,19.16,2026-03-19 13:28:37.365389,12.73,11.1,12.73,12.73,1018,40,2.93,49,77,0.0,Clouds,broken clouds,13
Baja,46.187014,18.957602,2026-03-19 13:28:38.924206,13.07,11.48,13.07,13.07,1019,40,3.5,60,76,0.0,Clouds,broken clouds,13
Harkakötöny,46.458333,19.601944,2026-03-19 13:28:42.220811,9.84,7.37,9.84,9.84,1019,38,5.05,52,98,0.0,Clouds,overcast clouds,13
Tajó,46.473056,19.650556,2026-03-19 13:28:43.464989,9.88,7.44,9.88,9.88,1019,38,5.0,52,98,0.0,Clouds,overcast clouds,13
Kiskunmajsa,46.501667,19.728056,2026-03-19 13:28:47.082455,12.72,11.04,12.72,12.72,1020,38,4.99,51,97,0.0,Clouds,overcast clouds,13
Jászszentlászló,46.565833,19.753611,2026-03-19 13:28:48.861087,12.74,11.06,12.74,12.74,1020,38,5.16,46,94,0.0,Clouds,overcast clouds,13
Galambos,46.625,19.801111,2026-03-19 13:28:51.139019,12.77,11.09,12.77,13.24,1020,38,5.31,43,92,0.0,Clouds,overcast clouds,13
Pestszentimre,47.402222,19.188611,2026-03-19 13:28:52.439827,13.07,11.45,12.18,14.49,1020,39,5.66,90,0,0.0,Clear,clear sky,13
Gyál felső,47.390278,19.204722,2026-03-19 13:28:53.735430,13.09,11.47,12.19,14.82,1020,39,5.66,90,0,0.0,Clear,clear sky,13
Gyál,47.376667,19.219444,2026-03-19 13:28:55.015920,12.3,10.63,12.2,13.28,1020,40,5.66,90,0,0.0,Clear,clear sky,13
Ócsa,47.301389,19.232222,2026-03-19 13:28:56.248758,12.34,10.67,12.22,12.78,1020,40,5.66,90,0,0.0,Clear,clear sky,13
Inárcs-Kakucs,47.247222,19.317778,2026-03-19 13:28:57.816641,12.23,10.55,12.23,14.54,1020,40,5.57,50,58,0.0,Clouds,broken clouds,13
Dabas,47.194722,19.328889,2026-03-19 13:28:59.324679,12.24,10.56,12.24,12.24,1020,40,5.69,48,58,0.0,Clouds,broken clouds,13
Gyón,47.178333,19.355556,2026-03-19 13:29:00.668876,12.21,10.53,12.21,12.21,1020,40,5.67,48,57,0.0,Clouds,broken clouds,13
Hernád,47.161389,19.4025,2026-03-19 13:29:03.019412,12.95,11.32,12.95,12.95,1020,39,5.75,47,65,0.0,Clouds,broken clouds,13
Bakonygyirót,47.416389,17.811944,2026-03-19 13:29:05.033737,13.59,11.94,12.71,13.59,1021,36,5.57,37,81,0.0,Clouds,broken clouds,13
Vinye,47.360317,17.819635,2026-03-19 13:29:06.571551,12.03,10.25,12.03,12.91,1021,37,5.58,39,88,0.0,Clouds,overcast clouds,13
Nemesgörzsöny,47.402924,17.376385,2026-03-19 13:29:07.816467,13.16,11.52,13.16,13.16,1021,38,5.14,60,0,0.0,Clear,clear sky,13
Rábahíd,47.438618,17.337525,2026-03-19 13:29:09.056516,13.15,11.51,13.15,13.15,1021,38,5.14,60,0,0.0,Clear,clear sky,13
Öskü,47.162222,18.076389,2026-03-19 13:29:10.669898,11.86,10.09,11.86,11.86,1020,38,5.27,53,73,0.0,Clouds,broken clouds,13
Márkó,47.1275,17.813889,2026-03-19 13:29:12.202539,11.5,9.67,10.42,11.5,1021,37,5.12,54,55,0.0,Clouds,broken clouds,13
Nemeskocs,47.203333,17.188889,2026-03-19 13:29:13.777951,13.11,11.47,13.11,13.11,1021,38,6.66,39,73,0.0,Clouds,broken clouds,13
Zalagyömörő,47.011111,17.220833,2026-03-19 13:29:15.062303,13.87,12.3,13.87,13.87,1021,38,6.66,36,90,0.0,Clouds,overcast clouds,13
Rigács,47.061667,17.199167,2026-03-19 13:29:16.341484,13.84,12.27,13.84,13.84,1021,38,6.82,35,88,0.0,Clouds,overcast clouds,13
Kemenespálfa,47.139722,17.183056,2026-03-19 13:29:18.134109,13.98,12.43,13.98,13.98,1021,38,6.98,37,80,0.0,Clouds,broken clouds,13
Lentiszombathely,46.611389,16.5725,2026-03-19 13:29:20.470913,12.73,11.13,12.73,12.73,1022,41,4.86,36,90,0.0,Clouds,overcast clouds,13
Ortaháza,46.626667,16.685833,2026-03-19 13:29:21.977759,13.27,11.72,13.27,13.27,1022,41,4.25,41,84,0.0,Clouds,broken clouds,13
Rádiháza,46.654722,16.765833,2026-03-19 13:29:23.207573,13.27,11.7,13.27,13.27,1021,40,4.27,43,83,0.0,Clouds,broken clouds,13
Baktüttös,46.690833,16.826389,2026-03-19 13:29:24.705391,12.6,10.96,12.6,12.6,1021,40,4.62,47,82,0.0,Clouds,broken clouds,13
Budafa,46.851667,16.624722,2026-03-19 13:29:25.948213,13.55,12.03,13.55,13.55,1021,41,5.81,39,85,0.0,Clouds,overcast clouds,13
Zalapatakalja,46.845556,16.603889,2026-03-19 13:29:27.558690,13.55,12.03,13.55,13.55,1021,41,5.84,40,77,0.0,Clouds,broken clouds,13
Tormásliget,47.430556,16.781667,2026-03-19 13:29:30.088812,12.47,10.92,12.47,12.47,1021,44,4.58,21,73,0.0,Clouds,broken clouds,13
Belecska,46.64,18.411389,2026-03-19 13:29:32.958510,13.45,11.84,13.45,13.45,1019,38,6.39,48,87,0.0,Clouds,overcast clouds,13
Almár,47.956111,20.356944,2026-03-19 13:29:34.225507,10.79,9.07,9.26,11.37,1019,44,5.51,45,68,0.0,Clouds,broken clouds,13
Vasútmúzeum,47.543889,19.099444,2026-03-19 13:29:35.555929,13.08,11.49,12.23,14.54,1020,40,5.66,90,0,0.0,Clear,clear sky,13
Abda,47.690833,17.540556,2026-03-19 13:29:37.312291,14.1,12.51,14.1,14.1,1021,36,3.93,20,70,0.0,Clouds,broken clouds,13
Vadaspark,47.526111,18.949167,2026-03-19 13:29:39.545964,11.14,9.35,10.42,12.73,1020,40,2.68,58,88,0.0,Clouds,overcast clouds,13
Barosstelep,47.398889,18.989167,2026-03-19 13:29:40.772573,13.28,11.73,12.29,14.6,1020,41,2.68,90,83,0.0,Clouds,broken clouds,13
Fegyvernek-Örményes,47.194444,20.5575,2026-03-19 13:29:42.041224,12.02,10.32,12.02,12.02,1019,40,6.37,34,89,0.0,Clouds,overcast clouds,13
Zagyvapálfalva,48.068889,19.785,2026-03-19 13:29:43.640607,11.63,9.89,11.63,11.63,1020,40,3.66,46,51,0.0,Clouds,broken clouds,13
Salgótarján,48.105556,19.807222,2026-03-19 13:29:44.903581,10.98,9.15,10.98,10.98,1020,39,3.85,46,35,0.0,Clouds,scattered clouds,13
Szabadisóstó,46.933889,18.118056,2026-03-19 13:29:46.129657,12.17,10.59,11.62,12.17,1020,44,5.78,51,53,0.0,Clouds,broken clouds,13
Siófok,46.907778,18.053889,2026-03-19 13:29:47.393712,12.17,10.59,11.62,12.17,1020,44,5.82,51,49,0.0,Clouds,scattered clouds,13
Balatonszéplak felső,46.898056,18.018056,2026-03-19 13:29:49.154385,12.17,10.59,11.62,12.17,1020,44,5.87,50,47,0.0,Clouds,scattered clouds,13
Balatonszéplak alsó,46.891944,17.993333,2026-03-19 13:29:50.656953,12.17,10.59,11.62,12.17,1020,44,5.36,45,42,0.0,Clouds,scattered clouds,13
Zamárdi felső,46.886111,17.969444,2026-03-19 13:29:51.937813,11.89,10.23,11.63,12.71,1020,42,5.36,45,36,0.0,Clouds,scattered clouds,13
Zamárdi,46.88,17.944722,2026-03-19 13:29:53.161212,11.78,10.11,11.57,12.64,1020,42,5.36,45,36,0.0,Clouds,scattered clouds,13
Szántód,46.861944,17.899167,2026-03-19 13:29:54.736768,11.81,10.14,11.66,12.73,1020,42,5.36,45,27,0.0,Clouds,scattered clouds,13
Szőny-Déli,47.735278,18.141944,2026-03-19 13:29:55.971670,14.12,12.53,14.12,15.62,1021,36,3.84,34,71,0.0,Clouds,broken clouds,13
Várpalota,47.194444,18.149167,2026-03-19 13:29:57.737579,13.21,11.58,13.21,13.21,1020,38,4.98,52,73,0.0,Clouds,broken clouds,13
Pétfürdő,47.1675,18.121389,2026-03-19 13:29:59.029751,11.91,10.15,11.91,11.91,1020,38,5.17,53,70,0.0,Clouds,broken clouds,13
Hajmáskér,47.141111,18.009444,2026-03-19 13:30:00.254941,11.66,9.87,11.22,12.29,1020,38,4.99,48,78,0.0,Clouds,broken clouds,13
Veszprém,47.118889,17.91,2026-03-19 13:30:01.521133,11.85,10.06,11.01,12.09,1020,37,4.92,50,71,0.0,Clouds,broken clouds,13
Herend,47.136944,17.760278,2026-03-19 13:30:03.127096,11.27,9.42,10.2,11.27,1020,37,4.86,47,73,0.0,Clouds,broken clouds,13
Városlőd,47.144167,17.652778,2026-03-19 13:30:05.426514,11.44,9.61,11.44,11.98,1020,37,5.2,38,90,0.0,Clouds,overcast clouds,13
Városlőd-Kislőd,47.133889,17.631111,2026-03-19 13:30:06.704002,11.55,9.73,11.55,12.09,1020,37,5.11,41,88,0.0,Clouds,overcast clouds,13
Ajka,47.105902,17.572938,2026-03-19 13:30:08.229648,11.85,10.06,11.85,12.39,1020,37,5.46,37,100,0.0,Clouds,overcast clouds,13
Ajka-Gyártelep,47.096806,17.555219,2026-03-19 13:30:10.503174,11.9,10.11,11.9,12.44,1020,37,5.46,37,100,0.0,Clouds,overcast clouds,13
Devecser,47.1125,17.435278,2026-03-19 13:30:11.767283,12.31,10.56,12.31,12.84,1020,37,5.96,33,100,0.0,Clouds,overcast clouds,13
Somlóvásárhely,47.124444,17.369167,2026-03-19 13:30:13.061779,12.42,10.66,12.42,12.95,1020,36,6.47,30,97,0.0,Clouds,overcast clouds,13
Tüskevár,47.128611,17.331389,2026-03-19 13:30:15.663850,12.45,10.72,12.45,12.99,1020,37,6.57,30,93,0.0,Clouds,overcast clouds,13
Karakószörcsök,47.133611,17.287778,2026-03-19 13:30:17.205510,13.85,12.26,13.85,13.85,1020,37,6.66,30,90,0.0,Clouds,overcast clouds,13
Kerta,47.151944,17.237222,2026-03-19 13:30:19.496152,13.95,12.37,13.95,13.95,1020,37,6.64,33,81,0.0,Clouds,broken clouds,13
Boba,47.183333,17.191389,2026-03-19 13:30:20.768261,13.94,12.36,13.94,13.94,1020,37,6.42,34,78,0.0,Clouds,broken clouds,13
Börgönd,47.140278,18.515,2026-03-19 13:30:22.183193,13.37,11.73,13.37,13.37,1020,37,4.76,52,54,0.0,Clouds,broken clouds,13
Belsőbáránd,47.102778,18.499722,2026-03-19 13:30:24.536175,13.34,11.7,13.34,13.34,1020,37,4.82,52,50,0.0,Clouds,scattered clouds,13
Zichyújfalu,47.124444,18.6725,2026-03-19 13:30:26.292666,13.29,11.64,13.29,13.29,1019,37,4.85,53,67,0.0,Clouds,broken clouds,13
Seregélyes,47.121111,18.580556,2026-03-19 13:30:28.053733,13.49,11.86,13.49,13.49,1020,37,4.77,52,56,0.0,Clouds,broken clouds,13
Polgárdi-Ipartelepek,47.079167,18.314444,2026-03-19 13:30:29.314116,11.8,10.0,11.8,11.8,1020,37,4.78,53,57,0.0,Clouds,broken clouds,13
Polgárdi,47.07,18.284167,2026-03-19 13:30:30.546851,11.8,10.0,11.8,11.8,1020,37,4.78,53,57,0.0,Clouds,broken clouds,13
Füle,47.05,18.255278,2026-03-19 13:30:33.097259,11.77,9.97,11.77,11.77,1020,37,4.88,53,58,0.0,Clouds,broken clouds,13
Zánka-Erzsébettábor,46.8775,17.709167,2026-03-19 13:30:34.326525,11.85,10.13,11.57,12.65,1020,40,5.46,56,21,0.0,Clouds,few clouds,13
Csajág,47.033889,18.186389,2026-03-19 13:30:35.551959,12.01,10.42,11.46,12.01,1020,44,5.02,53,61,0.0,Clouds,broken clouds,13
Balatonakarattya,47.017222,18.167778,2026-03-19 13:30:36.860700,11.86,10.25,11.31,11.86,1020,44,5.02,53,61,0.0,Clouds,broken clouds,13
Csittényhegy,47.025278,18.1375,2026-03-19 13:30:38.445038,12.08,10.49,11.53,12.08,1020,44,5.05,54,61,0.0,Clouds,broken clouds,13
Balatonkenese,47.0325,18.105556,2026-03-19 13:30:39.771395,12.16,10.58,11.61,12.16,1020,44,5.07,54,61,0.0,Clouds,broken clouds,13
Balatonfűzfő,47.060278,18.0425,2026-03-19 13:30:42.245588,12.0,10.35,11.64,12.71,1020,42,5.05,54,61,0.0,Clouds,broken clouds,13
Balatonalmádi,47.028333,18.015,2026-03-19 13:30:43.551782,11.94,10.29,11.61,12.69,1020,42,5.1,55,59,0.0,Clouds,broken clouds,13
Káptalanfüred,47.008889,18.003889,2026-03-19 13:30:46.779179,11.95,10.3,11.64,12.71,1020,42,5.14,56,54,0.0,Clouds,broken clouds,13
Alsóörs,46.985278,17.974722,2026-03-19 13:30:48.309918,11.91,10.25,11.65,12.73,1020,42,5.36,45,54,0.0,Clouds,broken clouds,13
Csopak,46.974722,17.931111,2026-03-19 13:30:49.633376,11.68,10.0,11.52,12.6,1020,42,5.36,45,44,0.0,Clouds,scattered clouds,13
Balatonarács,46.9625,17.8975,2026-03-19 13:30:50.974816,11.49,9.77,11.42,12.5,1020,41,5.36,45,44,0.0,Clouds,scattered clouds,13
Balatonfüred,46.955833,17.883056,2026-03-19 13:30:52.264140,11.54,9.82,11.49,12.57,1020,41,5.36,45,39,0.0,Clouds,scattered clouds,13
Aszófő,46.925556,17.8325,2026-03-19 13:30:53.485669,11.59,9.85,11.59,12.66,1020,40,5.36,45,34,0.0,Clouds,scattered clouds,13
Örvényes,46.9125,17.818056,2026-03-19 13:30:55.734443,11.61,9.87,11.61,12.68,1020,40,5.36,45,34,0.0,Clouds,scattered clouds,13
Balatonudvari,46.904722,17.808056,2026-03-19 13:30:57.229991,11.64,9.9,11.64,12.72,1020,40,5.36,45,32,0.0,Clouds,scattered clouds,13
Fövenyes,46.893611,17.789444,2026-03-19 13:30:58.493217,11.67,9.94,11.66,12.73,1020,40,5.36,45,30,0.0,Clouds,scattered clouds,13
Balatonakali-Dörgicse,46.88,17.747778,2026-03-19 13:30:59.752667,11.77,10.05,11.65,12.73,1020,40,5.34,55,28,0.0,Clouds,scattered clouds,13
Zánka-Köveskál,46.872778,17.687778,2026-03-19 13:31:00.979780,11.99,10.29,11.64,12.72,1020,40,5.45,58,21,0.0,Clouds,few clouds,13
Balatonszepezd,46.851111,17.663056,2026-03-19 13:31:02.997645,11.64,9.9,11.64,12.72,1020,40,5.58,57,16,0.0,Clouds,few clouds,13
Szepezdfürdő,46.839722,17.649444,2026-03-19 13:31:04.276789,11.61,9.87,11.61,12.69,1020,40,5.59,58,16,0.0,Clouds,few clouds,13
Révfülöp,46.829167,17.632222,2026-03-19 13:31:05.502646,11.62,9.88,11.62,12.7,1020,40,5.59,58,16,0.0,Clouds,few clouds,13
Balatonrendes,46.824722,17.582778,2026-03-19 13:31:06.903072,11.62,9.88,11.62,12.7,1020,40,5.67,63,15,0.0,Clouds,few clouds,13
Ábrahámhegy,46.815,17.572222,2026-03-19 13:31:08.163390,11.59,9.85,11.59,12.66,1020,40,5.67,63,15,0.0,Clouds,few clouds,13
Badacsonyörs,46.805556,17.531667,2026-03-19 13:31:09.402806,12.72,11.09,12.72,12.72,1020,40,5.64,64,19,0.0,Clouds,few clouds,13
Kisújszállás,47.223889,20.751111,2026-03-19 13:31:12.533821,12.14,10.4,12.14,12.14,1019,38,5.91,30,88,0.0,Clouds,overcast clouds,13
Karcag,47.303333,20.928056,2026-03-19 13:31:14.270882,11.93,10.17,11.93,11.93,1019,38,5.92,28,91,0.0,Clouds,overcast clouds,13
Püspökladány,47.3275,21.128889,2026-03-19 13:31:15.831872,11.92,10.16,11.92,11.92,1018,38,5.72,29,95,0.0,Clouds,overcast clouds,13
Kaba,47.368889,21.259444,2026-03-19 13:31:17.057227,12.1,10.33,12.1,12.1,1018,37,5.41,33,94,0.0,Clouds,overcast clouds,13
Hajdúszoboszló,47.429444,21.406944,2026-03-19 13:31:19.197779,12.09,10.32,12.09,12.09,1018,37,4.63,40,0,0.0,Clear,clear sky,13
Ebes,47.462778,21.488889,2026-03-19 13:31:20.457632,12.04,10.27,12.04,12.04,1018,37,4.63,40,0,0.0,Clear,clear sky,13
Debrecen,47.520278,21.628611,2026-03-19 13:31:21.720221,11.92,10.13,11.92,11.92,1018,37,4.63,40,0,0.0,Clear,clear sky,13
Debrecen-Csapókert,47.540556,21.648056,2026-03-19 13:31:24.523080,11.87,10.08,11.87,11.87,1018,37,4.63,40,0,0.0,Clear,clear sky,13
Apafa,47.584045,21.655858,2026-03-19 13:31:28.190631,11.83,10.03,11.83,11.83,1018,37,4.63,40,0,0.0,Clear,clear sky,13
Bocskaikert,47.6425,21.666389,2026-03-19 13:31:29.457489,11.76,9.96,11.76,11.76,1019,37,4.63,40,0,0.0,Clear,clear sky,13
Hajdúhadház,47.686944,21.679167,2026-03-19 13:31:30.930898,11.73,10.0,11.73,11.73,1019,40,5.58,22,96,0.0,Clouds,overcast clouds,13
Téglás,47.714722,21.684722,2026-03-19 13:31:33.734968,11.8,10.08,11.8,11.8,1019,40,5.74,20,96,0.0,Clouds,overcast clouds,13
Újfehértó,47.814444,21.706389,2026-03-19 13:31:35.295188,11.2,9.47,11.2,11.2,1019,42,6.25,14,95,0.0,Clouds,overcast clouds,13
Nyíregyháza,47.946667,21.705556,2026-03-19 13:31:38.232686,11.13,9.47,11.13,11.13,1019,45,6.51,10,93,0.0,Clouds,overcast clouds,13
Sóstó,47.998051,21.729047,2026-03-19 13:31:40.251720,12.59,11.11,12.59,12.59,1019,46,6.47,9,95,0.0,Clouds,overcast clouds,13
Sóstóhegy,48.012222,21.742778,2026-03-19 13:31:41.507207,12.59,11.13,12.59,12.59,1019,47,6.51,9,93,0.0,Clouds,overcast clouds,13
Kemecse,48.065556,21.801667,2026-03-19 13:31:42.769529,11.24,9.65,11.24,11.24,1019,47,6.49,9,91,0.0,Clouds,overcast clouds,13
Nyírbogdány,48.082222,21.855278,2026-03-19 13:31:43.995212,11.24,9.67,11.24,11.24,1019,48,6.43,9,89,0.0,Clouds,overcast clouds,13
Kék,48.093333,21.883889,2026-03-19 13:31:46.242713,11.29,9.7,11.29,11.29,1019,47,6.24,9,90,0.0,Clouds,overcast clouds,13
Demecser,48.111667,21.926667,2026-03-19 13:31:47.478344,11.32,9.73,11.32,11.32,1019,47,6.13,10,89,0.0,Clouds,overcast clouds,13
Gégény,48.128333,21.951944,2026-03-19 13:31:49.078345,11.32,9.76,11.32,11.32,1019,48,5.99,10,88,0.0,Clouds,overcast clouds,13
Pátroha,48.158611,21.996667,2026-03-19 13:31:51.848860,11.35,9.79,11.35,11.35,1019,48,5.86,11,88,0.0,Clouds,overcast clouds,13
Ajak,48.1865,22.048972,2026-03-19 13:31:53.110097,11.35,9.79,11.35,11.35,1019,48,5.74,12,89,0.0,Clouds,overcast clouds,13
Kisvárda,48.208333,22.078333,2026-03-19 13:31:54.347704,11.36,9.8,11.36,11.36,1019,48,5.55,14,92,0.0,Clouds,overcast clouds,13
Kisvárda-Hármasút,48.228333,22.091944,2026-03-19 13:31:55.865376,11.36,9.8,11.36,11.36,1019,48,5.55,14,92,0.0,Clouds,overcast clouds,13
Fényeslitke,48.267222,22.107222,2026-03-19 13:31:58.390427,11.31,9.75,11.31,11.31,1019,48,5.52,16,93,0.0,Clouds,overcast clouds,13
Komoró,48.305278,22.118056,2026-03-19 13:31:59.695571,11.33,9.77,11.33,11.33,1019,48,5.61,17,92,0.0,Clouds,overcast clouds,13
Tuzsér,48.342222,22.131667,2026-03-19 13:32:01.464723,11.28,9.74,11.28,11.28,1019,49,5.83,18,91,0.0,Clouds,overcast clouds,13
Tiszabezdéd,48.371389,22.145,2026-03-19 13:32:03.697436,11.29,9.73,11.29,11.29,1019,48,5.84,20,91,0.0,Clouds,overcast clouds,13
Záhony,48.402222,22.183611,2026-03-19 13:32:04.981871,11.27,9.71,11.27,11.27,1019,48,5.83,21,91,0.0,Clouds,overcast clouds,13
Karcag-Vásártér,47.3225,20.9075,2026-03-19 13:32:06.271756,12.78,11.11,12.78,12.78,1019,38,5.92,28,91,0.0,Clouds,overcast clouds,13
Berekfürdő,47.374722,20.827222,2026-03-19 13:32:07.540947,12.77,11.12,12.77,12.77,1019,39,6.02,31,91,0.0,Clouds,overcast clouds,13
Kunmadaras,47.415278,20.793056,2026-03-19 13:32:08.886346,12.76,11.24,12.76,12.76,1019,44,6.14,34,91,0.0,Clouds,overcast clouds,13
Tiszaszentimre,47.490833,20.733056,2026-03-19 13:32:10.367250,12.77,11.25,12.77,12.77,1019,44,6.42,37,92,0.0,Clouds,overcast clouds,13
Tiszaszőlős,47.555556,20.728056,2026-03-19 13:32:12.912930,12.77,11.25,12.77,12.77,1019,44,6.63,38,93,0.0,Clouds,overcast clouds,13
Hosszúhát,47.235556,21.101944,2026-03-19 13:32:14.400626,12.13,10.36,12.13,12.13,1018,37,5.59,31,89,0.0,Clouds,overcast clouds,13
Szerep,47.234444,21.145833,2026-03-19 13:32:15.667672,12.09,10.32,12.09,12.09,1019,37,5.39,36,84,0.0,Clouds,broken clouds,13
Sárrétudvari,47.231667,21.180833,2026-03-19 13:32:17.230283,12.14,10.38,12.14,12.14,1018,37,5.48,32,88,0.0,Clouds,overcast clouds,13
Biharnagybajom,47.208889,21.221944,2026-03-19 13:32:18.950491,12.19,10.4,12.19,12.19,1018,36,5.36,35,82,0.0,Clouds,broken clouds,13
Füzesgyarmat,47.113056,21.194444,2026-03-19 13:32:20.256778,12.4,10.64,12.4,12.4,1018,36,5.37,37,63,0.0,Clouds,broken clouds,13
Füzesgyarmatfürdő,47.093787,21.201582,2026-03-19 13:32:21.489253,12.4,10.64,12.4,12.4,1018,36,5.37,37,63,0.0,Clouds,broken clouds,13
Báránd,47.299722,21.235278,2026-03-19 13:32:22.725345,12.02,10.24,12.02,12.02,1018,37,5.42,33,94,0.0,Clouds,overcast clouds,13
Sáp,47.259722,21.360556,2026-03-19 13:32:23.978826,12.12,10.33,12.12,12.12,1018,36,5.28,38,87,0.0,Clouds,overcast clouds,13
Berettyóújfalu,47.211944,21.535556,2026-03-19 13:32:26.375664,12.18,10.37,12.18,12.18,1018,35,5.17,41,69,0.0,Clouds,broken clouds,13
Mezőpeterd,47.176111,21.625278,2026-03-19 13:32:27.616631,12.5,10.72,12.28,12.5,1018,35,5.12,39,61,0.0,Clouds,broken clouds,13
Biharkeresztes,47.135556,21.721389,2026-03-19 13:32:30.001923,12.47,10.63,12.25,12.47,1018,33,4.12,60,0,0.0,Clear,clear sky,13
Tócóvölgy,47.529444,21.588889,2026-03-19 13:32:31.324549,11.97,10.19,11.97,11.97,1018,37,4.63,40,0,0.0,Clear,clear sky,13
Sáregres,46.7825,18.588889,2026-03-19 13:32:34.618750,13.39,11.75,13.39,13.39,1019,37,5.79,44,73,0.0,Clouds,broken clouds,13
Simontornya,46.756582,18.540674,2026-03-19 13:32:36.163507,13.33,11.68,13.33,13.33,1019,37,5.98,44,80,0.0,Clouds,broken clouds,13
Tolnanémedi,46.727778,18.475833,2026-03-19 13:32:38.509609,13.4,11.76,13.4,13.4,1019,37,6.1,43,85,0.0,Clouds,overcast clouds,13
Pincehely,46.681389,18.43,2026-03-19 13:32:39.767992,13.25,11.6,13.25,13.25,1019,37,6.35,43,92,0.0,Clouds,overcast clouds,13
Keszőhidegkút-Gyönk,46.597778,18.426111,2026-03-19 13:32:41.035645,13.28,11.6,13.28,13.28,1019,36,6.41,44,95,0.0,Clouds,overcast clouds,13
Szárazd,46.575556,18.420833,2026-03-19 13:32:42.308773,13.31,11.64,13.31,13.31,1019,36,6.41,44,95,0.0,Clouds,overcast clouds,13
Regöly,46.568889,18.396111,2026-03-19 13:32:43.581651,13.31,11.64,13.31,13.31,1019,36,6.41,44,95,0.0,Clouds,overcast clouds,13
Szakály-Hőgyész,46.523611,18.389444,2026-03-19 13:32:44.813826,13.19,11.53,13.19,13.19,1019,37,6.36,45,95,0.0,Clouds,overcast clouds,13
Dúzs,46.493889,18.377222,2026-03-19 13:32:47.049926,13.22,11.56,13.22,13.22,1019,37,6.29,46,96,0.0,Clouds,overcast clouds,13
Csibrák,46.466667,18.336389,2026-03-19 13:32:48.282562,13.26,11.61,13.26,13.26,1019,37,6.21,46,96,0.0,Clouds,overcast clouds,13
Kurd,46.449167,18.319167,2026-03-19 13:32:50.679560,12.88,11.19,12.88,12.88,1019,37,6.11,46,96,0.0,Clouds,overcast clouds,13
Döbrököz,46.418889,18.255,2026-03-19 13:32:51.951645,13.16,11.52,13.16,13.16,1019,38,5.97,46,96,0.0,Clouds,overcast clouds,13
Dombóvár,46.37,18.149722,2026-03-19 13:32:54.315067,13.13,11.49,13.13,13.13,1018,38,5.64,46,96,0.0,Clouds,overcast clouds,13
Dombóvár alsó,46.363889,18.134167,2026-03-19 13:32:56.665275,13.13,11.49,13.13,13.13,1018,38,5.64,46,96,0.0,Clouds,overcast clouds,13
Somoskőújfalu,48.154722,19.815556,2026-03-19 13:32:57.897021,9.58,7.27,9.58,9.58,1019,37,4.5,50,30,0.0,Clouds,scattered clouds,13
Jászfényszaru,47.593056,19.754444,2026-03-19 13:33:00.165582,12.48,10.78,12.48,12.48,1019,38,5.57,54,96,0.0,Clouds,overcast clouds,13
Pusztamonostor,47.564444,19.794167,2026-03-19 13:33:02.468464,12.16,10.42,12.16,12.16,1019,38,5.68,53,95,0.0,Clouds,overcast clouds,13
Jászberény,47.494444,19.893333,2026-03-19 13:33:05.494694,12.26,10.53,12.26,12.26,1019,38,5.87,50,95,0.0,Clouds,overcast clouds,13
Meggyespele,47.441944,19.938889,2026-03-19 13:33:07.773548,12.28,10.58,12.28,12.28,1019,39,6.07,48,97,0.0,Clouds,overcast clouds,13
Portelek,47.418056,19.958889,2026-03-19 13:33:09.792775,12.3,10.6,12.3,12.3,1019,39,6.1,48,97,0.0,Clouds,overcast clouds,13
Jászboldogháza-Jánoshida,47.366944,20.001389,2026-03-19 13:33:11.100354,13.4,11.74,13.4,13.4,1020,36,6.29,48,97,0.0,Clouds,overcast clouds,13
Jászárokszállás,47.635556,19.971111,2026-03-19 13:33:12.405535,12.22,10.49,12.22,12.22,1019,38,5.89,50,98,0.0,Clouds,overcast clouds,13
Jászdózsa,47.563056,20.028056,2026-03-19 13:33:13.968111,12.2,10.47,12.2,12.2,1019,38,5.99,48,98,0.0,Clouds,overcast clouds,13
Jászapáti,47.513611,20.155,2026-03-19 13:33:16.275781,12.09,10.35,12.09,12.09,1019,38,6.14,45,96,0.0,Clouds,overcast clouds,13
Jászkisér,47.456111,20.203333,2026-03-19 13:33:17.486393,12.79,11.12,12.79,12.79,1019,38,6.18,44,95,0.0,Clouds,overcast clouds,13
Jászladány,47.373333,20.159167,2026-03-19 13:33:19.796618,12.34,10.62,12.01,12.34,1019,38,6.18,44,97,0.0,Clouds,overcast clouds,13
Szászberek,47.320556,20.090833,2026-03-19 13:33:21.288439,12.33,10.64,11.66,12.33,1019,39,6.22,44,98,0.0,Clouds,overcast clouds,13
Gyöngyöshalász,47.743056,19.932222,2026-03-19 13:33:22.585303,12.22,10.54,12.22,12.22,1020,40,5.62,53,99,0.0,Clouds,overcast clouds,13
Gyöngyös,47.783056,19.937222,2026-03-19 13:33:23.953160,11.44,9.63,11.44,11.44,1019,38,5.57,52,95,0.0,Clouds,overcast clouds,13
Erdőtelek,47.683333,20.3025,2026-03-19 13:33:25.271659,11.43,9.62,11.43,11.43,1019,38,6.49,44,95,0.0,Clouds,overcast clouds,13
Heves,47.609444,20.306111,2026-03-19 13:33:26.539984,12.72,11.04,12.72,12.72,1019,38,6.44,42,95,0.0,Clouds,overcast clouds,13
Hevesvezekény,47.562222,20.365833,2026-03-19 13:33:27.769657,12.76,11.24,12.76,12.76,1019,44,6.59,41,95,0.0,Clouds,overcast clouds,13
Tarnaszentmiklós,47.546944,20.390833,2026-03-19 13:33:30.273952,12.77,11.25,12.77,12.77,1019,44,6.52,41,94,0.0,Clouds,overcast clouds,13
Kisköre,47.495556,20.481667,2026-03-19 13:33:31.767949,12.79,11.27,12.79,12.79,1019,44,4.02,73,93,0.0,Clouds,overcast clouds,13
Abádszalók,47.455278,20.553056,2026-03-19 13:33:32.992545,12.77,11.25,12.77,12.77,1019,44,4.02,73,92,0.0,Clouds,overcast clouds,13
Kunhegyes,47.376667,20.641111,2026-03-19 13:33:34.559952,12.77,11.25,12.77,12.77,1019,44,6.04,36,91,0.0,Clouds,overcast clouds,13
Kenderes,47.254444,20.686111,2026-03-19 13:33:35.786565,12.8,11.13,12.8,12.8,1019,38,5.87,33,89,0.0,Clouds,overcast clouds,13
Maklár,47.808056,20.404722,2026-03-19 13:33:37.018200,11.24,9.44,11.24,11.24,1019,39,6.87,42,89,0.0,Clouds,overcast clouds,13
Andornaktálya,47.852203,20.402295,2026-03-19 13:33:38.513550,11.18,9.4,11.18,12.2,1019,40,6.49,42,82,0.0,Clouds,broken clouds,13
Eger,47.891667,20.381667,2026-03-19 13:33:39.998771,11.09,9.3,9.45,12.11,1019,40,6.2,44,80,0.0,Clouds,broken clouds,13
Egervár,47.908056,20.380556,2026-03-19 13:33:41.262458,10.88,9.17,9.26,11.93,1019,44,6.05,44,77,0.0,Clouds,broken clouds,13
Eger-Felnémet,47.936667,20.370556,2026-03-19 13:33:43.022039,10.88,9.17,9.32,11.98,1019,44,5.91,44,75,0.0,Clouds,broken clouds,13
Szarvaskő,47.988611,20.3325,2026-03-19 13:33:44.336524,10.55,8.81,8.91,10.55,1019,44,5.73,47,72,0.0,Clouds,broken clouds,13
Mónosbél,48.031944,20.33,2026-03-19 13:33:45.591467,10.24,8.47,8.6,10.24,1019,44,5.29,48,60,0.0,Clouds,broken clouds,13
Bélapátfalva,48.055556,20.340556,2026-03-19 13:33:46.819029,10.08,8.29,8.43,10.08,1019,44,5.57,52,68,0.0,Clouds,broken clouds,13
Bélapátfalvi Cementgyár,48.058056,20.355,2026-03-19 13:33:48.031153,10.03,8.24,8.39,10.03,1019,44,5.57,52,68,0.0,Clouds,broken clouds,13
Szilvásvárad,48.11345,20.37919,2026-03-19 13:33:50.516821,9.9,7.26,8.26,9.9,1019,44,5.56,56,70,0.0,Clouds,broken clouds,13
Hejőkeresztúr,47.960278,20.869444,2026-03-19 13:33:52.121898,12.31,10.64,9.8,12.46,1020,40,1.34,328,91,0.0,Clouds,overcast clouds,13
Tiszaújváros,47.926111,21.030556,2026-03-19 13:33:53.346757,12.51,10.91,10.77,12.51,1020,42,7.36,36,84,0.0,Clouds,broken clouds,13
Miskolc-Gömöri,48.106667,20.800278,2026-03-19 13:33:54.928502,10.57,9.2,9.69,12.36,1020,58,7.55,32,89,0.0,Clouds,overcast clouds,13
Sajókeresztúr,48.168008,20.774014,2026-03-19 13:33:56.204368,10.35,9.09,9.64,12.3,1020,63,7.32,34,88,0.0,Clouds,overcast clouds,13
Sajóecseg,48.186111,20.766667,2026-03-19 13:33:57.709966,10.37,9.11,9.68,12.34,1020,63,7.29,35,87,0.0,Clouds,overcast clouds,13
Sajószentpéter,48.222222,20.708056,2026-03-19 13:33:59.208484,10.24,9.07,9.58,12.25,1020,67,7.16,38,87,0.0,Clouds,overcast clouds,13
Kazincbarcika,48.264444,20.6275,2026-03-19 13:34:00.462109,10.19,8.34,9.59,11.23,1020,41,6.7,50,89,0.0,Clouds,overcast clouds,13
Sajókaza,48.272778,20.581944,2026-03-19 13:34:01.684780,10.46,8.68,9.57,11.21,1020,43,6.23,52,82,0.0,Clouds,broken clouds,13
Vadna,48.276389,20.555278,2026-03-19 13:34:03.176464,10.84,9.05,9.56,11.2,1020,41,6.58,52,90,0.0,Clouds,overcast clouds,13
Dubicsány,48.280833,20.504722,2026-03-19 13:34:04.500272,10.76,8.99,9.39,11.03,1020,42,5.68,57,77,0.0,Clouds,broken clouds,13
Raposka,46.851389,17.412778,2026-03-19 13:34:05.747922,13.06,11.41,13.06,13.06,1020,38,5.33,64,55,0.0,Clouds,broken clouds,13
Ivacs,47.641944,19.273889,2026-03-19 13:34:06.977976,12.59,10.9,11.85,12.93,1019,38,3.84,39,86,0.0,Clouds,overcast clouds,13
Kisköre-Tiszahíd,47.480835,20.507698,2026-03-19 13:34:08.189882,12.77,11.25,12.77,12.77,1019,44,4.02,73,92,0.0,Clouds,overcast clouds,13
Rozsály,47.912778,22.7825,2026-03-19 13:34:09.452900,11.14,9.3,11.14,12.03,1019,38,2.19,354,17,0.0,Clouds,few clouds,13
Pusztakettős,47.453611,20.749722,2026-03-19 13:34:12.808838,12.77,11.25,12.77,12.77,1019,44,6.22,35,92,0.0,Clouds,overcast clouds,13
Kisvác,47.795278,19.113611,2026-03-19 13:34:14.033486,13.27,11.62,12.56,13.27,1019,37,4.05,41,57,0.0,Clouds,broken clouds,13
Tiszafüred-Gyártelep,47.6075,20.736111,2026-03-19 13:34:15.527252,12.74,11.22,12.74,12.74,1019,44,6.85,39,93,0.0,Clouds,overcast clouds,13
Újkenéz,48.251111,22.221667,2026-03-19 13:34:17.064649,11.28,9.66,11.28,11.28,1019,46,5.57,17,97,0.0,Clouds,overcast clouds,13
Püspökladány-Vásártér,47.319167,21.096111,2026-03-19 13:34:18.298157,11.97,10.19,11.97,11.97,1018,37,5.68,29,94,0.0,Clouds,overcast clouds,13
Végegyháza alsó,46.3675,20.866944,2026-03-19 13:34:19.527695,11.72,9.89,11.72,11.72,1018,36,5.56,25,93,0.0,Clouds,overcast clouds,13
Orosháza felső,46.553611,20.655278,2026-03-19 13:34:20.822698,12.95,11.24,12.95,12.95,1018,36,5.4,29,88,0.0,Clouds,overcast clouds,13
Ambrózfalva,46.353056,20.740556,2026-03-19 13:34:24.136364,12.95,11.24,12.95,12.95,1018,36,5.66,27,98,0.0,Clouds,overcast clouds,13
Alsónyék,46.199444,18.738056,2026-03-19 13:34:25.393139,15.82,14.55,15.82,15.82,1018,42,5.03,56,87,0.0,Clouds,overcast clouds,13
Tompapuszta,46.321389,20.966389,2026-03-19 13:34:26.665446,11.72,11.56,11.71,13.41,1018,100,5.48,19,90,0.0,Clouds,overcast clouds,13
Halászlak,46.911879,20.56228,2026-03-19 13:34:27.953261,12.7,10.99,12.7,12.7,1018,37,6.18,33,79,0.0,Clouds,broken clouds,13
Sirató,46.840556,20.61,2026-03-19 13:34:29.183995,12.8,11.1,12.8,12.8,1018,37,5.9,36,74,0.0,Clouds,broken clouds,13
Csabacsűd felső,46.829167,20.649167,2026-03-19 13:34:30.410466,12.45,10.74,12.45,12.45,1019,38,5.48,34,51,0.0,Clouds,broken clouds,13
Orosháza-Üveggyár,46.579979,20.683644,2026-03-19 13:34:31.974157,12.91,11.2,12.91,12.91,1018,36,5.37,30,83,0.0,Clouds,broken clouds,13
Gyulai városerdő,46.69482,21.32281,2026-03-19 13:34:33.473681,12.75,10.89,12.75,12.75,1018,31,5.87,24,66,0.0,Clouds,broken clouds,13
Kórógyszentgyörgy,46.564377,20.224998,2026-03-19 13:34:35.735171,12.23,10.45,12.23,13.91,1018,36,5.7,32,99,0.0,Clouds,overcast clouds,13
Kunszállás,46.784444,19.767222,2026-03-19 13:34:37.540232,12.56,10.84,12.04,13.75,1019,37,6.17,70,0,0.0,Clear,clear sky,13
Selymes,46.655321,19.8534,2026-03-19 13:34:39.086223,12.78,11.11,12.78,13.81,1019,38,5.65,37,96,0.0,Clouds,overcast clouds,13
Petőfiszállási tanyák,46.587805,19.874509,2026-03-19 13:34:40.361401,12.82,11.12,12.82,13.85,1018,37,5.69,35,97,0.0,Clouds,overcast clouds,13
Kisteleki szőlők,46.514199,19.92868,2026-03-19 13:34:41.621287,12.81,11.09,12.81,13.84,1018,36,5.51,33,99,0.0,Clouds,overcast clouds,13
Kapitányság,46.435336,19.987564,2026-03-19 13:34:42.852555,10.02,8.36,10.02,10.02,1018,49,4.92,34,100,0.0,Clouds,overcast clouds,13
Őszeszék,46.39025,20.016017,2026-03-19 13:34:44.472584,10.05,8.39,10.05,10.05,1018,49,4.35,34,100,0.0,Clouds,overcast clouds,13
Vilmaszállás,46.366389,20.030833,2026-03-19 13:34:45.735506,10.03,8.37,10.03,10.03,1018,49,0.45,118,100,0.0,Clouds,overcast clouds,13
Jánosszállás,46.334359,20.051199,2026-03-19 13:34:46.967418,10.06,8.4,10.06,10.06,1018,49,3.7,36,100,0.0,Clouds,overcast clouds,13
Felsőpakony,47.343056,19.230556,2026-03-19 13:34:48.316891,12.58,10.89,12.25,13.75,1019,38,3.09,70,0,0.0,Clear,clear sky,13
Felsőméntelek,46.987074,19.557745,2026-03-19 13:34:49.548900,11.88,10.04,11.88,11.88,1019,35,6.17,70,0,0.0,Clear,clear sky,13
Alsóméntelek,46.961558,19.579121,2026-03-19 13:34:51.833919,11.91,10.07,11.91,11.91,1019,35,6.17,70,0,0.0,Clear,clear sky,13
Nagynyír,46.943319,19.585447,2026-03-19 13:34:53.065988,11.9,10.06,11.9,11.9,1019,35,6.17,70,0,0.0,Clear,clear sky,13
Úrihegy,46.917778,19.621389,2026-03-19 13:34:54.320986,11.93,10.09,11.93,12.6,1019,35,6.17,70,0,0.0,Clear,clear sky,13
Miklóstelep,46.913412,19.630913,2026-03-19 13:34:55.553048,11.94,10.1,11.94,12.62,1019,35,6.17,70,0,0.0,Clear,clear sky,13
Tiszajenő alsó,47.016944,20.134444,2026-03-19 13:34:56.822132,11.68,10.08,11.02,11.68,1019,45,6.69,60,0,0.0,Clear,clear sky,13
Óbög,46.987222,20.111111,2026-03-19 13:34:58.312373,11.46,9.81,11.01,12.17,1019,44,6.69,60,0,0.0,Clear,clear sky,13
Árpádszállás,46.866456,19.989163,2026-03-19 13:34:59.545480,12.85,11.08,11.59,13.81,1019,34,6.17,70,0,0.0,Clear,clear sky,13
Tőserdő,46.851111,19.980278,2026-03-19 13:35:00.770672,12.9,11.13,11.61,13.83,1019,34,6.17,70,0,0.0,Clear,clear sky,13
Tiszaalpár felső,46.836256,19.976753,2026-03-19 13:35:02.272553,12.96,11.2,12.14,13.85,1019,34,6.17,70,0,0.0,Clear,clear sky,13
Borsihalom,46.773056,19.92,2026-03-19 13:35:03.485023,12.9,11.16,12.13,13.84,1019,35,5.67,40,92,0.0,Clouds,overcast clouds,13
Petőfiváros,46.725556,19.848611,2026-03-19 13:35:04.716872,12.78,11.11,12.1,13.81,1019,38,5.58,40,94,0.0,Clouds,overcast clouds,13
Csorna,47.601944,17.248889,2026-03-19 13:35:05.926595,13.33,11.68,13.33,13.33,1021,37,4.06,2,60,0.0,Clouds,broken clouds,13
Szorgalmatos,47.986667,21.366389,2026-03-19 13:35:07.144479,12.64,10.87,12.64,12.64,1019,35,6.57,26,82,0.0,Clouds,broken clouds,13
Fótfürdő,47.6225,19.200556,2026-03-19 13:35:08.380759,12.67,10.98,11.85,13.36,1019,38,3.74,37,88,0.0,Clouds,overcast clouds,13
Fenyveshegy,47.818333,19.068056,2026-03-19 13:35:09.594671,13.34,11.7,13.34,13.34,1019,37,3.9,43,58,0.0,Clouds,broken clouds,13
Hűvösvölgy,47.541202,18.96351,2026-03-19 13:35:10.797335,12.07,10.38,11.39,13.47,1019,40,1.34,95,93,0.0,Clouds,overcast clouds,13
Hárshegy,47.535318,18.961433,2026-03-19 13:35:11.987414,12.07,10.38,11.39,13.47,1019,40,1.34,95,93,0.0,Clouds,overcast clouds,13
Szépjuhászné,47.528277,18.955246,2026-03-19 13:35:13.184637,11.2,9.42,10.5,12.58,1019,40,1.34,95,93,0.0,Clouds,overcast clouds,13
Jánoshegy,47.51433,18.95047,2026-03-19 13:35:14.386607,11.14,9.38,10.41,12.49,1019,41,1.34,95,93,0.0,Clouds,overcast clouds,13
Virágvölgy,47.505965,18.95876,2026-03-19 13:35:15.590931,10.81,9.02,10.1,12.18,1019,41,2.68,90,94,0.0,Clouds,overcast clouds,13
Csillebérc,47.498196,18.961694,2026-03-19 13:35:16.793889,10.58,8.76,9.86,11.94,1019,41,2.68,90,94,0.0,Clouds,overcast clouds,13
Normafa,47.5,18.970558,2026-03-19 13:35:17.990362,10.6,8.79,9.92,11.99,1019,41,2.68,90,94,0.0,Clouds,overcast clouds,13
Széchenyihegy,47.49413,18.977049,2026-03-19 13:35:19.185153,10.61,8.8,9.94,12.01,1019,41,2.68,90,94,0.0,Clouds,overcast clouds,13
Balatonfőkajár felső,47.031389,18.215278,2026-03-19 13:35:20.390202,11.84,10.23,11.29,11.84,1020,44,5.0,53,60,0.0,Clouds,broken clouds,13
Piroska,47.148333,20.129722,2026-03-19 13:35:21.591854,11.39,9.73,11.02,12.34,1019,44,6.69,60,0,0.0,Clear,clear sky,13
Somodor,46.4725,17.836667,2026-03-19 13:35:22.796095,13.16,11.5,13.16,13.16,1019,37,6.39,43,96,0.0,Clouds,overcast clouds,13
Középmező,45.995833,18.668889,2026-03-19 13:35:23.997832,15.81,14.39,12.84,15.81,1018,36,3.81,52,81,0.0,Clouds,broken clouds,13
Jobbágyi,47.828889,19.6875,2026-03-19 13:35:25.196668,12.28,10.5,12.28,12.28,1019,36,4.02,50,91,0.0,Clouds,overcast clouds,13
Ferihegy,47.437222,19.223889,2026-03-19 13:35:26.413540,12.48,10.8,12.08,13.59,1020,39,3.09,70,0,0.0,Clear,clear sky,13
Máriapócs,47.852778,22.019167,2026-03-19 13:35:27.617808,11.23,9.48,11.23,11.23,1019,41,4.95,19,94,0.0,Clouds,overcast clouds,13
Máriaudvar,47.751944,19.165,2026-03-19 13:35:28.821137,13.3,11.63,12.59,13.3,1019,36,4.08,37,68,0.0,Clouds,broken clouds,13
Nagyberki,46.353333,18.004167,2026-03-19 13:35:30.020879,13.08,11.44,13.08,13.08,1018,38,5.7,46,97,0.0,Clouds,overcast clouds,13
Badacsonytomaj,46.804722,17.518056,2026-03-19 13:35:31.215453,13.54,11.99,13.54,13.54,1020,40,5.64,64,19,0.0,Clouds,few clouds,13
Badacsony,46.788611,17.506389,2026-03-19 13:35:32.424589,13.11,11.52,13.11,13.11,1020,40,5.66,66,19,0.0,Clouds,few clouds,13
Badacsonylábdihegy,46.793889,17.470833,2026-03-19 13:35:33.633262,13.08,11.49,13.08,13.08,1020,40,5.66,66,19,0.0,Clouds,few clouds,13
Badacsonytördemic-Szigliget,46.809722,17.469167,2026-03-19 13:35:34.828008,13.0,11.4,13.0,13.0,1020,40,5.77,64,20,0.0,Clouds,few clouds,13
Nemesgulács-Kisapáti,46.836944,17.476389,2026-03-19 13:35:36.024591,12.7,11.04,12.7,13.07,1020,39,5.52,64,33,0.0,Clouds,scattered clouds,13
Tapolca,46.877778,17.428611,2026-03-19 13:35:37.229932,12.61,10.92,12.61,12.99,1020,38,5.31,60,62,0.0,Clouds,broken clouds,13
Uzsabánya alsó,46.898333,17.345278,2026-03-19 13:35:38.434068,12.79,11.09,12.79,12.79,1020,37,5.35,52,81,0.0,Clouds,broken clouds,13
Uzsa,46.920278,17.331667,2026-03-19 13:35:39.640507,12.75,11.05,12.75,12.75,1020,37,5.5,47,86,0.0,Clouds,overcast clouds,13
Sümegi Bazaltbánya,46.9525,17.2925,2026-03-19 13:35:40.847650,13.55,11.93,13.55,13.55,1020,37,5.82,41,92,0.0,Clouds,overcast clouds,13
Sümeg,46.981111,17.270833,2026-03-19 13:35:42.050509,13.75,12.15,13.75,13.75,1020,37,6.33,35,96,0.0,Clouds,overcast clouds,13
Gógánfa,47.021111,17.207778,2026-03-19 13:35:43.257230,13.79,12.19,13.79,13.79,1020,37,6.86,31,93,0.0,Clouds,overcast clouds,13
Ukk,47.041944,17.195833,2026-03-19 13:35:44.462795,13.86,12.27,13.86,13.86,1020,37,7.01,31,91,0.0,Clouds,overcast clouds,13
Nemeskeresztúr,47.093611,17.183611,2026-03-19 13:35:45.670743,13.85,12.26,13.85,13.85,1020,37,6.93,32,85,0.0,Clouds,overcast clouds,13
Jánosháza,47.115833,17.171667,2026-03-19 13:35:46.874330,13.94,12.36,13.94,13.94,1020,37,6.8,33,83,0.0,Clouds,broken clouds,13
Keszthely,46.758333,17.248056,2026-03-19 13:35:48.076133,13.08,11.44,13.08,13.08,1019,38,5.14,80,0,0.0,Clear,clear sky,13
Alsógyenes,46.765844,17.276435,2026-03-19 13:35:49.285155,13.08,11.44,13.08,13.08,1019,38,5.14,80,0,0.0,Clear,clear sky,13
Gyenesdiás,46.763333,17.292778,2026-03-19 13:35:50.507073,13.08,11.44,13.08,13.08,1019,38,5.14,80,0,0.0,Clear,clear sky,13
Vonyarcvashegy,46.755278,17.318333,2026-03-19 13:35:51.709286,13.09,11.45,13.09,13.09,1019,38,5.14,80,0,0.0,Clear,clear sky,13
Balatongyörök,46.751944,17.354444,2026-03-19 13:35:52.910577,13.11,11.47,13.11,13.11,1020,38,5.14,80,0,0.0,Clear,clear sky,13
Becehegy,46.776111,17.372778,2026-03-19 13:35:54.116836,13.08,11.44,13.08,13.08,1020,38,5.14,80,0,0.0,Clear,clear sky,13
Balatonederics,46.8025,17.385,2026-03-19 13:35:55.315411,13.03,11.38,13.03,13.03,1020,38,5.28,67,57,0.0,Clouds,broken clouds,13
Dabronc,47.025766,17.167006,2026-03-19 13:35:56.510940,13.91,12.35,13.91,13.91,1021,38,6.76,35,90,0.0,Clouds,overcast clouds,13
Türje,46.994444,17.093611,2026-03-19 13:35:57.727130,13.75,12.15,13.75,13.75,1020,37,6.93,33,98,0.0,Clouds,overcast clouds,13
Zalabér-Batyk,46.983056,17.040833,2026-03-19 13:35:58.931587,13.79,12.22,13.79,13.79,1020,38,6.91,35,100,0.0,Clouds,overcast clouds,13
Pakod,46.959167,16.996667,2026-03-19 13:36:00.130733,13.67,12.08,13.67,13.67,1020,38,6.92,35,100,0.0,Clouds,overcast clouds,13
Pókaszepetk,46.924444,16.972222,2026-03-19 13:36:01.336888,13.71,12.13,13.71,13.71,1020,38,6.72,36,100,0.0,Clouds,overcast clouds,13
Kemendollár,46.905833,16.946667,2026-03-19 13:36:02.545466,12.91,11.25,12.91,12.91,1020,38,6.74,36,100,0.0,Clouds,overcast clouds,13
Zalaegerszeg,46.833056,16.848333,2026-03-19 13:36:03.748389,12.73,11.08,12.73,12.73,1020,39,6.09,37,100,0.0,Clouds,overcast clouds,13
Bocfölde,46.780278,16.853611,2026-03-19 13:36:04.955472,12.79,11.14,12.79,12.79,1020,39,5.75,38,100,0.0,Clouds,overcast clouds,13
Sárhida,46.755833,16.851389,2026-03-19 13:36:06.159555,12.75,11.1,12.75,12.75,1020,39,5.44,39,100,0.0,Clouds,overcast clouds,13
Bak,46.7325,16.849167,2026-03-19 13:36:07.350352,12.71,11.08,12.71,12.71,1021,40,5.0,42,97,0.0,Clouds,overcast clouds,13
Tófej,46.670833,16.801944,2026-03-19 13:36:08.547186,12.56,10.92,12.56,12.56,1021,40,4.52,45,85,0.0,Clouds,overcast clouds,13
Gutorfölde,46.646944,16.739722,2026-03-19 13:36:09.751685,12.79,11.14,12.79,12.79,1019,39,4.44,45,91,0.0,Clouds,overcast clouds,13
Csömödér-Páka,46.608056,16.641111,2026-03-19 13:36:10.946865,13.33,11.79,13.33,13.33,1022,41,4.31,40,84,0.0,Clouds,broken clouds,13
Iklódbördőce,46.603056,16.604722,2026-03-19 13:36:12.149307,12.78,11.16,12.78,12.78,1019,40,4.97,41,96,0.0,Clouds,overcast clouds,13
Lenti,46.621389,16.528611,2026-03-19 13:36:13.346190,12.73,11.1,12.73,12.73,1020,40,5.51,39,95,0.0,Clouds,overcast clouds,13
Rédics,46.618056,16.471111,2026-03-19 13:36:14.582769,12.72,11.09,12.72,12.72,1020,40,5.72,38,93,0.0,Clouds,overcast clouds,13
Zalalövő,46.845556,16.576389,2026-03-19 13:36:15.786991,13.13,11.54,13.13,13.13,1020,40,6.11,43,86,0.0,Clouds,overcast clouds,13
Zalaegerszeg-Ola,46.849167,16.844722,2026-03-19 13:36:17.000240,13.32,11.73,13.32,13.32,1020,39,6.09,37,100,0.0,Clouds,overcast clouds,13
Andráshida,46.863116,16.7792,2026-03-19 13:36:18.202130,13.32,11.73,13.32,13.32,1020,39,6.21,38,100,0.0,Clouds,overcast clouds,13
Bagod,46.875,16.746111,2026-03-19 13:36:19.401830,13.41,11.82,13.41,13.41,1020,39,6.11,40,95,0.0,Clouds,overcast clouds,13
Zalaszentgyörgy,46.872222,16.7125,2026-03-19 13:36:20.609213,13.35,11.76,13.35,13.35,1020,39,6.08,41,93,0.0,Clouds,overcast clouds,13
Zalacséb-Salomvár,46.858056,16.662222,2026-03-19 13:36:21.804947,13.17,11.61,13.17,13.17,1021,41,6.0,40,82,0.0,Clouds,broken clouds,13
Kópháza,47.631389,16.6375,2026-03-19 13:36:23.015844,12.33,10.61,12.33,12.43,1021,38,4.02,30,17,0.0,Clouds,few clouds,13
Nagycenk,47.601111,16.690278,2026-03-19 13:36:24.225609,12.44,10.73,12.44,12.54,1021,38,3.98,29,26,0.0,Clouds,scattered clouds,13
Sopronkövesd,47.548333,16.748056,2026-03-19 13:36:25.425372,12.37,10.81,12.27,12.37,1021,44,4.01,23,46,0.0,Clouds,scattered clouds,13
Lövő,47.509444,16.7775,2026-03-19 13:36:26.662380,12.41,10.86,12.31,12.41,1021,44,4.15,13,59,0.0,Clouds,broken clouds,13
Újkér,47.457778,16.786667,2026-03-19 13:36:27.868405,12.43,10.88,12.43,12.43,1021,44,4.32,15,66,0.0,Clouds,broken clouds,13
Bük,47.388611,16.752222,2026-03-19 13:36:29.069093,12.49,10.94,12.49,12.49,1021,44,4.53,24,66,0.0,Clouds,broken clouds,13
Acsád,47.308333,16.734722,2026-03-19 13:36:30.265144,12.24,10.67,12.24,12.24,1020,44,4.93,28,66,0.0,Clouds,broken clouds,13
Salköveskút-Vassurány,47.291389,16.704167,2026-03-19 13:36:31.459623,12.25,10.68,12.25,12.25,1020,44,5.08,29,67,0.0,Clouds,broken clouds,13
Zalaszentiván,46.8875,16.909444,2026-03-19 13:36:32.663177,12.89,11.25,12.89,12.89,1020,39,6.56,37,100,0.0,Clouds,overcast clouds,13
Alsónemesapáti,46.854167,16.936389,2026-03-19 13:36:33.859169,12.86,11.25,12.86,12.86,1021,40,6.19,39,100,0.0,Clouds,overcast clouds,13
Józsa,47.600833,21.584444,2026-03-19 13:36:35.062414,11.86,10.07,11.86,11.86,1019,37,4.63,30,0,0.0,Clear,clear sky,13
Hajdúszentgyörgy,47.608056,21.578333,2026-03-19 13:36:36.259565,11.83,10.03,11.83,11.83,1019,37,4.63,30,0,0.0,Clear,clear sky,13
Zelemér,47.627778,21.578333,2026-03-19 13:36:37.462353,11.78,9.98,11.78,11.78,1019,37,4.63,30,0,0.0,Clear,clear sky,13
Hajdúböszörmény,47.668056,21.524167,2026-03-19 13:36:38.672832,11.81,10.09,11.81,11.81,1019,40,6.26,20,92,0.0,Clouds,overcast clouds,13
Hajdúvid,47.749444,21.508056,2026-03-19 13:36:39.878842,11.19,9.46,11.19,11.19,1019,42,6.75,17,88,0.0,Clouds,overcast clouds,13
Hajdúdorog,47.805556,21.493056,2026-03-19 13:36:41.080184,11.12,9.41,11.12,11.12,1019,43,6.87,17,85,0.0,Clouds,overcast clouds,13
Hajdúnánás,47.831944,21.426667,2026-03-19 13:36:42.275120,11.12,9.41,11.12,11.12,1019,43,7.0,19,83,0.0,Clouds,broken clouds,13
Hajdúnánás-Vásártér,47.843056,21.407222,2026-03-19 13:36:43.471001,11.12,9.41,11.12,11.12,1019,43,7.0,19,83,0.0,Clouds,broken clouds,13
Tedej,47.903611,21.404444,2026-03-19 13:36:44.673637,12.65,11.12,12.65,12.65,1019,44,6.81,21,81,0.0,Clouds,broken clouds,13
Tiszavasvári,47.945278,21.374722,2026-03-19 13:36:45.882632,12.65,10.88,12.65,12.65,1019,35,6.75,24,82,0.0,Clouds,broken clouds,13
Egyházerdő,47.9725,21.365,2026-03-19 13:36:47.084339,12.67,10.91,12.67,12.67,1019,35,6.66,25,82,0.0,Clouds,broken clouds,13
Tiszalök,48.013056,21.369167,2026-03-19 13:36:48.284271,12.64,10.87,12.64,12.64,1019,35,6.51,27,82,0.0,Clouds,broken clouds,13
Hajnalos,47.998889,21.414167,2026-03-19 13:36:49.480043,12.65,10.88,12.65,12.65,1019,35,6.55,24,80,0.0,Clouds,broken clouds,13
Kisfástanya,47.989167,21.47,2026-03-19 13:36:50.684736,12.62,10.85,12.62,12.62,1019,35,6.53,22,79,0.0,Clouds,broken clouds,13
Tiszaeszlár,48.010556,21.491944,2026-03-19 13:36:51.890205,12.63,10.86,12.63,12.63,1019,35,6.47,21,78,0.0,Clouds,broken clouds,13
Bashalom,48.026111,21.514722,2026-03-19 13:36:53.098204,12.6,10.83,12.6,12.6,1019,35,6.43,22,79,0.0,Clouds,broken clouds,13
Sáránd,47.415556,21.625,2026-03-19 13:36:54.295684,12.01,10.23,12.01,12.01,1018,37,4.63,30,0,0.0,Clear,clear sky,13
Derecske,47.365,21.584167,2026-03-19 13:36:55.507998,12.08,10.31,12.08,12.08,1018,37,4.63,30,0,0.0,Clear,clear sky,13
Derecske-Vásártér,47.352222,21.58,2026-03-19 13:36:56.710765,12.08,10.31,12.08,12.08,1018,37,4.63,30,0,0.0,Clear,clear sky,13
Konyár,47.323611,21.666111,2026-03-19 13:36:57.917779,12.05,10.28,12.05,12.05,1018,37,4.63,30,0,0.0,Clear,clear sky,13
Konyári Sóstófürdő,47.324167,21.744444,2026-03-19 13:36:59.119168,12.06,10.26,12.06,12.06,1018,36,4.84,42,65,0.0,Clouds,broken clouds,13
Pocsaj-Esztár,47.288333,21.793056,2026-03-19 13:37:00.321235,12.05,10.25,11.35,12.05,1018,36,4.81,38,65,0.0,Clouds,broken clouds,13
Kismarja,47.243889,21.813889,2026-03-19 13:37:01.521938,11.35,9.45,11.24,11.35,1018,35,4.96,35,64,0.0,Clouds,broken clouds,13
Nagykereki,47.191667,21.8,2026-03-19 13:37:02.725949,11.34,9.52,11.23,11.34,1018,38,5.11,31,64,0.0,Clouds,broken clouds,13
Debrecen-Szabadságtelep,47.527778,21.658611,2026-03-19 13:37:03.928214,11.89,10.1,11.89,11.89,1018,37,4.63,30,0,0.0,Clear,clear sky,13
Kondoroskert,47.525556,21.713889,2026-03-19 13:37:05.138356,11.92,10.13,11.92,11.92,1018,37,4.63,30,0,0.0,Clear,clear sky,13
Nagycsere,47.523889,21.763056,2026-03-19 13:37:06.341525,11.9,10.11,11.9,11.9,1018,37,4.63,30,0,0.0,Clear,clear sky,13
Haláp,47.521667,21.818333,2026-03-19 13:37:07.543984,11.9,10.11,11.9,11.9,1018,37,4.63,30,0,0.0,Clear,clear sky,13
Vámospércs,47.518056,21.893889,2026-03-19 13:37:08.747484,11.84,10.05,11.84,11.84,1018,37,4.38,44,79,0.0,Clouds,broken clouds,13
Szentannapuszta,47.52,21.965833,2026-03-19 13:37:09.952855,11.79,9.99,11.79,11.79,1018,37,4.28,45,77,0.0,Clouds,broken clouds,13
Nyírábrány,47.523889,22.016944,2026-03-19 13:37:11.154030,11.55,9.73,11.55,11.55,1018,37,4.24,45,76,0.0,Clouds,broken clouds,13
Dombostanya,47.602778,21.706389,2026-03-19 13:37:12.356457,11.82,10.02,11.82,11.82,1019,37,4.63,30,0,0.0,Clear,clear sky,13
Hajdúsámson,47.608056,21.755278,2026-03-19 13:37:13.557022,11.82,10.02,11.82,11.82,1018,37,4.63,30,0,0.0,Clear,clear sky,13
Tamásipuszta,47.632778,21.796111,2026-03-19 13:37:14.761457,11.77,9.99,11.77,11.77,1019,38,4.78,32,91,0.0,Clouds,overcast clouds,13
Aradványpuszta,47.662778,21.8425,2026-03-19 13:37:15.968099,11.72,9.97,11.72,11.72,1019,39,4.74,31,91,0.0,Clouds,overcast clouds,13
Nyíradony,47.699444,21.903333,2026-03-19 13:37:17.174152,11.26,9.46,11.26,11.26,1019,39,4.49,29,90,0.0,Clouds,overcast clouds,13
Nyírmihálydi,47.7375,21.958889,2026-03-19 13:37:18.378888,11.25,9.45,11.25,11.25,1019,39,4.43,28,90,0.0,Clouds,overcast clouds,13
Nyírgelse,47.750833,21.987778,2026-03-19 13:37:19.581140,11.19,9.41,11.19,11.19,1019,40,4.4,26,90,0.0,Clouds,overcast clouds,13
Nyírbogát,47.793056,22.066389,2026-03-19 13:37:20.785968,11.27,9.5,11.27,11.27,1019,40,4.27,26,89,0.0,Clouds,overcast clouds,13
Nagykálló,47.871111,21.825833,2026-03-19 13:37:21.997669,11.22,9.52,11.22,11.22,1019,43,5.94,12,100,0.0,Clouds,overcast clouds,13
Kállósemjén,47.854722,21.935,2026-03-19 13:37:23.203152,11.24,9.52,11.24,11.24,1019,42,5.36,16,98,0.0,Clouds,overcast clouds,13
Nyírbátor,47.8425,22.131111,2026-03-19 13:37:24.401818,11.22,9.44,11.22,11.22,1019,40,4.32,24,88,0.0,Clouds,overcast clouds,13
Nyírcsászári,47.865556,22.179167,2026-03-19 13:37:25.603967,11.29,9.52,11.29,11.29,1019,40,4.24,23,86,0.0,Clouds,overcast clouds,13
Hodász,47.896111,22.213611,2026-03-19 13:37:26.808386,11.27,9.5,11.27,11.27,1019,40,4.16,20,86,0.0,Clouds,overcast clouds,13
Nyírmeggyes,47.9225,22.256667,2026-03-19 13:37:28.012696,11.33,9.56,11.33,11.33,1019,40,4.43,15,90,0.0,Clouds,overcast clouds,13
Mátészalka,47.951389,22.313333,2026-03-19 13:37:29.218150,11.4,9.64,11.4,11.4,1019,40,4.43,12,94,0.0,Clouds,overcast clouds,13
Kocsord,47.941944,22.375833,2026-03-19 13:37:30.420548,11.59,9.82,11.59,11.59,1019,39,3.45,12,95,0.0,Clouds,overcast clouds,13
Kocsord alsó,47.946389,22.400556,2026-03-19 13:37:31.893223,11.59,9.82,11.59,11.59,1019,39,3.45,12,95,0.0,Clouds,overcast clouds,13
Győrtelek,47.936667,22.424722,2026-03-19 13:37:33.098585,11.63,9.87,11.63,11.63,1019,39,3.2,11,95,0.0,Clouds,overcast clouds,13
Győrtelek alsó,47.921111,22.443333,2026-03-19 13:37:34.305618,11.65,9.89,11.65,11.65,1019,39,2.88,13,89,0.0,Clouds,overcast clouds,13
Ököritófülpös,47.911389,22.495,2026-03-19 13:37:35.514720,11.66,9.87,11.66,11.66,1019,38,2.72,12,86,0.0,Clouds,overcast clouds,13
Porcsalma-Tyukod,47.868056,22.568333,2026-03-19 13:37:36.712095,11.17,9.33,11.05,11.17,1019,38,2.47,17,68,0.0,Clouds,broken clouds,13
Csenger,47.826111,22.666389,2026-03-19 13:37:37.918957,11.16,9.32,11.04,11.16,1019,38,2.46,17,61,0.0,Clouds,broken clouds,13
Kisfái,46.888303,19.807366,2026-03-19 13:37:39.131248,12.02,10.19,12.02,12.7,1019,35,6.17,70,0,0.0,Clear,clear sky,13
Nyárlőrinci szőlők,46.8775,19.828333,2026-03-19 13:37:40.332882,12.23,10.45,12.03,13.73,1019,36,6.17,70,0,0.0,Clear,clear sky,13
Nyárlőrinc alsó,46.863889,19.878889,2026-03-19 13:37:41.533943,12.32,10.55,12.05,13.75,1019,36,6.17,70,0,0.0,Clear,clear sky,13
Tiszaug-Tiszahídfő,46.866106,20.052098,2026-03-19 13:37:42.733625,12.67,10.96,11.7,12.88,1019,37,5.96,40,90,0.0,Clouds,overcast clouds,13
Csongrádi úti tanyák,46.690278,19.921667,2026-03-19 13:37:43.935497,12.96,11.23,12.16,13.86,1019,35,5.68,37,95,0.0,Clouds,overcast clouds,13
Kettőshalom,46.689167,20.0225,2026-03-19 13:37:45.138768,13.41,11.67,12.22,13.9,1018,33,5.72,37,95,0.0,Clouds,overcast clouds,13
Csongrád alsó,46.711389,20.126389,2026-03-19 13:37:46.356757,13.67,11.88,12.22,13.9,1018,30,5.72,37,93,0.0,Clouds,overcast clouds,13
Dónát,46.66988,20.368168,2026-03-19 13:37:47.558718,12.24,10.46,12.24,13.92,1018,36,3.13,85,95,0.0,Clouds,overcast clouds,13
Pusztatemplom,46.676667,20.407222,2026-03-19 13:37:48.770697,12.23,10.45,12.23,13.9,1018,36,3.13,85,94,0.0,Clouds,overcast clouds,13
Előhát,47.364722,20.653611,2026-03-19 13:37:49.967510,11.89,10.15,11.89,11.89,1019,39,5.96,36,90,0.0,Clouds,overcast clouds,13
Polgárdi-Tekerespuszta,47.017778,18.297778,2026-03-19 13:37:51.175113,12.06,10.26,12.06,12.06,1019,36,4.96,53,55,0.0,Clouds,broken clouds,13
Szatina-Kishajmás,46.202778,18.083611,2026-03-19 13:37:52.388012,12.25,10.55,12.25,12.25,1018,39,5.14,45,93,0.0,Clouds,overcast clouds,13
Márok,45.886944,18.499167,2026-03-19 13:37:53.594232,12.61,11.15,12.47,12.61,1018,47,2.68,64,87,0.0,Clouds,overcast clouds,13
Nagynyárád,45.953333,18.564722,2026-03-19 13:37:54.798934,12.68,11.23,12.53,12.68,1018,47,4.07,51,81,0.0,Clouds,broken clouds,13
Szászvár,46.2875,18.369722222222222,2026-03-19 13:37:55.999605,15.24,13.86,15.24,15.24,1018,40,5.47,49,97,0.0,Clouds,overcast clouds,13
Cikó,46.263514,18.557605,2026-03-19 13:37:57.211126,15.56,14.24,15.56,15.56,1018,41,5.53,53,94,0.0,Clouds,overcast clouds,13
Gyöngyfa-Magyarmecske,45.983889,17.958889,2026-03-19 13:37:58.417551,12.57,10.98,12.57,12.57,1018,42,5.3,45,89,0.0,Clouds,overcast clouds,13
Nagyhát,47.581389,21.445,2026-03-19 13:37:59.621650,11.92,10.13,11.92,11.92,1019,37,4.63,30,0,0.0,Clear,clear sky,13
Balmazújváros,47.613889,21.348056,2026-03-19 13:38:00.822765,12.1,10.41,12.1,12.1,1019,40,6.49,24,84,0.0,Clouds,broken clouds,13
Kónya,47.600833,21.2375,2026-03-19 13:38:02.028752,11.35,9.59,11.35,11.35,1019,40,6.44,26,81,0.0,Clouds,broken clouds,13
Hortobágy,47.586111,21.154722,2026-03-19 13:38:03.246686,11.32,9.55,11.32,11.32,1019,40,6.51,29,83,0.0,Clouds,broken clouds,13
Hortobágyi Halastó,47.604167,21.074167,2026-03-19 13:38:04.452998,11.29,9.52,11.29,11.29,1019,40,6.55,31,85,0.0,Clouds,overcast clouds,13
