station_name,station_lat,station_lon,observation_time,temp,feels_like,temp_min,temp_max,pressure,humidity,wind_speed,wind_deg,clouds,precipitation_1h,weather_main,weather_description,collection_hour
Búcsúszentlászló,46.793056,16.932778,2026-03-09 02:40:30.098088,7.84,6.15,7.84,7.84,1027,73,2.65,116,100,0.0,Clouds,overcast clouds,2
Angyalföld,47.549722,19.09,2026-03-09 02:40:31.256823,7.45,6.94,7.07,8.2,1029,53,1.34,151,99,0.0,Clouds,overcast clouds,2
Felsőjánosfa,46.841389,16.544167,2026-03-09 02:40:32.431151,2.78,1.03,2.78,2.78,1027,79,1.79,134,100,0.0,Clouds,overcast clouds,2
Pankasz,46.835833,16.496111,2026-03-09 02:40:33.591579,2.5,0.85,2.5,2.5,1027,80,1.68,133,100,0.0,Clouds,overcast clouds,2
Nagyrákos,46.827222,16.455556,2026-03-09 02:40:34.752551,2.46,0.85,2.46,2.46,1027,81,1.64,132,100,0.0,Clouds,overcast clouds,2
Őriszentpéter,46.828889,16.415278,2026-03-09 02:40:35.920487,2.56,1.14,2.56,2.56,1027,81,1.52,130,100,0.0,Clouds,overcast clouds,2
Törökbálint,47.45,18.908611,2026-03-09 02:40:37.083287,7.51,7.01,6.85,7.97,1029,53,1.34,151,100,0.0,Clouds,overcast clouds,2
Bicske alsó,47.486389,18.642778,2026-03-09 02:40:38.238669,7.82,6.28,6.73,7.86,1029,72,2.45,101,100,0.0,Clouds,overcast clouds,2
Bajánsenye,46.818056,16.358056,2026-03-09 02:40:39.394150,2.63,1.27,2.63,2.63,1027,81,1.48,125,100,0.0,Clouds,overcast clouds,2
Aquincum,47.566218,19.048273,2026-03-09 02:40:40.553017,7.46,6.95,7.1,8.22,1029,53,1.34,151,100,0.0,Clouds,overcast clouds,2
Piliscsév,47.673889,18.791389,2026-03-09 02:40:41.716549,7.46,6.22,6.85,7.81,1029,71,2.02,101,100,0.0,Clouds,overcast clouds,2
Tát,47.741201,18.64783,2026-03-09 02:40:42.885825,2.43,0.19,2.43,2.43,1029,72,2.17,117,100,0.0,Clouds,overcast clouds,2
Süttő felső,47.756667,18.437222,2026-03-09 02:40:44.048664,2.63,0.12,2.63,2.63,1029,72,2.47,124,100,0.0,Clouds,overcast clouds,2
Budatétény,47.405,19.016389,2026-03-09 02:40:45.207310,7.27,7.27,7.14,8.26,1029,53,0.45,79,100,0.0,Clouds,overcast clouds,2
Seregélyes-Szőlőhegy,47.119444,18.612222,2026-03-09 02:40:46.368790,2.18,-0.45,2.18,2.18,1029,68,2.51,118,100,0.0,Clouds,overcast clouds,2
Gödöllő-Állami telepek,47.564444,19.375556,2026-03-09 02:40:47.525401,4.98,3.28,4.74,7.24,1029,56,2.06,110,0,0.0,Clear,clear sky,2
Dunakeszi alsó,47.607778,19.128889,2026-03-09 02:40:48.690944,7.45,6.73,7.07,8.19,1029,53,1.51,93,99,0.0,Clouds,overcast clouds,2
Vác-Alsóváros,47.773056,19.149722,2026-03-09 02:40:49.856054,1.95,0.03,1.95,1.95,1029,72,1.82,116,100,0.0,Clouds,overcast clouds,2
Szob alsó,47.816667,18.8725,2026-03-09 02:40:51.028662,2.27,0.11,2.27,2.27,1029,72,2.07,110,100,0.0,Clouds,overcast clouds,2
Zalaszentmihály-Pacsa,46.7225,16.951944,2026-03-09 02:40:52.189873,7.75,6.52,7.75,7.75,1027,61,2.06,100,0,0.0,Clear,clear sky,2
Pötréte,46.682778,16.9575,2026-03-09 02:40:53.348024,7.75,6.52,7.75,7.75,1027,61,2.06,100,0,0.0,Clear,clear sky,2
Felsőrajk,46.667222,16.982778,2026-03-09 02:40:54.515839,7.81,6.59,7.81,7.81,1027,61,2.06,100,0,0.0,Clear,clear sky,2
Gelse,46.600556,16.982778,2026-03-09 02:40:55.680396,7.81,6.59,7.81,7.81,1027,61,2.06,100,0,0.0,Clear,clear sky,2
Őrtilos,46.297778,16.887778,2026-03-09 02:40:56.842808,2.82,0.48,2.82,2.82,1027,73,2.33,104,98,0.0,Clouds,overcast clouds,2
Zákány,46.251944,16.9425,2026-03-09 02:40:58.015517,2.59,-0.09,2.59,2.59,1027,73,2.65,108,97,0.0,Clouds,overcast clouds,2
Berzence,46.201389,17.143611,2026-03-09 02:40:59.174153,2.91,0.0,2.91,2.91,1027,72,3.0,114,93,0.0,Clouds,overcast clouds,2
Somogyudvarhely,46.163333,17.179722,2026-03-09 02:41:00.340919,2.89,-0.04,2.89,2.89,1027,73,3.02,115,92,0.0,Clouds,overcast clouds,2
Bélavár,46.122778,17.207778,2026-03-09 02:41:01.510504,2.98,0.09,2.98,2.98,1027,74,2.99,114,87,0.0,Clouds,overcast clouds,2
Vízvár,46.101389,17.239444,2026-03-09 02:41:02.674192,2.9,0.0,2.9,2.9,1027,74,2.98,113,83,0.0,Clouds,broken clouds,2
Babócsa,46.028359,17.342276,2026-03-09 02:41:03.832249,2.94,0.08,2.94,2.94,1027,75,2.94,109,68,0.0,Clouds,broken clouds,2
Péterhida-Komlósd,46.006667,17.358056,2026-03-09 02:41:05.000539,3.02,0.2,3.02,3.02,1027,76,2.91,106,61,0.0,Clouds,broken clouds,2
Barcs,45.951944,17.446944,2026-03-09 02:41:06.159237,3.05,0.21,3.05,3.05,1027,77,2.94,102,43,0.0,Clouds,scattered clouds,2
Barcs felső,45.958333,17.486389,2026-03-09 02:41:07.323895,2.97,0.1,2.97,2.97,1027,76,2.96,103,39,0.0,Clouds,scattered clouds,2
Középrigóc,45.970556,17.525,2026-03-09 02:41:08.487267,2.89,-0.02,2.89,2.89,1027,76,2.99,103,36,0.0,Clouds,scattered clouds,2
Darány,45.992222,17.598611,2026-03-09 02:41:09.648697,2.91,-0.07,2.91,2.91,1027,75,3.08,105,32,0.0,Clouds,scattered clouds,2
Kisdobsza,46.012222,17.668056,2026-03-09 02:41:10.808731,2.97,-0.02,2.97,2.97,1028,74,3.11,106,32,0.0,Clouds,scattered clouds,2
Nemeske,46.023333,17.705278,2026-03-09 02:41:11.969941,2.99,-0.01,2.99,2.99,1028,74,3.13,105,31,0.0,Clouds,scattered clouds,2
Molvány,46.035278,17.748611,2026-03-09 02:41:13.127974,2.98,0.01,2.98,2.98,1028,73,3.09,105,29,0.0,Clouds,scattered clouds,2
Szigetvár,46.043333,17.801944,2026-03-09 02:41:14.290068,2.94,-0.03,2.94,2.94,1028,73,3.08,104,26,0.0,Clouds,scattered clouds,2
Nagypeterd,46.039444,17.871667,2026-03-09 02:41:15.452909,6.53,4.29,6.53,6.53,1028,72,3.08,102,19,0.0,Clouds,few clouds,2
Szentdénes,46.036667,17.926944,2026-03-09 02:41:16.614259,6.48,4.23,6.48,6.48,1028,72,3.08,100,17,0.0,Clouds,few clouds,2
Háros,47.412222,19.035,2026-03-09 02:41:17.790442,7.27,7.27,7.1,8.22,1029,53,0.45,79,100,0.0,Clouds,overcast clouds,2
Nagytétény-Diósd,47.398333,18.974444,2026-03-09 02:41:18.960312,7.18,7.18,7.13,8.25,1029,53,0.45,79,100,0.0,Clouds,overcast clouds,2
Érdliget,47.390278,18.937778,2026-03-09 02:41:20.120257,7.12,7.12,7.05,8.17,1029,52,0.45,79,100,0.0,Clouds,overcast clouds,2
Érd felső,47.381111,18.922222,2026-03-09 02:41:21.277735,7.24,7.24,7.01,8.14,1029,52,0.45,79,100,0.0,Clouds,overcast clouds,2
Érd,47.369722,18.900833,2026-03-09 02:41:22.438661,7.41,5.94,6.98,8.1,1029,52,2.27,101,100,0.0,Clouds,overcast clouds,2
Százhalombatta,47.322222,18.899167,2026-03-09 02:41:23.628604,7.31,5.69,6.96,8.09,1029,52,2.43,108,100,0.0,Clouds,overcast clouds,2
Dunai Finomító,47.294444,18.878889,2026-03-09 02:41:24.786554,7.23,5.55,6.8,7.92,1029,52,2.49,108,100,0.0,Clouds,overcast clouds,2
Ercsi,47.247222,18.875278,2026-03-09 02:41:25.948406,7.41,5.74,7.03,8.15,1029,69,2.52,112,100,0.0,Clouds,overcast clouds,2
Iváncsa,47.177778,18.811944,2026-03-09 02:41:27.106348,1.94,-0.81,1.94,1.94,1029,68,2.59,121,100,0.0,Clouds,overcast clouds,2
Pusztaszabolcs,47.139722,18.761667,2026-03-09 02:41:28.270902,2.08,-0.77,2.08,2.08,1029,67,2.73,127,99,0.0,Clouds,overcast clouds,2
Szabadegyháza,47.082778,18.704167,2026-03-09 02:41:29.428513,2.13,-0.83,2.13,2.13,1029,67,2.87,131,99,0.0,Clouds,overcast clouds,2
Sárosd,47.039722,18.660278,2026-03-09 02:41:30.593406,2.24,-0.73,2.24,2.24,1029,67,2.9,130,100,0.0,Clouds,overcast clouds,2
Nagylók,46.979444,18.635833,2026-03-09 02:41:31.762493,2.17,-1.05,2.17,2.17,1029,66,3.2,135,99,0.0,Clouds,overcast clouds,2
Sárbogárd,46.896944,18.611944,2026-03-09 02:41:32.924046,2.47,-0.76,2.47,2.47,1029,66,3.29,136,96,0.0,Clouds,overcast clouds,2
Rétszilas,46.814167,18.601389,2026-03-09 02:41:34.100401,2.58,-0.61,2.58,2.58,1029,67,3.27,136,91,0.0,Clouds,overcast clouds,2
Nagyatád,46.228611,17.354167,2026-03-09 02:41:35.269706,2.86,-0.16,2.86,2.86,1027,69,3.12,118,85,0.0,Clouds,overcast clouds,2
Budapest-Keleti,47.500278,19.084167,2026-03-09 02:41:36.434203,7.3,5.99,5.2,8.17,1029,54,2.06,110,0,0.0,Clear,clear sky,2
Ferencváros,47.468611,19.088056,2026-03-09 02:41:37.594050,7.25,5.93,5.22,8.19,1029,54,2.06,110,0,0.0,Clear,clear sky,2
Budapest-Nyugati,47.510833,19.0575,2026-03-09 02:41:38.755203,7.37,6.07,5.21,8.18,1029,54,2.06,110,0,0.0,Clear,clear sky,2
Kőbánya felső,47.491944,19.133889,2026-03-09 02:41:39.917306,6.89,5.51,5.14,8.11,1029,54,2.06,110,0,0.0,Clear,clear sky,2
Rákos,47.488889,19.174722,2026-03-09 02:41:41.077012,6.54,5.1,5.1,8.07,1029,54,2.06,110,0,0.0,Clear,clear sky,2
Rákosrendező,47.525556,19.089444,2026-03-09 02:41:42.236105,7.27,5.96,5.25,8.21,1029,54,2.06,110,0,0.0,Clear,clear sky,2
Zugló,47.511389,19.101389,2026-03-09 02:41:43.403578,7.2,5.88,5.21,8.18,1029,54,2.06,110,0,0.0,Clear,clear sky,2
Mezőtárkány,47.725,20.480278,2026-03-09 02:41:44.562925,2.56,-0.03,2.56,2.56,1030,69,2.54,69,4,0.0,Clear,clear sky,2
Istvántelek,47.550278,19.106389,2026-03-09 02:41:45.738605,7.12,5.78,5.23,8.2,1029,54,2.06,110,0,0.0,Clear,clear sky,2
Rákospalota-Újpest,47.565833,19.111944,2026-03-09 02:41:46.894710,7.05,5.7,5.23,8.2,1029,55,2.06,110,0,0.0,Clear,clear sky,2
Kőbánya alsó,47.483056,19.127222,2026-03-09 02:41:48.063255,6.94,5.57,5.16,8.12,1029,54,2.06,110,0,0.0,Clear,clear sky,2
Kőbánya-Kispest,47.463889,19.149444,2026-03-09 02:41:49.231750,6.71,5.3,5.16,8.12,1029,54,2.06,110,0,0.0,Clear,clear sky,2
Pestszentlőrinc,47.454722,19.182778,2026-03-09 02:41:50.408445,6.36,4.89,5.1,8.07,1029,54,2.06,110,0,0.0,Clear,clear sky,2
Kispest,47.448135,19.157552,2026-03-09 02:41:51.569655,6.6,5.17,5.16,8.13,1029,54,2.06,110,0,0.0,Clear,clear sky,2
Újpest,47.558889,19.079722,2026-03-09 02:41:52.735820,7.15,5.82,5.23,8.2,1029,55,2.06,110,0,0.0,Clear,clear sky,2
Pestszentimre felső,47.413611,19.173333,2026-03-09 02:41:53.899946,6.43,4.98,5.19,8.16,1029,54,2.06,110,0,0.0,Clear,clear sky,2
Dunakeszi,47.626111,19.136111,2026-03-09 02:41:55.058592,6.72,5.85,5.13,8.1,1029,55,1.55,95,99,0.0,Clouds,overcast clouds,2
Dunakeszi-Gyártelep,47.643611,19.135,2026-03-09 02:41:56.222605,6.88,5.96,5.18,7.68,1029,55,1.61,98,99,0.0,Clouds,overcast clouds,2
Alsógöd,47.676944,19.134444,2026-03-09 02:41:57.382311,6.63,5.62,5.17,7.67,1029,71,1.66,101,100,0.0,Clouds,overcast clouds,2
Göd,47.687778,19.1375,2026-03-09 02:41:58.542727,6.6,5.58,5.19,7.69,1029,71,1.66,101,100,0.0,Clouds,overcast clouds,2
Felsőgöd,47.705556,19.143333,2026-03-09 02:41:59.702088,5.43,4.18,5.39,7.73,1029,71,1.71,105,100,0.0,Clouds,overcast clouds,2
Sződ-Sződliget,47.728056,19.154722,2026-03-09 02:42:00.864221,5.4,4.09,5.38,7.73,1029,72,1.76,109,100,0.0,Clouds,overcast clouds,2
Vác,47.782778,19.133056,2026-03-09 02:42:02.024740,5.36,3.98,5.36,5.36,1029,72,1.82,116,100,0.0,Clouds,overcast clouds,2
Verőce,47.823889,19.029444,2026-03-09 02:42:03.186979,5.19,3.6,5.19,5.19,1029,73,1.99,117,100,0.0,Clouds,overcast clouds,2
Kismaros,47.8275,19.010278,2026-03-09 02:42:04.356441,5.32,3.7,5.32,5.32,1029,73,2.04,115,100,0.0,Clouds,overcast clouds,2
Nagymaros-Visegrád,47.791389,18.959167,2026-03-09 02:42:05.516945,5.34,3.84,5.34,5.34,1029,73,1.93,108,100,0.0,Clouds,overcast clouds,2
Nagymaros,47.780278,18.952222,2026-03-09 02:42:06.681740,5.42,3.93,5.42,5.42,1029,73,1.93,108,100,0.0,Clouds,overcast clouds,2
Zebegény,47.801389,18.908889,2026-03-09 02:42:07.843623,5.39,3.8,5.39,5.39,1029,72,2.02,111,100,0.0,Clouds,overcast clouds,2
Szob,47.821111,18.861944,2026-03-09 02:42:09.013678,5.35,3.64,5.35,5.35,1029,72,2.14,113,100,0.0,Clouds,overcast clouds,2
Alagimajor,47.601944,19.153889,2026-03-09 02:42:10.172980,6.78,5.39,5.18,8.14,1029,55,2.06,110,0,0.0,Clear,clear sky,2
Fót,47.611389,19.181667,2026-03-09 02:42:11.334788,7.04,6.18,5.07,7.57,1029,53,1.58,97,99,0.0,Clouds,overcast clouds,2
Fótújfalu,47.615,19.192778,2026-03-09 02:42:12.499055,6.83,5.94,4.97,7.47,1029,53,1.58,97,99,0.0,Clouds,overcast clouds,2
Csomád,47.635556,19.222778,2026-03-09 02:42:13.668222,6.3,5.29,4.69,7.2,1029,69,1.62,100,98,0.0,Clouds,overcast clouds,2
Veresegyház,47.649167,19.288611,2026-03-09 02:42:14.828678,5.58,4.19,4.84,7.35,1029,70,1.86,106,96,0.0,Clouds,overcast clouds,2
Erdőkertes,47.662222,19.295833,2026-03-09 02:42:15.988369,5.54,4.14,4.8,7.3,1029,70,1.86,106,96,0.0,Clouds,overcast clouds,2
Őrbottyán,47.685833,19.283611,2026-03-09 02:42:17.152486,4.71,3.12,4.71,7.22,1029,71,1.92,109,97,0.0,Clouds,overcast clouds,2
Váchartyán,47.725833,19.248889,2026-03-09 02:42:18.310883,1.47,-0.66,1.47,1.47,1029,71,1.93,114,99,0.0,Clouds,overcast clouds,2
Magyarkút-Verőce,47.826111,19.044444,2026-03-09 02:42:19.470542,1.4,-0.81,1.4,1.4,1029,73,1.99,117,100,0.0,Clouds,overcast clouds,2
Szokolya,47.871111,19.030556,2026-03-09 02:42:20.637217,0.81,-1.61,0.81,0.81,1029,72,2.08,122,100,0.0,Clouds,overcast clouds,2
Berkenye,47.885278,19.071944,2026-03-09 02:42:21.809219,1.52,-0.7,1.52,1.52,1029,72,2.01,123,100,0.0,Clouds,overcast clouds,2
Nógrád,47.901944,19.0475,2026-03-09 02:42:22.969305,1.21,-1.17,1.21,1.21,1029,71,2.11,123,100,0.0,Clouds,overcast clouds,2
Diósjenő,47.94,19.049444,2026-03-09 02:42:24.137676,0.89,-1.56,0.89,0.89,1029,71,2.12,123,100,0.0,Clouds,overcast clouds,2
Borsosberény,47.971389,19.093056,2026-03-09 02:42:25.298421,1.63,-0.27,1.63,1.63,1029,70,1.77,129,100,0.0,Clouds,overcast clouds,2
Nagyoroszi,47.993611,19.101111,2026-03-09 02:42:26.460700,1.52,-0.33,1.52,1.52,1029,70,1.72,127,100,0.0,Clouds,overcast clouds,2
Drégelyvár,48.001944,19.079444,2026-03-09 02:42:27.626709,1.83,-0.3,1.83,1.83,1029,69,1.98,121,100,0.0,Clouds,overcast clouds,2
Drégely,48.042222,19.056111,2026-03-09 02:42:28.789815,2.25,0.22,2.25,2.25,1029,68,1.95,117,100,0.0,Clouds,overcast clouds,2
Drégelypalánk,48.055,19.046111,2026-03-09 02:42:29.953285,2.45,0.31,2.45,2.45,1029,68,2.08,112,100,0.0,Clouds,overcast clouds,2
Ipolyvece,48.056944,19.106389,2026-03-09 02:42:31.113440,2.4,0.81,2.4,2.4,1029,68,1.62,113,100,0.0,Clouds,overcast clouds,2
Dejtár,48.045556,19.196389,2026-03-09 02:42:32.275569,2.26,2.26,2.26,2.26,1029,68,1.31,121,100,0.0,Clouds,overcast clouds,2
Ipolyszög,48.054444,19.221944,2026-03-09 02:42:33.442192,2.33,2.33,2.33,2.33,1029,68,1.12,112,100,0.0,Clouds,overcast clouds,2
Iklad-Domony,47.658056,19.444444,2026-03-09 02:42:34.615733,5.1,3.28,5.1,5.1,1029,72,2.21,103,89,0.0,Clouds,overcast clouds,2
Iklad-Domony felső,47.667778,19.428056,2026-03-09 02:42:35.776241,5.09,3.27,5.09,5.09,1029,72,2.21,106,92,0.0,Clouds,overcast clouds,2
Galgamácsa,47.693889,19.3925,2026-03-09 02:42:36.938726,1.5,-0.82,1.5,1.5,1029,71,2.1,111,96,0.0,Clouds,overcast clouds,2
Vácrátót,47.732778,19.217778,2026-03-09 02:42:38.099736,1.72,-0.23,1.72,1.72,1029,71,1.82,112,100,0.0,Clouds,overcast clouds,2
Csörög,47.735833,19.196389,2026-03-09 02:42:39.271063,5.16,3.79,5.16,7.5,1029,71,1.78,110,100,0.0,Clouds,overcast clouds,2
Galgagyörk,47.735278,19.372222,2026-03-09 02:42:40.432914,1.61,-0.71,1.61,1.61,1029,71,2.11,113,98,0.0,Clouds,overcast clouds,2
Püspökhatvan,47.768611,19.366944,2026-03-09 02:42:41.593478,1.7,-0.56,1.7,1.7,1029,71,2.07,120,100,0.0,Clouds,overcast clouds,2
Acsa-Erdőkürt,47.801111,19.386111,2026-03-09 02:42:42.753254,1.58,-0.62,1.58,1.58,1029,71,2.0,123,100,0.0,Clouds,overcast clouds,2
Galgaguta,47.848611,19.385556,2026-03-09 02:42:43.922996,1.37,-0.6,1.37,1.37,1029,71,1.79,129,100,0.0,Clouds,overcast clouds,2
Nógrádkövesd,47.879444,19.371111,2026-03-09 02:42:45.086980,1.58,-0.18,1.58,1.58,1029,71,1.66,132,100,0.0,Clouds,overcast clouds,2
Magyarnándor,47.970833,19.356667,2026-03-09 02:42:46.247665,1.58,1.58,1.58,1.58,1030,70,1.2,138,100,0.0,Clouds,overcast clouds,2
Mohora,47.995556,19.347778,2026-03-09 02:42:47.411740,1.74,1.74,1.74,1.74,1030,70,1.04,136,100,0.0,Clouds,overcast clouds,2
Szügy,48.036389,19.333056,2026-03-09 02:42:48.572691,2.06,2.06,2.06,2.06,1029,69,0.77,121,100,0.0,Clouds,overcast clouds,2
Balassagyarmat,48.071111,19.293611,2026-03-09 02:42:49.735337,2.21,2.21,2.21,2.21,1029,68,0.78,106,99,0.0,Clouds,overcast clouds,2
Őrhalom,48.078773,19.403936,2026-03-09 02:42:50.894805,1.97,1.97,1.97,1.97,1030,68,0.64,74,94,0.0,Clouds,overcast clouds,2
Hugyag,48.083056,19.421111,2026-03-09 02:42:52.051429,1.97,1.97,1.97,1.97,1030,68,0.64,74,94,0.0,Clouds,overcast clouds,2
Szécsény,48.093056,19.521111,2026-03-09 02:42:53.207220,2.19,2.19,2.19,2.19,1030,69,0.72,76,91,0.0,Clouds,overcast clouds,2
Ludányhalászi,48.1325,19.529444,2026-03-09 02:42:54.373045,2.24,2.24,2.24,2.24,1030,68,1.01,47,85,0.0,Clouds,overcast clouds,2
Nógrádszakál,48.178333,19.521667,2026-03-09 02:42:55.535433,2.22,2.22,2.22,2.22,1030,67,1.23,40,83,0.0,Clouds,broken clouds,2
Ráróspuszta,48.207222,19.541389,2026-03-09 02:42:56.711382,1.72,0.05,1.72,1.72,1030,66,1.61,34,77,0.0,Clouds,broken clouds,2
Litke,48.215833,19.598611,2026-03-09 02:42:57.872230,2.22,0.78,2.22,2.22,1030,67,1.5,43,76,0.0,Clouds,broken clouds,2
Nyíregyháza külső,47.943056,21.740278,2026-03-09 02:42:59.030359,2.8,-0.02,2.8,2.8,1030,66,2.86,129,1,0.0,Clear,clear sky,2
Oros,47.945833,21.806389,2026-03-09 02:43:00.190898,2.77,-0.37,2.77,2.77,1030,65,3.26,131,1,0.0,Clear,clear sky,2
Napkor,47.948889,21.873056,2026-03-09 02:43:01.355513,2.77,-0.77,2.77,2.77,1030,65,3.82,128,0,0.0,Clear,clear sky,2
Apagy,47.953775,21.939044,2026-03-09 02:43:02.515820,2.75,-0.92,2.75,2.75,1030,64,4.03,128,0,0.0,Clear,clear sky,2
Levelek-Magy,47.948056,21.993611,2026-03-09 02:43:03.679941,2.68,-1.22,2.68,2.68,1030,64,4.37,127,0,0.0,Clear,clear sky,2
Ófehértó,47.940556,22.041389,2026-03-09 02:43:04.839839,2.55,-1.45,2.55,2.55,1030,63,4.49,126,0,0.0,Clear,clear sky,2
Ligettanya,47.951667,22.071389,2026-03-09 02:43:06.000675,2.52,-1.59,2.52,2.52,1031,63,4.68,125,0,0.0,Clear,clear sky,2
Baktalórántháza,47.988611,22.083333,2026-03-09 02:43:07.165902,2.54,-1.57,2.54,2.54,1031,63,4.68,125,0,0.0,Clear,clear sky,2
Vaja-Rohod,48.006389,22.164167,2026-03-09 02:43:08.339543,2.53,-1.66,2.53,2.53,1031,63,4.82,125,0,0.0,Clear,clear sky,2
Rákóczitanya,48.022222,22.178333,2026-03-09 02:43:09.505826,2.47,-1.75,2.47,2.47,1031,63,4.86,125,0,0.0,Clear,clear sky,2
Nyírmada,48.059167,22.203056,2026-03-09 02:43:10.666395,2.53,-1.69,2.53,2.53,1031,63,4.88,125,0,0.0,Clear,clear sky,2
Tunyogmatolcs,47.960244,22.442247,2026-03-09 02:43:11.823500,2.44,-1.96,2.44,2.44,1031,60,5.19,127,0,0.0,Clear,clear sky,2
Tunyogmatolcs alsó,47.966025,22.464713,2026-03-09 02:43:12.984451,2.39,-2.04,2.39,2.39,1031,59,5.21,127,0,0.0,Clear,clear sky,2
Fehérgyarmat,47.979167,22.524444,2026-03-09 02:43:14.148772,2.38,-1.93,2.38,2.38,1031,59,4.98,126,0,0.0,Clear,clear sky,2
Penyige,47.995278,22.566944,2026-03-09 02:43:15.309764,2.36,-1.9,2.36,2.36,1031,59,4.88,125,0,0.0,Clear,clear sky,2
Nagyszekeres,47.976111,22.6125,2026-03-09 02:43:16.469900,2.34,-1.85,2.34,2.34,1031,59,4.75,124,0,0.0,Clear,clear sky,2
Kisszekeres,47.965833,22.629444,2026-03-09 02:43:17.633152,2.25,-2.05,2.25,2.25,1031,58,4.9,125,0,0.0,Clear,clear sky,2
Jánkmajtis,47.941944,22.657222,2026-03-09 02:43:18.799297,2.14,-2.2,2.14,2.14,1031,57,4.92,125,0,0.0,Clear,clear sky,2
Gacsály,47.926111,22.745,2026-03-09 02:43:19.962933,8.93,6.48,8.03,8.93,1031,57,4.45,123,0,0.0,Clear,clear sky,2
Zajta,47.9025,22.796111,2026-03-09 02:43:21.120686,8.92,6.53,8.03,8.92,1031,56,4.31,124,0,0.0,Clear,clear sky,2
Eperjeske alsó,48.360556,22.19,2026-03-09 02:43:22.293746,2.64,-0.73,2.64,2.64,1031,69,3.54,110,0,0.0,Clear,clear sky,2
Mándok,48.326944,22.196389,2026-03-09 02:43:23.460580,2.65,-1.0,2.65,2.65,1031,68,3.96,114,0,0.0,Clear,clear sky,2
Tornyospálca,48.268333,22.201944,2026-03-09 02:43:24.622524,2.7,-1.16,2.7,2.7,1031,67,4.32,117,0,0.0,Clear,clear sky,2
Aranyosapáti,48.211303,22.253534,2026-03-09 02:43:25.789399,2.75,-1.35,2.75,2.75,1031,65,4.76,121,0,0.0,Clear,clear sky,2
Gyüre,48.171389,22.269167,2026-03-09 02:43:26.952941,2.71,-1.48,2.71,2.71,1031,65,4.91,123,0,0.0,Clear,clear sky,2
Varsány,48.151722,22.290047,2026-03-09 02:43:28.133449,2.69,-1.53,2.69,2.69,1031,64,4.96,124,0,0.0,Clear,clear sky,2
Vásárosnamény,48.126667,22.306111,2026-03-09 02:43:29.297519,2.67,-1.57,2.67,2.67,1031,64,4.98,125,0,0.0,Clear,clear sky,2
Vitka,48.095556,22.308056,2026-03-09 02:43:30.459279,2.64,-1.61,2.64,2.64,1031,63,5.0,125,0,0.0,Clear,clear sky,2
Nagydobos,48.054167,22.311111,2026-03-09 02:43:31.631218,2.55,-1.72,2.55,2.55,1031,63,4.99,125,0,0.0,Clear,clear sky,2
Ópályi,47.997778,22.318333,2026-03-09 02:43:32.788455,2.45,-1.85,2.45,2.45,1031,62,4.99,126,0,0.0,Clear,clear sky,2
Nyírcsaholy,47.908056,22.348333,2026-03-09 02:43:33.946242,2.39,-1.97,2.39,2.39,1031,60,5.08,126,0,0.0,Clear,clear sky,2
Nagyecsed,47.864722,22.385556,2026-03-09 02:43:35.107062,2.33,-2.14,2.33,2.33,1031,58,5.27,127,0,0.0,Clear,clear sky,2
Tiborszállás,47.815278,22.402778,2026-03-09 02:43:36.267377,2.28,-2.22,2.28,2.28,1031,57,5.29,127,0,0.0,Clear,clear sky,2
Kiskunhalas,46.434444,19.493611,2026-03-09 02:43:37.430358,2.46,-1.41,2.46,2.46,1029,69,4.24,149,24,0.0,Clouds,few clouds,2
Kecskemét alsó,46.895833,19.692222,2026-03-09 02:43:38.588707,6.55,4.65,6.55,6.55,1029,68,2.61,160,68,0.0,Clouds,broken clouds,2
Putnok,48.286667,20.4375,2026-03-09 02:43:39.748851,9.44,9.15,8.92,9.44,1030,61,1.37,79,3,0.0,Clear,clear sky,2
Bánréve,48.299722,20.351944,2026-03-09 02:43:40.912558,9.43,9.18,9.43,9.43,1030,61,1.34,65,6,0.0,Clear,clear sky,2
Ipolytarnóc,48.236667,19.629167,2026-03-09 02:43:42.073787,2.2,0.61,2.2,2.2,1030,66,1.6,43,73,0.0,Clouds,broken clouds,2
Rákosliget,47.486111,19.257778,2026-03-09 02:43:43.240203,5.91,4.37,5.03,7.53,1029,54,2.06,110,0,0.0,Clear,clear sky,2
Ikrény,47.657778,17.524167,2026-03-09 02:43:44.408393,1.08,-2.63,1.08,1.08,1028,72,3.54,116,36,0.0,Clouds,scattered clouds,2
Rábapatona,47.648889,17.461944,2026-03-09 02:43:45.571719,1.1,-2.39,1.1,1.1,1028,71,3.26,118,40,0.0,Clouds,scattered clouds,2
Enese,47.644167,17.425278,2026-03-09 02:43:46.742637,1.1,-2.18,1.1,1.1,1028,71,3.0,122,50,0.0,Clouds,scattered clouds,2
Kóny,47.632222,17.357222,2026-03-09 02:43:47.908732,3.58,0.97,3.58,3.58,1028,70,2.79,126,61,0.0,Clouds,broken clouds,2
Farád,47.595278,17.195833,2026-03-09 02:43:49.071113,5.01,2.77,5.01,5.01,1028,69,2.67,148,100,0.0,Clouds,overcast clouds,2
Rábatamási,47.592778,17.161389,2026-03-09 02:43:50.232551,5.01,2.77,5.01,5.01,1028,69,2.67,148,100,0.0,Clouds,overcast clouds,2
Szárföld,47.589167,17.123889,2026-03-09 02:43:51.402890,4.99,2.7,4.99,4.99,1027,69,2.73,150,100,0.0,Clouds,overcast clouds,2
Veszkény,47.586944,17.101389,2026-03-09 02:43:52.562130,5.0,2.66,5.0,5.0,1027,70,2.79,152,100,0.0,Clouds,overcast clouds,2
Kapuvár,47.581944,17.046944,2026-03-09 02:43:53.722533,4.98,2.56,4.98,4.98,1027,70,2.89,157,100,0.0,Clouds,overcast clouds,2
Vitnyéd-Csermajor,47.5825,16.987222,2026-03-09 02:43:54.884129,4.99,2.45,4.99,4.99,1027,70,3.06,159,100,0.0,Clouds,overcast clouds,2
Petőháza,47.595278,16.893056,2026-03-09 02:43:56.045363,4.94,2.2,4.94,4.94,1027,70,3.34,158,100,0.0,Clouds,overcast clouds,2
Fertőszentmiklós,47.6,16.858889,2026-03-09 02:43:57.209903,4.94,2.18,4.94,4.94,1027,70,3.37,158,100,0.0,Clouds,overcast clouds,2
Pinnye,47.600278,16.768611,2026-03-09 02:43:58.368555,4.82,2.13,4.82,4.82,1027,70,3.22,161,100,0.0,Clouds,overcast clouds,2
Fertőboz,47.625,16.691667,2026-03-09 02:43:59.583659,4.66,2.02,4.66,4.66,1027,70,3.11,162,100,0.0,Clouds,overcast clouds,2
Sopron,47.677778,16.587222,2026-03-09 02:44:00.751017,4.36,1.78,4.36,4.36,1027,72,2.94,162,100,0.0,Clouds,overcast clouds,2
Fertőszéplak-Fertőd,47.618889,16.850833,2026-03-09 02:44:01.912376,4.96,2.14,4.96,4.96,1027,70,3.46,156,100,0.0,Clouds,overcast clouds,2
Nyúl,47.587778,17.698056,2026-03-09 02:44:03.088794,1.02,-2.75,1.02,7.14,1028,80,3.6,90,0,0.0,Clear,clear sky,2
Pannonhalma,47.547778,17.740833,2026-03-09 02:44:04.252444,0.96,-2.82,0.96,7.08,1028,80,3.6,90,0,0.0,Clear,clear sky,2
Tarjánpuszta,47.504722,17.789167,2026-03-09 02:44:05.418599,0.73,-3.1,0.73,6.84,1028,80,3.6,90,0,0.0,Clear,clear sky,2
Győrasszonyfa,47.4925,17.799167,2026-03-09 02:44:06.582292,0.66,-3.19,0.66,6.77,1028,80,3.6,90,0,0.0,Clear,clear sky,2
Veszprémvarsány,47.443333,17.818333,2026-03-09 02:44:07.748736,0.71,-3.2,0.71,6.83,1028,73,3.7,127,100,0.0,Clouds,overcast clouds,2
Bakonyszentlászló,47.395556,17.8175,2026-03-09 02:44:08.905622,6.58,4.09,0.47,6.58,1028,73,3.49,130,100,0.0,Clouds,overcast clouds,2
Porva-Csesznek,47.326944,17.841111,2026-03-09 02:44:10.070113,5.59,3.06,5.59,5.59,1028,73,3.22,131,100,0.0,Clouds,overcast clouds,2
Zirc,47.266667,17.878056,2026-03-09 02:44:11.236277,0.74,-2.28,0.74,0.74,1028,72,2.64,125,100,0.0,Clouds,overcast clouds,2
Eplény,47.192778,17.921667,2026-03-09 02:44:12.398006,1.17,-1.24,1.17,1.17,1029,72,2.13,102,100,0.0,Clouds,overcast clouds,2
Marcaltő,47.4275,17.348889,2026-03-09 02:44:13.561093,7.17,5.05,7.17,7.17,1027,57,3.09,130,0,0.0,Clear,clear sky,2
Szany-Rábaszentandrás,47.460833,17.315278,2026-03-09 02:44:14.719978,7.17,5.05,7.17,7.17,1028,57,3.09,130,0,0.0,Clear,clear sky,2
Egyed-Rábacsanak,47.521944,17.316389,2026-03-09 02:44:15.879494,7.18,5.47,7.18,7.18,1028,70,2.52,136,82,0.0,Clouds,broken clouds,2
Rábapordány,47.557222,17.315,2026-03-09 02:44:17.043634,7.18,5.47,7.18,7.18,1028,70,2.52,134,79,0.0,Clouds,broken clouds,2
Albertfalva,47.440784,19.033965,2026-03-09 02:44:18.203129,7.35,6.05,5.28,8.25,1029,53,2.06,110,0,0.0,Clear,clear sky,2
Budafok,47.425833,19.041389,2026-03-09 02:44:19.363573,7.31,6.0,5.29,8.25,1029,53,2.06,110,0,0.0,Clear,clear sky,2
Tétényliget,47.384722,18.955278,2026-03-09 02:44:20.525794,7.47,7.47,5.31,8.27,1029,53,0.45,79,100,0.0,Clouds,overcast clouds,2
Érd alsó,47.379722,18.923056,2026-03-09 02:44:21.674666,7.24,7.24,7.01,8.14,1029,52,0.45,79,100,0.0,Clouds,overcast clouds,2
Tárnok,47.365556,18.873889,2026-03-09 02:44:22.841224,7.49,5.94,5.23,8.2,1029,53,2.38,99,100,0.0,Clouds,overcast clouds,2
Martonvásár,47.321389,18.781667,2026-03-09 02:44:24.000093,7.85,6.33,7.01,8.13,1029,69,2.43,102,100,0.0,Clouds,overcast clouds,2
Baracska,47.297222,18.753333,2026-03-09 02:44:25.162798,8.06,6.59,7.11,8.23,1029,70,2.41,104,100,0.0,Clouds,overcast clouds,2
Pettend,47.26,18.708889,2026-03-09 02:44:26.320255,8.13,6.73,8.13,8.13,1029,70,2.34,104,100,0.0,Clouds,overcast clouds,2
Kápolnásnyék,47.245556,18.692222,2026-03-09 02:44:27.476218,8.16,6.79,8.16,8.16,1029,70,2.31,106,100,0.0,Clouds,overcast clouds,2
Velence,47.226944,18.663889,2026-03-09 02:44:28.636675,8.18,6.84,8.18,8.18,1029,70,2.28,104,100,0.0,Clouds,overcast clouds,2
Velencefürdő,47.218611,18.648056,2026-03-09 02:44:29.796140,2.15,-0.29,2.15,2.15,1029,69,2.31,108,100,0.0,Clouds,overcast clouds,2
Gárdony,47.205833,18.624722,2026-03-09 02:44:30.958722,2.21,-0.19,2.21,2.21,1029,69,2.28,106,100,0.0,Clouds,overcast clouds,2
Agárd,47.197666,18.604907,2026-03-09 02:44:32.120070,2.21,-0.19,2.21,2.21,1029,69,2.28,106,100,0.0,Clouds,overcast clouds,2
Dinnyés,47.179722,18.560833,2026-03-09 02:44:33.293092,2.24,-0.15,2.24,2.24,1029,69,2.28,106,100,0.0,Clouds,overcast clouds,2
Székesfehérvár,47.183611,18.424722,2026-03-09 02:44:34.455583,2.34,0.06,2.34,2.34,1029,70,2.19,96,100,0.0,Clouds,overcast clouds,2
Szabadbattyán,47.105278,18.388333,2026-03-09 02:44:35.624718,2.35,-0.11,2.35,2.35,1029,68,2.37,102,100,0.0,Clouds,overcast clouds,2
Kiscséripuszta,47.048056,18.355,2026-03-09 02:44:36.786739,2.19,-0.42,2.19,2.19,1029,67,2.49,104,100,0.0,Clouds,overcast clouds,2
Lepsény,46.9875,18.248056,2026-03-09 02:44:37.948232,8.23,6.76,8.23,8.23,1029,67,2.46,102,100,0.0,Clouds,overcast clouds,2
Balatonaliga,46.984444,18.171389,2026-03-09 02:44:39.108346,8.04,6.59,8.04,8.04,1029,67,2.38,85,100,0.0,Clouds,overcast clouds,2
Balatonvilágos,46.964167,18.157222,2026-03-09 02:44:40.275491,8.08,6.68,8.08,8.08,1029,67,2.33,82,100,0.0,Clouds,overcast clouds,2
Szabadifürdő,46.926111,18.103333,2026-03-09 02:44:41.439439,8.25,7.01,8.25,8.25,1028,41,2.17,85,100,0.0,Clouds,overcast clouds,2
Ózd alsó,48.227778,20.306111,2026-03-09 02:44:42.607261,9.27,9.27,9.27,9.27,1030,60,1.09,83,12,0.0,Clouds,few clouds,2
Ózd,48.2225,20.294722,2026-03-09 02:44:43.777131,9.32,9.32,9.32,9.32,1030,60,1.09,83,12,0.0,Clouds,few clouds,2
Alsóboldva,48.212778,20.792222,2026-03-09 02:44:44.943763,8.98,8.98,8.94,9.65,1030,68,1.04,42,0,0.0,Clear,clear sky,2
Boldva,48.223333,20.790278,2026-03-09 02:44:46.109570,8.97,8.97,8.93,9.64,1030,51,1.04,42,0,0.0,Clear,clear sky,2
Borsodszirák,48.259167,20.770556,2026-03-09 02:44:47.276523,8.93,8.93,8.88,9.6,1030,51,1.24,35,0,0.0,Clear,clear sky,2
Edelény alsó,48.279167,20.760833,2026-03-09 02:44:48.436497,8.86,8.86,8.86,9.06,1030,61,1.24,35,0,0.0,Clear,clear sky,2
Edelény,48.299722,20.749444,2026-03-09 02:44:49.606126,8.84,8.5,8.84,9.04,1030,61,1.35,33,0,0.0,Clear,clear sky,2
Szendrőlád,48.334444,20.731944,2026-03-09 02:44:50.767270,8.75,8.12,8.75,8.75,1030,61,1.6,32,0,0.0,Clear,clear sky,2
Szendrő,48.400725,20.721346,2026-03-09 02:44:51.927535,2.7,0.86,2.7,2.7,1030,61,1.85,29,0,0.0,Clear,clear sky,2
Szendrő felső,48.409907,20.720148,2026-03-09 02:44:53.087613,2.7,0.86,2.7,2.7,1030,61,1.85,29,0,0.0,Clear,clear sky,2
Szalonna,48.449444,20.722222,2026-03-09 02:44:54.246360,2.66,0.61,2.66,2.66,1030,61,2.03,29,0,0.0,Clear,clear sky,2
Perkupa,48.471389,20.691111,2026-03-09 02:44:55.416816,1.92,-0.22,1.92,1.92,1030,61,2.0,34,0,0.0,Clear,clear sky,2
Szemeretelep,47.443056,19.214167,2026-03-09 02:44:56.578882,6.12,4.61,5.09,8.06,1029,54,2.06,110,0,0.0,Clear,clear sky,2
Jósvafő-Aggtelek,48.489722,20.693889,2026-03-09 02:44:57.745548,2.19,0.07,2.19,2.19,1030,61,2.02,34,0,0.0,Clear,clear sky,2
Bódvaszilas,48.5375,20.738056,2026-03-09 02:44:58.910387,1.74,-0.5,1.74,1.74,1030,62,2.06,30,0,0.0,Clear,clear sky,2
Komjáti,48.5475,20.759722,2026-03-09 02:45:00.087712,1.25,-1.01,1.25,1.25,1030,62,2.01,30,0,0.0,Clear,clear sky,2
Tornanádaska,48.558333,20.787222,2026-03-09 02:45:01.244851,2.4,0.32,2.4,2.4,1030,62,2.02,29,0,0.0,Clear,clear sky,2
Onga,48.121111,20.906667,2026-03-09 02:45:02.400517,8.99,8.99,8.99,9.18,1030,51,1.28,79,0,0.0,Clear,clear sky,2
Szikszó-Vásártér,48.193056,20.934722,2026-03-09 02:45:03.571364,8.95,8.95,8.95,9.15,1030,51,0.99,64,0,0.0,Clear,clear sky,2
Szikszó,48.201667,20.941667,2026-03-09 02:45:04.740150,8.97,8.97,8.97,9.16,1030,51,1.05,71,0,0.0,Clear,clear sky,2
Aszaló,48.219867,20.961466,2026-03-09 02:45:05.911786,8.95,8.95,8.95,9.14,1030,51,0.98,65,0,0.0,Clear,clear sky,2
Halmaj,48.246667,20.991667,2026-03-09 02:45:07.073504,8.93,8.93,8.93,8.93,1030,61,1.0,65,0,0.0,Clear,clear sky,2
Csobád,48.277222,21.033889,2026-03-09 02:45:08.240066,8.9,8.9,8.9,8.9,1030,61,1.05,67,0,0.0,Clear,clear sky,2
Ináncs,48.291111,21.057778,2026-03-09 02:45:09.416936,8.9,8.9,8.9,8.9,1030,62,1.29,77,0,0.0,Clear,clear sky,2
Forró-Encs,48.3275,21.117778,2026-03-09 02:45:10.576266,2.76,1.44,2.76,2.76,1030,63,1.47,79,0,0.0,Clear,clear sky,2
Méra,48.363056,21.140278,2026-03-09 02:45:11.747658,2.44,0.67,2.44,2.44,1030,64,1.76,76,0,0.0,Clear,clear sky,2
Novajidrány,48.404444,21.170556,2026-03-09 02:45:12.911750,3.33,1.47,3.33,3.5,1030,65,1.96,77,0,0.0,Clear,clear sky,2
Hernádszurdok,48.487222,21.213889,2026-03-09 02:45:14.071765,3.31,-0.58,3.25,4.69,1030,61,4.63,360,0,0.0,Clear,clear sky,2
Hidasnémeti,48.508333,21.229722,2026-03-09 02:45:15.237144,3.32,-0.57,3.26,4.69,1030,61,4.63,360,0,0.0,Clear,clear sky,2
Mád,48.19,21.268889,2026-03-09 02:45:16.397330,2.57,0.1,2.57,2.57,1030,67,2.42,77,0,0.0,Clear,clear sky,2
Rátka,48.215,21.230278,2026-03-09 02:45:17.552070,2.93,0.75,2.93,2.93,1030,66,2.19,82,0,0.0,Clear,clear sky,2
Tállya,48.226944,21.225278,2026-03-09 02:45:18.716417,2.93,0.75,2.93,2.93,1030,66,2.19,82,0,0.0,Clear,clear sky,2
Golop,48.242778,21.204167,2026-03-09 02:45:19.873725,2.97,1.19,2.97,2.97,1030,64,1.84,87,0,0.0,Clear,clear sky,2
Abaújszántó,48.286944,21.181667,2026-03-09 02:45:21.038605,2.61,0.88,2.61,2.61,1030,64,1.75,86,0,0.0,Clear,clear sky,2
Abaújszántói fürdő,48.268333,21.179722,2026-03-09 02:45:22.205538,2.91,1.19,2.91,2.91,1030,64,1.78,87,0,0.0,Clear,clear sky,2
Abaújkér,48.309444,21.198333,2026-03-09 02:45:23.368538,2.57,0.81,2.57,2.57,1030,64,1.77,84,0,0.0,Clear,clear sky,2
Boldogkőváralja,48.345,21.208889,2026-03-09 02:45:24.540741,2.48,0.39,2.48,2.48,1030,66,2.04,83,0,0.0,Clear,clear sky,2
Korlát-Vizsoly,48.365,21.219167,2026-03-09 02:45:25.701308,2.56,0.44,2.56,2.56,1030,66,2.08,82,0,0.0,Clear,clear sky,2
Fony,48.411389,21.242778,2026-03-09 02:45:26.862360,3.13,1.0,3.13,3.3,1030,67,2.18,79,0,0.0,Clear,clear sky,2
Hejce-Vilmány,48.419444,21.245556,2026-03-09 02:45:28.023877,3.1,0.96,3.1,3.27,1030,67,2.18,79,0,0.0,Clear,clear sky,2
Göncruszka,48.445,21.246944,2026-03-09 02:45:29.195452,3.24,1.08,3.19,4.62,1030,67,2.23,77,0,0.0,Clear,clear sky,2
Gönc,48.470556,21.261389,2026-03-09 02:45:30.365926,3.15,0.92,3.09,4.52,1030,67,2.28,77,0,0.0,Clear,clear sky,2
Zsujta,48.4925,21.265,2026-03-09 02:45:31.523565,3.17,-0.76,3.11,4.54,1030,61,4.63,360,0,0.0,Clear,clear sky,2
Bodrogkeresztúr,48.175556,21.354167,2026-03-09 02:45:32.692608,2.18,-0.65,2.18,2.18,1030,68,2.73,68,1,0.0,Clear,clear sky,2
Szegi,48.201944,21.387778,2026-03-09 02:45:33.855002,6.32,4.25,6.32,6.32,1030,69,2.78,60,0,0.0,Clear,clear sky,2
Erdőbénye,48.218056,21.401944,2026-03-09 02:45:35.013225,6.29,4.22,6.29,6.29,1030,69,2.77,55,0,0.0,Clear,clear sky,2
Olaszliszka-Tolcsva,48.258333,21.448056,2026-03-09 02:45:36.172364,6.32,4.35,6.32,6.32,1031,69,2.65,51,0,0.0,Clear,clear sky,2
Bodrogolaszi,48.286944,21.512778,2026-03-09 02:45:37.331690,6.26,4.3,6.26,6.26,1031,87,2.62,48,0,0.0,Clear,clear sky,2
Sárospatak,48.325833,21.566111,2026-03-09 02:45:38.493422,6.21,4.18,6.21,6.21,1031,87,2.69,40,0,0.0,Clear,clear sky,2
Sátoraljaújhely,48.385833,21.657778,2026-03-09 02:45:39.653250,6.29,4.78,6.29,6.29,1031,87,2.1,42,0,0.0,Clear,clear sky,2
Vecsés,47.40855,19.25652,2026-03-09 02:45:40.813667,7.34,6.32,6.98,7.63,1029,53,1.77,113,93,0.0,Clouds,overcast clouds,2
Vecsés-Kertekalja,47.403333,19.271389,2026-03-09 02:45:41.973227,7.37,6.35,7.01,7.67,1029,53,1.77,113,93,0.0,Clouds,overcast clouds,2
Üllő,47.390833,19.348889,2026-03-09 02:45:43.133866,7.34,6.22,6.97,7.62,1029,67,1.87,121,88,0.0,Clouds,overcast clouds,2
Monor,47.34545,19.43701,2026-03-09 02:45:44.305287,5.07,3.39,5.07,5.07,1029,56,2.06,110,0,0.0,Clear,clear sky,2
Pilis,47.279722,19.536389,2026-03-09 02:45:45.463407,5.03,3.22,5.03,5.03,1029,70,2.18,154,71,0.0,Clouds,broken clouds,2
Albertirsa,47.240278,19.606389,2026-03-09 02:45:46.625543,1.36,-1.22,1.36,1.36,1029,69,2.31,170,70,0.0,Clouds,broken clouds,2
Ceglédbercel-Cserő,47.210278,19.686944,2026-03-09 02:45:47.790757,1.37,-1.26,1.37,1.37,1029,70,2.36,178,69,0.0,Clouds,broken clouds,2
Cegléd,47.182778,19.806111,2026-03-09 02:45:48.948879,4.07,1.85,4.07,4.07,1029,70,2.44,189,63,0.0,Clouds,broken clouds,2
Abony,47.173056,20.016389,2026-03-09 02:45:50.108427,1.97,0.43,1.97,1.97,1029,80,1.54,230,0,0.0,Clear,clear sky,2
Szolnok,47.179167,20.175833,2026-03-09 02:45:51.273282,1.99,0.46,1.99,1.99,1030,80,1.54,230,0,0.0,Clear,clear sky,2
Szajol,47.170556,20.295278,2026-03-09 02:45:52.438340,2.01,0.48,2.01,2.01,1030,80,1.54,230,0,0.0,Clear,clear sky,2
Törökszentmiklós,47.170278,20.413611,2026-03-09 02:45:53.604361,2.0,0.47,2.0,2.0,1030,80,1.54,230,0,0.0,Clear,clear sky,2
Rákoscsaba-Újtelep,47.4875,19.271944,2026-03-09 02:45:54.768577,5.88,4.33,5.03,7.53,1029,54,2.06,110,0,0.0,Clear,clear sky,2
Rákoscsaba,47.492222,19.284722,2026-03-09 02:45:55.931284,7.48,6.66,6.86,7.52,1029,53,1.6,103,92,0.0,Clouds,overcast clouds,2
Pécel,47.493889,19.338889,2026-03-09 02:45:57.095446,7.35,6.48,6.74,7.4,1029,68,1.63,104,89,0.0,Clouds,overcast clouds,2
Isaszeg,47.537719,19.388955,2026-03-09 02:45:58.262148,4.81,3.09,4.81,7.31,1029,56,2.06,110,0,0.0,Clear,clear sky,2
Gödöllő,47.592222,19.358611,2026-03-09 02:45:59.423664,4.88,3.17,4.58,7.09,1029,56,2.06,110,0,0.0,Clear,clear sky,2
Máriabesnyő,47.595556,19.389722,2026-03-09 02:46:00.597066,4.73,3.2,4.73,7.23,1029,71,1.86,102,91,0.0,Clouds,overcast clouds,2
Bag,47.641111,19.471667,2026-03-09 02:46:01.763370,5.08,3.25,5.08,5.08,1029,72,2.21,103,89,0.0,Clouds,overcast clouds,2
Aszód,47.647467,19.492882,2026-03-09 02:46:02.927327,5.16,3.27,5.16,5.16,1029,73,2.29,102,88,0.0,Clouds,overcast clouds,2
Hévízgyörk,47.638611,19.526667,2026-03-09 02:46:04.088873,1.64,-0.93,1.64,1.64,1029,73,2.35,101,88,0.0,Clouds,overcast clouds,2
Galgahévíz,47.6325,19.558333,2026-03-09 02:46:05.258888,1.8,-0.78,1.8,1.8,1030,73,2.39,98,84,0.0,Clouds,broken clouds,2
Tura,47.626389,19.5975,2026-03-09 02:46:06.420414,1.72,-0.93,1.72,1.72,1030,74,2.44,97,83,0.0,Clouds,broken clouds,2
Hatvan,47.663611,19.671389,2026-03-09 02:46:07.587799,1.89,-0.93,1.89,1.89,1030,72,2.66,94,83,0.0,Clouds,broken clouds,2
Vámosgyörk,47.686111,19.927778,2026-03-09 02:46:08.751871,1.94,-0.87,1.94,1.94,1030,72,2.65,81,46,0.0,Clouds,scattered clouds,2
Adács,47.696389,19.975278,2026-03-09 02:46:09.915356,2.08,-0.69,2.08,2.08,1030,71,2.64,77,34,0.0,Clouds,scattered clouds,2
Karácsond,47.718056,20.048611,2026-03-09 02:46:11.079255,2.04,-0.71,2.04,2.04,1030,70,2.61,76,28,0.0,Clouds,scattered clouds,2
Ludas,47.723889,20.095556,2026-03-09 02:46:12.252402,2.28,-0.44,2.28,2.28,1030,70,2.63,76,16,0.0,Clouds,few clouds,2
Nagyút,47.72666666666667,20.161388888888887,2026-03-09 02:46:13.421505,2.27,-0.46,2.27,2.27,1030,70,2.64,76,14,0.0,Clouds,few clouds,2
Kál-Kápolna,47.734167,20.254167,2026-03-09 02:46:14.584613,2.35,-0.41,2.35,2.35,1030,69,2.69,76,8,0.0,Clear,clear sky,2
Füzesabony,47.751389,20.415278,2026-03-09 02:46:15.751275,2.56,-0.2,2.56,2.56,1030,68,2.73,71,5,0.0,Clear,clear sky,2
Szihalom,47.766944,20.491944,2026-03-09 02:46:16.910055,2.65,-0.08,2.65,2.65,1030,68,2.72,67,4,0.0,Clear,clear sky,2
Mezőkövesd,47.797222,20.5675,2026-03-09 02:46:18.081395,2.84,0.25,2.84,2.84,1030,67,2.6,62,3,0.0,Clear,clear sky,2
Mezőkövesd felső,47.807222,20.591389,2026-03-09 02:46:19.241616,9.17,7.77,9.17,9.69,1030,67,2.6,62,3,0.0,Clear,clear sky,2
Mezőkeresztes-Mezőnyárád,47.845556,20.670278,2026-03-09 02:46:20.404741,9.22,8.09,8.97,9.69,1030,66,2.24,57,1,0.0,Clear,clear sky,2
Csincse,47.890833,20.764167,2026-03-09 02:46:21.563648,9.13,8.25,8.99,9.71,1030,66,1.92,56,2,0.0,Clear,clear sky,2
Emőd,47.930556,20.822778,2026-03-09 02:46:22.733880,9.11,8.45,9.01,9.73,1030,75,1.68,61,2,0.0,Clear,clear sky,2
Nyékládháza,47.9925,20.840556,2026-03-09 02:46:23.892701,9.11,8.66,9.04,9.76,1030,72,1.48,67,1,0.0,Clear,clear sky,2
Miskolc-Tiszai,48.098611,20.811389,2026-03-09 02:46:25.054678,9.0,9.0,8.96,9.68,1030,68,1.04,62,0,0.0,Clear,clear sky,2
Felsőzsolca,48.083611,20.866111,2026-03-09 02:46:26.216512,9.03,9.03,8.99,9.7,1030,69,1.17,72,0,0.0,Clear,clear sky,2
Hernádnémeti-Bőcs,48.051389,20.985,2026-03-09 02:46:27.381055,8.99,8.15,8.99,9.18,1030,51,1.85,86,0,0.0,Clear,clear sky,2
Tiszalúc,48.039722,21.0575,2026-03-09 02:46:28.547068,9.03,7.74,9.03,9.23,1030,67,2.41,86,1,0.0,Clear,clear sky,2
Taktaharkány,48.091667,21.128611,2026-03-09 02:46:29.710616,9.08,7.83,9.08,9.08,1030,66,2.36,86,0,0.0,Clear,clear sky,2
Taktaszada,48.1125,21.149444,2026-03-09 02:46:30.869028,9.09,7.85,9.09,9.09,1030,66,2.36,85,0,0.0,Clear,clear sky,2
Szerencs,48.155556,21.214444,2026-03-09 02:46:32.028905,3.1,0.7,3.1,3.1,1030,67,2.45,80,1,0.0,Clear,clear sky,2
Mezőzombor,48.156944,21.267778,2026-03-09 02:46:33.199719,2.99,0.47,2.99,2.99,1030,67,2.55,76,1,0.0,Clear,clear sky,2
Tarcal,48.125,21.34,2026-03-09 02:46:34.361655,3.06,0.23,3.06,3.06,1030,69,2.93,68,1,0.0,Clear,clear sky,2
Tokaj,48.112778,21.406667,2026-03-09 02:46:35.521242,2.48,-0.54,2.48,2.48,1030,70,3.02,60,1,0.0,Clear,clear sky,2
Rakamaz,48.12,21.475,2026-03-09 02:46:36.685108,2.98,0.06,2.98,2.98,1030,70,3.02,58,1,0.0,Clear,clear sky,2
Görögszállás,48.04,21.555,2026-03-09 02:46:37.852123,2.92,0.36,2.92,2.92,1030,69,2.58,69,1,0.0,Clear,clear sky,2
Nyírtelek,48.005,21.615556,2026-03-09 02:46:39.031285,2.87,0.69,2.87,2.87,1030,68,2.18,89,1,0.0,Clear,clear sky,2
Rákoshegy,47.468611,19.245556,2026-03-09 02:46:40.188386,5.79,4.23,4.97,7.47,1029,55,2.06,110,0,0.0,Clear,clear sky,2
Ecser,47.439444,19.318056,2026-03-09 02:46:41.354427,7.18,6.23,6.3,7.52,1029,66,1.68,110,91,0.0,Clouds,overcast clouds,2
Maglód,47.438889,19.340833,2026-03-09 02:46:42.524810,7.13,6.17,6.25,7.46,1029,67,1.68,111,88,0.0,Clouds,overcast clouds,2
Maglódi nyaraló,47.434167,19.363611,2026-03-09 02:46:43.690745,7.02,6.06,6.15,7.36,1029,68,1.67,113,86,0.0,Clouds,overcast clouds,2
Gyömrő,47.429722,19.393333,2026-03-09 02:46:44.856221,4.85,3.13,4.82,7.33,1029,56,2.06,110,0,0.0,Clear,clear sky,2
Mende,47.426944,19.439722,2026-03-09 02:46:46.020740,4.79,3.06,4.79,7.29,1029,56,2.06,110,0,0.0,Clear,clear sky,2
Szőlősnyaraló,47.450278,19.561111,2026-03-09 02:46:47.184145,5.02,3.82,5.02,5.02,1029,74,1.62,119,72,0.0,Clouds,broken clouds,2
Sülysáp,47.451944,19.5275,2026-03-09 02:46:48.345670,5.0,3.78,5.0,5.0,1029,73,1.63,117,74,0.0,Clouds,broken clouds,2
Tápiószecső,47.443056,19.614722,2026-03-09 02:46:49.515605,5.1,3.93,5.1,5.1,1030,74,1.6,121,71,0.0,Clouds,broken clouds,2
Szentmártonkáta,47.431944,19.680556,2026-03-09 02:46:50.677962,1.28,-0.41,1.28,1.28,1030,75,1.58,124,69,0.0,Clouds,broken clouds,2
Nagykáta,47.409722,19.737778,2026-03-09 02:46:51.836872,1.18,-0.45,1.18,1.18,1030,75,1.53,136,68,0.0,Clouds,broken clouds,2
Farmos,47.355278,19.8375,2026-03-09 02:46:52.995914,0.8,-1.14,0.8,0.8,1029,74,1.7,165,62,0.0,Clouds,broken clouds,2
Tápiószele,47.346313,19.873504,2026-03-09 02:46:54.163314,0.64,-1.56,0.64,0.64,1029,74,1.88,175,59,0.0,Clouds,broken clouds,2
Tápiógyörgye,47.325,19.95,2026-03-09 02:46:55.327685,1.09,-1.19,1.09,1.09,1030,73,2.0,180,47,0.0,Clouds,scattered clouds,2
Újszász,47.285833,20.066944,2026-03-09 02:46:56.494292,2.01,-0.58,2.01,2.01,1030,72,2.44,193,27,0.0,Clouds,scattered clouds,2
Szurdokpüspöki,47.851944,19.690278,2026-03-09 02:46:57.655385,2.05,-0.26,2.05,2.05,1030,70,2.17,105,88,0.0,Clouds,overcast clouds,2
Lőrinci,47.739444,19.673611,2026-03-09 02:46:58.818417,1.92,-0.9,1.92,1.92,1030,71,2.66,96,86,0.0,Clouds,overcast clouds,2
Selyp,47.759167,19.670833,2026-03-09 02:46:59.980677,1.95,-0.83,1.95,1.95,1030,70,2.62,97,87,0.0,Clouds,overcast clouds,2
Apc-Zagyvaszántó,47.791328,19.66822,2026-03-09 02:47:01.139861,2.0,-0.7,2.0,2.0,1030,70,2.55,99,88,0.0,Clouds,overcast clouds,2
Pásztó,47.918889,19.688889,2026-03-09 02:47:02.297402,1.98,0.03,1.98,1.98,1030,70,1.85,108,87,0.0,Clouds,overcast clouds,2
Mátraszőlős-Hasznos,47.938506,19.706122,2026-03-09 02:47:03.463412,2.03,0.29,2.03,2.03,1030,70,1.69,108,82,0.0,Clouds,broken clouds,2
Tar,47.956111,19.746389,2026-03-09 02:47:04.623667,1.66,0.11,1.66,1.66,1030,69,1.52,109,72,0.0,Clouds,broken clouds,2
Mátraverebély,47.968333,19.778611,2026-03-09 02:47:05.783066,1.66,0.11,1.66,1.66,1030,69,1.52,109,72,0.0,Clouds,broken clouds,2
Nagybátony,47.981111,19.82,2026-03-09 02:47:06.943607,1.87,0.59,1.87,1.87,1030,69,1.36,112,67,0.0,Clouds,broken clouds,2
Kisterenye,48.009444,19.831944,2026-03-09 02:47:08.104118,1.99,1.99,1.99,1.99,1030,68,1.23,116,62,0.0,Clouds,broken clouds,2
Kisterenye-Bányatelep,48.021389,19.831944,2026-03-09 02:47:09.263786,1.99,1.99,1.99,1.99,1030,68,1.23,116,62,0.0,Clouds,broken clouds,2
Salgótarján külső,48.089444,19.790833,2026-03-09 02:47:10.432342,1.51,1.51,1.51,1.51,1030,68,1.11,106,68,0.0,Clouds,broken clouds,2
Balatonfenyves GV,46.7125,17.479167,2026-03-09 02:47:11.605212,8.08,6.53,8.08,8.08,1028,69,2.52,71,100,0.0,Clouds,overcast clouds,2
Várhegyalja,47.737778,18.366667,2026-03-09 02:47:12.768715,2.59,-0.14,2.59,2.59,1029,71,2.7,123,100,0.0,Clouds,overcast clouds,2
Imremajor,46.680556,17.499722,2026-03-09 02:47:13.927516,8.11,6.62,8.11,8.11,1028,69,2.45,74,100,0.0,Clouds,overcast clouds,2
Rákospalota-Kertváros,47.578333,19.122778,2026-03-09 02:47:15.088609,6.92,5.55,5.22,8.19,1029,55,2.06,110,0,0.0,Clear,clear sky,2
Vicziántelep,47.675833,19.286111,2026-03-09 02:47:16.249716,5.65,4.21,4.69,7.19,1029,71,1.92,109,97,0.0,Clouds,overcast clouds,2
Pálmajor,46.662831,17.457526,2026-03-09 02:47:17.416064,8.1,6.7,8.1,8.1,1028,69,2.33,77,100,0.0,Clouds,overcast clouds,2
Somogyszentpál felső,46.649758,17.471404,2026-03-09 02:47:18.579356,8.07,6.64,8.07,8.07,1028,69,2.37,78,100,0.0,Clouds,overcast clouds,2
Somogyszentpál,46.638611,17.478611,2026-03-09 02:47:19.745804,8.06,6.69,8.06,8.06,1028,69,2.29,82,99,0.0,Clouds,overcast clouds,2
Rudnaykert,47.7175,19.257778,2026-03-09 02:47:20.908549,7.53,6.38,7.53,7.53,1029,71,1.93,114,99,0.0,Clouds,overcast clouds,2
Maroshegy,47.158333,18.406667,2026-03-09 02:47:22.071133,2.33,0.0,2.33,2.33,1029,69,2.24,98,100,0.0,Clouds,overcast clouds,2
Bánhida,47.573703,18.371737,2026-03-09 02:47:23.250325,2.15,-0.82,2.15,2.15,1029,73,2.88,118,100,0.0,Clouds,overcast clouds,2
Magyarkút,47.850278,19.045,2026-03-09 02:47:24.419489,1.43,-0.85,1.43,1.43,1029,72,2.05,120,100,0.0,Clouds,overcast clouds,2
Becske alsó,47.897222,19.364722,2026-03-09 02:47:25.579416,1.11,-0.5,1.11,1.11,1029,71,1.51,135,100,0.0,Clouds,overcast clouds,2
Hosszúberek-Péteri,47.370556,19.389722,2026-03-09 02:47:26.739899,5.11,3.44,5.1,7.6,1029,56,2.06,110,0,0.0,Clear,clear sky,2
Monorierdő,47.308889,19.499167,2026-03-09 02:47:27.911216,5.01,3.29,5.01,5.01,1029,70,2.09,148,72,0.0,Clouds,broken clouds,2
Ceglédbercel,47.215833,19.658611,2026-03-09 02:47:29.076824,1.37,-1.27,1.37,1.37,1029,69,2.37,175,69,0.0,Clouds,broken clouds,2
Budai út,47.208333,19.731389,2026-03-09 02:47:30.240565,1.21,-1.45,1.21,1.21,1029,70,2.36,181,68,0.0,Clouds,broken clouds,2
Büdöskútpuszta,48.373056,20.726111,2026-03-09 02:47:31.402641,2.91,1.25,2.91,2.91,1030,61,1.73,31,0,0.0,Clear,clear sky,2
Bánrévei Vízmű,48.282778,20.368333,2026-03-09 02:47:32.561382,9.46,9.21,9.46,9.46,1030,61,1.34,70,5,0.0,Clear,clear sky,2
Rákoskert,47.456389,19.296111,2026-03-09 02:47:33.724410,7.14,6.25,6.17,7.39,1029,53,1.62,106,91,0.0,Clouds,overcast clouds,2
Szirmabesenyő,48.146944,20.783056,2026-03-09 02:47:34.891868,8.94,8.94,8.89,9.61,1030,69,0.96,54,0,0.0,Clear,clear sky,2
Kitérőgyár,47.766944,19.935278,2026-03-09 02:47:36.057184,1.92,-0.69,1.92,1.92,1030,69,2.44,82,44,0.0,Clouds,scattered clouds,2
Tápiószentmárton,47.373333,19.797778,2026-03-09 02:47:37.222407,0.75,-1.15,0.75,0.75,1029,74,1.67,163,65,0.0,Clouds,broken clouds,2
Zagyvarékas,47.244229,20.097435,2026-03-09 02:47:38.400101,2.01,0.48,2.01,2.01,1030,80,1.54,230,0,0.0,Clear,clear sky,2
Abonyi út,47.206401,20.125204,2026-03-09 02:47:39.562563,2.01,0.48,2.01,2.01,1030,80,1.54,230,0,0.0,Clear,clear sky,2
Jászkisér felső,47.438056,20.202222,2026-03-09 02:47:40.725534,1.81,0.12,1.81,1.81,1030,73,1.63,165,15,0.0,Clouds,few clouds,2
Szellőhát,47.425556,20.188889,2026-03-09 02:47:41.886879,1.77,-0.12,1.77,1.77,1030,73,1.78,174,15,0.0,Clouds,few clouds,2
Szilvásvárad-Szalajkavölgy,48.0956,20.38272,2026-03-09 02:47:43.051661,8.02,8.02,7.5,8.02,1029,45,1.23,124,14,0.0,Clouds,few clouds,2
Vásárosnamény külső,48.084444,22.255556,2026-03-09 02:47:44.213038,2.56,-1.7,2.56,2.56,1031,63,4.98,125,0,0.0,Clear,clear sky,2
Újváros,46.660556,20.536111,2026-03-09 02:47:45.372919,8.88,7.52,8.88,8.88,1029,47,2.47,170,1,0.0,Clear,clear sky,2
Városi park,46.697778,19.864722,2026-03-09 02:47:46.537561,6.38,4.22,6.03,6.66,1029,63,2.92,163,29,0.0,Clouds,scattered clouds,2
Belsőkamaráspuszta,46.341944,20.848889,2026-03-09 02:47:47.698512,7.81,6.27,7.81,7.81,1030,81,2.45,163,9,0.0,Clear,clear sky,2
Sajószöged,47.945278,20.981667,2026-03-09 02:47:48.865649,9.08,8.1,9.08,9.28,1030,68,2.03,82,6,0.0,Clear,clear sky,2
Kazincbarcika alsó,48.255278,20.649167,2026-03-09 02:47:50.030875,8.91,8.91,8.85,9.57,1030,61,1.12,63,1,0.0,Clear,clear sky,2
Nyárjas,46.857778,19.923611,2026-03-09 02:47:51.193310,6.34,4.55,5.98,6.62,1029,63,2.42,172,34,0.0,Clouds,scattered clouds,2
Pogonyipuszta,48.296389,20.381667,2026-03-09 02:47:52.355602,9.42,9.17,9.42,9.42,1030,61,1.34,70,5,0.0,Clear,clear sky,2
Sióvölgy,46.911103,18.076964,2026-03-09 02:47:53.518719,8.3,7.02,8.3,8.3,1028,41,2.23,75,100,0.0,Clouds,overcast clouds,2
Répáspuszta,46.430278,17.847222,2026-03-09 02:47:54.678038,2.51,-0.07,2.51,2.51,1028,69,2.52,106,86,0.0,Clouds,overcast clouds,2
Virányos,48.066667,21.527222,2026-03-09 02:47:55.838699,2.93,0.26,2.93,2.93,1030,70,2.71,64,1,0.0,Clear,clear sky,2
Füzesbokor,47.988611,21.6475,2026-03-09 02:47:57.004359,2.86,0.67,2.86,2.86,1030,68,2.19,104,1,0.0,Clear,clear sky,2
Kunfehértó,46.355833,19.417222,2026-03-09 02:47:58.167484,2.53,-1.58,2.53,2.53,1029,68,4.68,147,34,0.0,Clouds,scattered clouds,2
Erdőszél,46.329444,19.395,2026-03-09 02:47:59.336806,2.46,-1.81,2.46,2.46,1029,68,4.94,145,37,0.0,Clouds,scattered clouds,2
Jánoshalma,46.293056,19.330278,2026-03-09 02:48:00.494045,2.68,-1.66,2.68,2.68,1029,67,5.18,143,40,0.0,Clouds,scattered clouds,2
Mélykút,46.213056,19.370556,2026-03-09 02:48:01.666403,2.84,-1.52,2.84,2.84,1029,66,5.31,141,43,0.0,Clouds,scattered clouds,2
Bácsalmás,46.118056,19.346389,2026-03-09 02:48:02.832984,3.03,-1.42,3.03,3.03,1029,64,5.6,138,40,0.0,Clouds,scattered clouds,2
Almás,46.116216,19.328803,2026-03-09 02:48:03.996066,3.03,-1.42,3.03,3.03,1029,64,5.6,138,40,0.0,Clouds,scattered clouds,2
Bácsbokod-Bácsborsód,46.115833,19.16,2026-03-09 02:48:05.160370,3.07,-1.49,3.07,3.07,1029,64,5.86,135,44,0.0,Clouds,scattered clouds,2
Baja,46.187014,18.957602,2026-03-09 02:48:06.317992,3.13,-1.01,3.13,3.13,1029,65,5.02,136,65,0.0,Clouds,broken clouds,2
Harkakötöny,46.458333,19.601944,2026-03-09 02:48:07.480513,2.49,-1.13,2.49,2.49,1029,69,3.86,153,13,0.0,Clouds,few clouds,2
Tajó,46.473056,19.650556,2026-03-09 02:48:08.652003,2.52,-1.04,2.52,2.52,1029,69,3.78,154,11,0.0,Clouds,few clouds,2
Kiskunmajsa,46.501667,19.728056,2026-03-09 02:48:09.815051,6.05,3.37,6.05,6.61,1029,69,3.61,156,8,0.0,Clear,clear sky,2
Jászszentlászló,46.565833,19.753611,2026-03-09 02:48:10.974796,6.07,3.56,6.07,6.63,1029,63,3.34,158,16,0.0,Clouds,few clouds,2
Galambos,46.625,19.801111,2026-03-09 02:48:12.134233,6.38,4.05,6.02,6.66,1029,63,3.17,159,24,0.0,Clouds,few clouds,2
Pestszentimre,47.402222,19.188611,2026-03-09 02:48:13.294621,6.21,4.72,5.18,8.15,1029,54,2.06,110,0,0.0,Clear,clear sky,2
Gyál felső,47.390278,19.204722,2026-03-09 02:48:14.456222,7.07,5.88,6.47,8.16,1029,53,1.9,113,96,0.0,Clouds,overcast clouds,2
Gyál,47.376667,19.219444,2026-03-09 02:48:15.614021,6.98,5.77,6.5,7.72,1029,53,1.9,113,96,0.0,Clouds,overcast clouds,2
Ócsa,47.301389,19.232222,2026-03-09 02:48:16.780355,6.83,5.14,6.51,7.73,1029,67,2.41,125,96,0.0,Clouds,overcast clouds,2
Inárcs-Kakucs,47.247222,19.317778,2026-03-09 02:48:17.940627,5.23,3.07,5.23,5.23,1029,68,2.62,137,89,0.0,Clouds,overcast clouds,2
Dabas,47.194722,19.328889,2026-03-09 02:48:19.102299,5.24,2.95,5.24,5.24,1029,68,2.79,143,84,0.0,Clouds,broken clouds,2
Gyón,47.178333,19.355556,2026-03-09 02:48:20.262674,5.21,2.85,5.21,5.21,1029,67,2.87,145,83,0.0,Clouds,broken clouds,2
Hernád,47.161389,19.4025,2026-03-09 02:48:21.425430,1.75,-1.21,1.75,1.75,1029,67,2.78,154,74,0.0,Clouds,broken clouds,2
Bakonygyirót,47.416389,17.811944,2026-03-09 02:48:22.589666,0.59,-3.26,0.59,6.71,1028,73,3.58,127,100,0.0,Clouds,overcast clouds,2
Vinye,47.360317,17.819635,2026-03-09 02:48:23.750776,6.03,3.5,-0.09,6.03,1028,73,3.37,131,100,0.0,Clouds,overcast clouds,2
Nemesgörzsöny,47.402924,17.376385,2026-03-09 02:48:24.912283,7.16,5.04,7.16,7.16,1028,57,3.09,130,0,0.0,Clear,clear sky,2
Rábahíd,47.438618,17.337525,2026-03-09 02:48:26.071482,7.15,5.03,7.15,7.15,1028,57,3.09,130,0,0.0,Clear,clear sky,2
Öskü,47.162222,18.076389,2026-03-09 02:48:27.232710,2.29,0.15,2.29,2.29,1029,69,2.05,85,100,0.0,Clouds,overcast clouds,2
Márkó,47.1275,17.813889,2026-03-09 02:48:28.396976,7.08,5.5,7.08,7.08,1028,70,2.33,91,100,0.0,Clouds,overcast clouds,2
Nemeskocs,47.203333,17.188889,2026-03-09 02:48:29.557690,7.11,4.98,7.11,7.11,1027,68,3.09,149,100,0.0,Clouds,overcast clouds,2
Zalagyömörő,47.011111,17.220833,2026-03-09 02:48:30.727127,2.97,0.11,2.97,2.97,1027,68,2.95,133,100,0.0,Clouds,overcast clouds,2
Rigács,47.061667,17.199167,2026-03-09 02:48:31.889243,2.96,0.04,2.96,2.96,1027,68,3.02,136,100,0.0,Clouds,overcast clouds,2
Kemenespálfa,47.139722,17.183056,2026-03-09 02:48:33.048678,3.15,0.21,3.15,3.15,1027,68,3.09,144,99,0.0,Clouds,overcast clouds,2
Lentiszombathely,46.611389,16.5725,2026-03-09 02:48:34.213984,2.81,1.37,2.81,2.81,1027,78,1.56,109,100,0.0,Clouds,overcast clouds,2
Ortaháza,46.626667,16.685833,2026-03-09 02:48:35.378604,2.59,0.95,2.59,2.59,1027,76,1.68,104,100,0.0,Clouds,overcast clouds,2
Rádiháza,46.654722,16.765833,2026-03-09 02:48:36.542610,2.5,0.67,2.5,2.5,1027,76,1.82,104,100,0.0,Clouds,overcast clouds,2
Baktüttös,46.690833,16.826389,2026-03-09 02:48:37.709388,7.6,6.28,7.6,7.6,1027,74,2.13,106,100,0.0,Clouds,overcast clouds,2
Budafa,46.851667,16.624722,2026-03-09 02:48:38.875361,2.84,0.89,2.84,2.84,1027,78,1.97,134,100,0.0,Clouds,overcast clouds,2
Zalapatakalja,46.845556,16.603889,2026-03-09 02:48:40.038834,2.85,1.05,2.85,2.85,1027,79,1.84,135,100,0.0,Clouds,overcast clouds,2
Tormásliget,47.430556,16.781667,2026-03-09 02:48:41.195458,3.77,1.34,3.77,3.77,1027,74,2.62,172,100,0.0,Clouds,overcast clouds,2
Belecska,46.64,18.411389,2026-03-09 02:48:42.354105,2.76,0.12,2.76,2.76,1028,69,2.64,119,82,0.0,Clouds,broken clouds,2
Almár,47.956111,20.356944,2026-03-09 02:48:43.516770,9.23,8.78,8.71,9.23,1030,45,1.49,107,18,0.0,Clouds,few clouds,2
Vasútmúzeum,47.543889,19.099444,2026-03-09 02:48:44.683036,7.09,5.75,5.23,8.2,1029,55,2.06,110,0,0.0,Clear,clear sky,2
Abda,47.690833,17.540556,2026-03-09 02:48:45.855018,1.09,-2.79,1.09,1.09,1028,71,3.77,118,32,0.0,Clouds,scattered clouds,2
Vadaspark,47.526111,18.949167,2026-03-09 02:48:47.018670,5.11,5.11,3.42,6.39,1029,56,0.89,139,100,0.0,Clouds,overcast clouds,2
Barosstelep,47.398889,18.989167,2026-03-09 02:48:48.186818,7.06,7.06,5.29,8.25,1029,54,0.45,56,100,0.0,Clouds,overcast clouds,2
Fegyvernek-Örményes,47.194444,20.5575,2026-03-09 02:48:49.351456,2.02,-1.02,2.02,2.02,1030,70,2.94,214,5,0.0,Clear,clear sky,2
Zagyvapálfalva,48.068889,19.785,2026-03-09 02:48:50.514527,1.67,1.67,1.67,1.67,1030,69,1.14,111,68,0.0,Clouds,broken clouds,2
Salgótarján,48.105556,19.807222,2026-03-09 02:48:51.677609,1.04,1.04,1.04,1.04,1030,69,1.11,98,69,0.0,Clouds,broken clouds,2
Szabadisóstó,46.933889,18.118056,2026-03-09 02:48:52.840816,8.28,6.96,8.28,8.28,1028,41,2.27,80,100,0.0,Clouds,overcast clouds,2
Siófok,46.907778,18.053889,2026-03-09 02:48:54.006733,8.28,6.99,8.28,8.28,1028,41,2.23,75,100,0.0,Clouds,overcast clouds,2
Balatonszéplak felső,46.898056,18.018056,2026-03-09 02:48:55.172147,8.28,7.08,8.28,8.28,1028,41,2.13,77,100,0.0,Clouds,overcast clouds,2
Balatonszéplak alsó,46.891944,17.993333,2026-03-09 02:48:56.329246,8.28,6.11,8.28,8.28,1028,41,3.58,45,100,0.0,Clouds,overcast clouds,2
Zamárdi felső,46.886111,17.969444,2026-03-09 02:48:57.494033,8.29,6.12,8.29,8.29,1028,41,3.58,45,100,0.0,Clouds,overcast clouds,2
Zamárdi,46.88,17.944722,2026-03-09 02:48:58.659998,8.23,6.05,8.23,8.23,1028,41,3.58,45,100,0.0,Clouds,overcast clouds,2
Szántód,46.861944,17.899167,2026-03-09 02:48:59.819131,8.3,6.13,8.3,8.3,1028,41,3.58,45,99,0.0,Clouds,overcast clouds,2
Szőny-Déli,47.735278,18.141944,2026-03-09 02:49:00.983917,1.12,-2.39,1.12,1.12,1028,70,3.29,124,100,0.0,Clouds,overcast clouds,2
Várpalota,47.194444,18.149167,2026-03-09 02:49:02.155912,1.98,-0.15,1.98,1.98,1029,70,2.0,95,100,0.0,Clouds,overcast clouds,2
Pétfürdő,47.1675,18.121389,2026-03-09 02:49:03.322134,2.43,0.36,2.43,2.43,1029,70,2.01,91,100,0.0,Clouds,overcast clouds,2
Hajmáskér,47.141111,18.009444,2026-03-09 02:49:04.484223,7.88,6.68,7.88,7.88,1029,69,2.05,86,100,0.0,Clouds,overcast clouds,2
Veszprém,47.118889,17.91,2026-03-09 02:49:05.651084,7.67,6.3,7.67,7.67,1029,70,2.2,81,100,0.0,Clouds,overcast clouds,2
Herend,47.136944,17.760278,2026-03-09 02:49:06.812639,6.86,5.17,6.86,6.86,1028,70,2.42,95,100,0.0,Clouds,overcast clouds,2
Városlőd,47.144167,17.652778,2026-03-09 02:49:07.970702,5.98,3.59,5.98,5.98,1028,68,3.13,117,99,0.0,Clouds,overcast clouds,2
Városlőd-Kislőd,47.133889,17.631111,2026-03-09 02:49:09.147780,6.09,3.83,6.09,6.09,1028,68,2.98,113,100,0.0,Clouds,overcast clouds,2
Ajka,47.105902,17.572938,2026-03-09 02:49:10.308452,6.39,3.99,6.39,6.39,1028,67,3.28,120,100,0.0,Clouds,overcast clouds,2
Ajka-Gyártelep,47.096806,17.555219,2026-03-09 02:49:11.468556,6.44,4.05,6.44,6.44,1028,67,3.28,120,100,0.0,Clouds,overcast clouds,2
Devecser,47.1125,17.435278,2026-03-09 02:49:12.629818,6.84,4.37,6.84,6.84,1028,67,3.55,128,100,0.0,Clouds,overcast clouds,2
Somlóvásárhely,47.124444,17.369167,2026-03-09 02:49:13.789682,6.95,4.44,6.95,6.95,1028,67,3.66,136,100,0.0,Clouds,overcast clouds,2
Tüskevár,47.128611,17.331389,2026-03-09 02:49:14.953854,6.99,4.53,6.99,6.99,1028,67,3.59,138,99,0.0,Clouds,overcast clouds,2
Karakószörcsök,47.133611,17.287778,2026-03-09 02:49:16.116121,3.01,-0.25,3.01,3.01,1027,67,3.49,139,99,0.0,Clouds,overcast clouds,2
Kerta,47.151944,17.237222,2026-03-09 02:49:17.276890,3.18,0.16,3.18,3.18,1027,68,3.21,145,99,0.0,Clouds,overcast clouds,2
Boba,47.183333,17.191389,2026-03-09 02:49:18.436527,3.21,0.28,3.21,3.21,1027,68,3.1,148,99,0.0,Clouds,overcast clouds,2
Börgönd,47.140278,18.515,2026-03-09 02:49:19.597612,2.19,-0.34,2.19,2.19,1029,67,2.41,111,100,0.0,Clouds,overcast clouds,2
Belsőbáránd,47.102778,18.499722,2026-03-09 02:49:20.761996,2.19,-0.4,2.19,2.19,1029,67,2.47,113,100,0.0,Clouds,overcast clouds,2
Zichyújfalu,47.124444,18.6725,2026-03-09 02:49:21.926327,2.07,-0.66,2.07,2.07,1029,67,2.59,123,100,0.0,Clouds,overcast clouds,2
Seregélyes,47.121111,18.580556,2026-03-09 02:49:23.087979,2.31,-0.23,2.31,2.31,1029,67,2.44,114,100,0.0,Clouds,overcast clouds,2
Polgárdi-Ipartelepek,47.079167,18.314444,2026-03-09 02:49:24.254320,2.11,-0.42,2.11,2.11,1029,67,2.39,98,100,0.0,Clouds,overcast clouds,2
Polgárdi,47.07,18.284167,2026-03-09 02:49:25.424931,2.11,-0.42,2.11,2.11,1029,67,2.39,98,100,0.0,Clouds,overcast clouds,2
Füle,47.05,18.255278,2026-03-09 02:49:26.594778,2.12,-0.42,2.12,2.12,1029,66,2.41,96,100,0.0,Clouds,overcast clouds,2
Zánka-Erzsébettábor,46.8775,17.709167,2026-03-09 02:49:27.754568,8.23,6.61,8.23,8.23,1028,41,2.66,67,99,0.0,Clouds,overcast clouds,2
Csajág,47.033889,18.186389,2026-03-09 02:49:28.918221,8.12,6.68,8.12,8.12,1029,66,2.39,83,100,0.0,Clouds,overcast clouds,2
Balatonakarattya,47.017222,18.167778,2026-03-09 02:49:30.080610,7.97,6.5,7.97,7.97,1029,66,2.39,83,100,0.0,Clouds,overcast clouds,2
Csittényhegy,47.025278,18.1375,2026-03-09 02:49:31.240959,8.19,6.75,8.19,8.19,1029,67,2.41,78,100,0.0,Clouds,overcast clouds,2
Balatonkenese,47.0325,18.105556,2026-03-09 02:49:32.404657,8.27,6.82,8.27,8.27,1028,67,2.44,72,100,0.0,Clouds,overcast clouds,2
Balatonfűzfő,47.060278,18.0425,2026-03-09 02:49:33.564369,8.3,6.78,8.3,8.3,1029,41,2.54,63,100,0.0,Clouds,overcast clouds,2
Balatonalmádi,47.028333,18.015,2026-03-09 02:49:34.729512,8.27,6.7,8.27,8.27,1028,41,2.6,62,100,0.0,Clouds,overcast clouds,2
Káptalanfüred,47.008889,18.003889,2026-03-09 02:49:35.895714,8.3,6.69,8.3,8.3,1028,41,2.67,60,100,0.0,Clouds,overcast clouds,2
Alsóörs,46.985278,17.974722,2026-03-09 02:49:37.060683,8.31,6.14,8.31,8.31,1028,41,3.58,45,100,0.0,Clouds,overcast clouds,2
Csopak,46.974722,17.931111,2026-03-09 02:49:38.228439,8.18,5.98,8.18,8.18,1028,41,3.58,45,100,0.0,Clouds,overcast clouds,2
Balatonarács,46.9625,17.8975,2026-03-09 02:49:39.387721,8.08,5.86,8.08,8.08,1028,41,3.58,45,100,0.0,Clouds,overcast clouds,2
Balatonfüred,46.955833,17.883056,2026-03-09 02:49:40.550811,8.15,5.95,8.15,8.15,1028,41,3.58,45,100,0.0,Clouds,overcast clouds,2
Aszófő,46.925556,17.8325,2026-03-09 02:49:41.719340,8.25,6.07,8.25,8.25,1028,41,3.58,45,99,0.0,Clouds,overcast clouds,2
Örvényes,46.9125,17.818056,2026-03-09 02:49:42.887612,8.27,6.09,8.27,8.27,1028,41,3.58,45,99,0.0,Clouds,overcast clouds,2
Balatonudvari,46.904722,17.808056,2026-03-09 02:49:44.050586,8.3,6.13,8.3,8.3,1028,41,3.58,45,99,0.0,Clouds,overcast clouds,2
Fövenyes,46.893611,17.789444,2026-03-09 02:49:45.218751,8.32,6.16,8.32,8.32,1028,41,3.58,45,99,0.0,Clouds,overcast clouds,2
Balatonakali-Dörgicse,46.88,17.747778,2026-03-09 02:49:46.378719,8.31,6.7,8.31,8.31,1028,41,2.67,65,99,0.0,Clouds,overcast clouds,2
Zánka-Köveskál,46.872778,17.687778,2026-03-09 02:49:47.542725,8.3,6.68,8.3,8.3,1028,41,2.68,68,99,0.0,Clouds,overcast clouds,2
Balatonszepezd,46.851111,17.663056,2026-03-09 02:49:48.710456,8.3,6.7,8.3,8.3,1028,41,2.66,68,99,0.0,Clouds,overcast clouds,2
Szepezdfürdő,46.839722,17.649444,2026-03-09 02:49:49.878665,8.27,6.64,8.27,8.27,1028,67,2.69,69,99,0.0,Clouds,overcast clouds,2
Révfülöp,46.829167,17.632222,2026-03-09 02:49:51.041640,8.28,6.65,8.28,8.28,1028,67,2.69,69,99,0.0,Clouds,overcast clouds,2
Balatonrendes,46.824722,17.582778,2026-03-09 02:49:52.207912,8.28,6.66,8.28,8.28,1028,68,2.68,70,100,0.0,Clouds,overcast clouds,2
Ábrahámhegy,46.815,17.572222,2026-03-09 02:49:53.370008,8.25,6.62,8.25,8.25,1028,68,2.68,70,100,0.0,Clouds,overcast clouds,2
Badacsonyörs,46.805556,17.531667,2026-03-09 02:49:54.534613,2.79,0.15,2.79,2.79,1028,68,2.65,71,100,0.0,Clouds,overcast clouds,2
Kisújszállás,47.223889,20.751111,2026-03-09 02:49:55.716445,2.21,-0.93,2.21,2.21,1030,69,3.11,221,4,0.0,Clear,clear sky,2
Karcag,47.303333,20.928056,2026-03-09 02:49:56.878063,2.32,-0.84,2.32,2.32,1030,68,3.16,222,5,0.0,Clear,clear sky,2
Püspökladány,47.3275,21.128889,2026-03-09 02:49:58.036617,2.59,-0.3,2.59,2.59,1030,66,2.89,217,7,0.0,Clear,clear sky,2
Kaba,47.368889,21.259444,2026-03-09 02:49:59.207038,4.1,1.76,4.1,4.1,1030,66,2.59,203,9,0.0,Clear,clear sky,2
Hajdúszoboszló,47.429444,21.406944,2026-03-09 02:50:00.368583,4.09,2.24,4.09,4.09,1030,65,2.06,130,0,0.0,Clear,clear sky,2
Ebes,47.462778,21.488889,2026-03-09 02:50:01.551011,4.04,2.19,4.04,4.04,1030,65,2.06,130,0,0.0,Clear,clear sky,2
Debrecen,47.520278,21.628611,2026-03-09 02:50:02.709027,3.92,2.05,3.92,3.92,1030,65,2.06,130,0,0.0,Clear,clear sky,2
Debrecen-Csapókert,47.540556,21.648056,2026-03-09 02:50:03.867351,3.87,1.99,3.87,3.87,1030,65,2.06,130,0,0.0,Clear,clear sky,2
Apafa,47.584045,21.655858,2026-03-09 02:50:05.025327,3.83,1.94,3.83,3.83,1030,65,2.06,130,0,0.0,Clear,clear sky,2
Bocskaikert,47.6425,21.666389,2026-03-09 02:50:06.185952,3.76,1.86,3.76,3.76,1030,65,2.06,130,0,0.0,Clear,clear sky,2
Hajdúhadház,47.686944,21.679167,2026-03-09 02:50:07.359505,3.73,1.27,3.73,3.73,1030,63,2.64,155,5,0.0,Clear,clear sky,2
Téglás,47.714722,21.684722,2026-03-09 02:50:08.518077,3.8,1.28,3.8,3.8,1030,63,2.73,153,5,0.0,Clear,clear sky,2
Újfehértó,47.814444,21.706389,2026-03-09 02:50:09.683698,2.63,-0.23,2.63,2.63,1030,64,2.86,145,3,0.0,Clear,clear sky,2
Nyíregyháza,47.946667,21.705556,2026-03-09 02:50:10.843141,2.73,0.23,2.73,2.73,1030,66,2.48,125,1,0.0,Clear,clear sky,2
Sóstó,47.998051,21.729047,2026-03-09 02:50:12.008104,2.71,0.1,2.71,2.71,1030,67,2.59,120,1,0.0,Clear,clear sky,2
Sóstóhegy,48.012222,21.742778,2026-03-09 02:50:13.179220,2.8,0.31,2.8,2.8,1030,67,2.48,114,1,0.0,Clear,clear sky,2
Kemecse,48.065556,21.801667,2026-03-09 02:50:14.346384,2.79,0.17,2.79,2.79,1030,67,2.62,109,0,0.0,Clear,clear sky,2
Nyírbogdány,48.082222,21.855278,2026-03-09 02:50:15.513039,2.76,0.03,2.76,2.76,1031,67,2.74,107,0,0.0,Clear,clear sky,2
Kék,48.093333,21.883889,2026-03-09 02:50:16.677223,2.78,-0.35,2.78,2.78,1031,66,3.25,115,0,0.0,Clear,clear sky,2
Demecser,48.111667,21.926667,2026-03-09 02:50:17.838537,2.79,-0.44,2.79,2.79,1031,66,3.38,114,0,0.0,Clear,clear sky,2
Gégény,48.128333,21.951944,2026-03-09 02:50:19.007810,2.75,-0.58,2.75,2.75,1031,66,3.51,113,0,0.0,Clear,clear sky,2
Pátroha,48.158611,21.996667,2026-03-09 02:50:20.170039,2.75,-0.66,2.75,2.75,1031,66,3.63,113,0,0.0,Clear,clear sky,2
Ajak,48.1865,22.048972,2026-03-09 02:50:21.334995,2.73,-0.76,2.73,2.73,1031,67,3.74,113,0,0.0,Clear,clear sky,2
Kisvárda,48.208333,22.078333,2026-03-09 02:50:22.498529,2.73,-0.99,2.73,2.73,1031,66,4.09,116,0,0.0,Clear,clear sky,2
Kisvárda-Hármasút,48.228333,22.091944,2026-03-09 02:50:23.659715,2.73,-0.99,2.73,2.73,1031,66,4.09,116,0,0.0,Clear,clear sky,2
Fényeslitke,48.267222,22.107222,2026-03-09 02:50:24.818721,2.65,-1.02,2.65,2.65,1031,67,3.98,115,0,0.0,Clear,clear sky,2
Komoró,48.305278,22.118056,2026-03-09 02:50:25.977805,2.66,-0.89,2.66,2.66,1031,68,3.81,114,0,0.0,Clear,clear sky,2
Tuzsér,48.342222,22.131667,2026-03-09 02:50:27.137803,2.57,-0.74,2.57,2.57,1031,69,3.43,110,0,0.0,Clear,clear sky,2
Tiszabezdéd,48.371389,22.145,2026-03-09 02:50:28.302229,2.56,-0.73,2.56,2.56,1031,69,3.4,110,0,0.0,Clear,clear sky,2
Záhony,48.402222,22.183611,2026-03-09 02:50:29.468564,2.52,-0.71,2.52,2.52,1031,69,3.31,108,0,0.0,Clear,clear sky,2
Karcag-Vásártér,47.3225,20.9075,2026-03-09 02:50:30.629751,2.32,-0.84,2.32,2.32,1030,68,3.16,222,5,0.0,Clear,clear sky,2
Berekfürdő,47.374722,20.827222,2026-03-09 02:50:31.794149,2.15,-1.03,2.15,2.15,1030,68,3.14,217,4,0.0,Clear,clear sky,2
Kunmadaras,47.415278,20.793056,2026-03-09 02:50:32.957389,2.03,-1.03,2.03,2.03,1030,69,2.96,214,5,0.0,Clear,clear sky,2
Tiszaszentimre,47.490833,20.733056,2026-03-09 02:50:34.118377,1.88,-0.56,1.88,1.88,1030,70,2.27,205,5,0.0,Clear,clear sky,2
Tiszaszőlős,47.555556,20.728056,2026-03-09 02:50:35.287764,1.99,0.38,1.99,1.99,1030,70,1.59,196,5,0.0,Clear,clear sky,2
Hosszúhát,47.235556,21.101944,2026-03-09 02:50:36.450255,2.63,-0.33,2.63,2.63,1030,67,2.99,227,7,0.0,Clear,clear sky,2
Szerep,47.234444,21.145833,2026-03-09 02:50:37.611517,2.69,-0.21,2.69,2.69,1030,66,2.93,226,7,0.0,Clear,clear sky,2
Sárrétudvari,47.231667,21.180833,2026-03-09 02:50:38.772217,2.71,-0.14,2.71,2.71,1030,66,2.87,225,8,0.0,Clear,clear sky,2
Biharnagybajom,47.208889,21.221944,2026-03-09 02:50:39.939776,2.76,0.01,2.76,2.76,1030,66,2.76,226,8,0.0,Clear,clear sky,2
Füzesgyarmat,47.113056,21.194444,2026-03-09 02:50:41.103635,2.79,-0.13,2.79,2.79,1030,68,2.98,234,6,0.0,Clear,clear sky,2
Füzesgyarmatfürdő,47.093787,21.201582,2026-03-09 02:50:42.271768,2.79,-0.13,2.79,2.79,1030,68,2.98,234,6,0.0,Clear,clear sky,2
Báránd,47.299722,21.235278,2026-03-09 02:50:43.437038,2.72,0.04,2.72,2.72,1030,65,2.68,213,9,0.0,Clear,clear sky,2
Sáp,47.259722,21.360556,2026-03-09 02:50:44.596531,2.82,0.3,2.82,2.82,1030,65,2.52,214,9,0.0,Clear,clear sky,2
Berettyóújfalu,47.211944,21.535556,2026-03-09 02:50:45.764077,2.96,0.71,2.96,2.96,1030,66,2.27,206,9,0.0,Clear,clear sky,2
Mezőpeterd,47.176111,21.625278,2026-03-09 02:50:46.922526,7.5,5.94,7.28,7.5,1030,67,2.4,198,10,0.0,Clear,clear sky,2
Biharkeresztes,47.135556,21.721389,2026-03-09 02:50:48.080414,7.47,5.77,7.25,7.47,1030,57,2.57,140,0,0.0,Clear,clear sky,2
Tócóvölgy,47.529444,21.588889,2026-03-09 02:50:49.242069,3.97,2.1,3.97,3.97,1030,65,2.06,130,0,0.0,Clear,clear sky,2
Sáregres,46.7825,18.588889,2026-03-09 02:50:50.404023,2.59,-0.58,2.59,2.59,1029,67,3.24,135,88,0.0,Clouds,overcast clouds,2
Simontornya,46.756582,18.540674,2026-03-09 02:50:51.562871,2.57,-0.45,2.57,2.57,1029,67,3.05,134,82,0.0,Clouds,broken clouds,2
Tolnanémedi,46.727778,18.475833,2026-03-09 02:50:52.722058,2.67,-0.24,2.67,2.67,1029,68,2.94,132,81,0.0,Clouds,broken clouds,2
Pincehely,46.681389,18.43,2026-03-09 02:50:53.893358,2.61,-0.04,2.61,2.61,1028,68,2.62,125,85,0.0,Clouds,overcast clouds,2
Keszőhidegkút-Gyönk,46.597778,18.426111,2026-03-09 02:50:55.053914,2.69,0.02,2.69,2.69,1028,69,2.66,116,81,0.0,Clouds,broken clouds,2
Szárazd,46.575556,18.420833,2026-03-09 02:50:56.215638,2.75,0.06,2.75,2.75,1028,69,2.69,114,81,0.0,Clouds,broken clouds,2
Regöly,46.568889,18.396111,2026-03-09 02:50:57.384763,2.75,0.06,2.75,2.75,1028,69,2.69,114,81,0.0,Clouds,broken clouds,2
Szakály-Hőgyész,46.523611,18.389444,2026-03-09 02:50:58.546215,2.7,-0.02,2.7,2.7,1028,70,2.72,111,81,0.0,Clouds,broken clouds,2
Dúzs,46.493889,18.377222,2026-03-09 02:50:59.721214,2.76,0.01,2.76,2.76,1028,70,2.76,111,80,0.0,Clouds,broken clouds,2
Csibrák,46.466667,18.336389,2026-03-09 02:51:00.889085,2.84,0.11,2.84,2.84,1028,70,2.76,111,80,0.0,Clouds,broken clouds,2
Kurd,46.449167,18.319167,2026-03-09 02:51:02.061038,2.53,-0.3,2.53,2.53,1028,70,2.81,114,79,0.0,Clouds,broken clouds,2
Döbrököz,46.418889,18.255,2026-03-09 02:51:03.230636,2.86,0.16,2.86,2.86,1028,69,2.73,114,77,0.0,Clouds,broken clouds,2
Dombóvár,46.37,18.149722,2026-03-09 02:51:04.394196,2.9,0.44,2.9,2.9,1028,69,2.47,116,63,0.0,Clouds,broken clouds,2
Dombóvár alsó,46.363889,18.134167,2026-03-09 02:51:05.554671,2.9,0.44,2.9,2.9,1028,69,2.47,116,63,0.0,Clouds,broken clouds,2
Somoskőújfalu,48.154722,19.815556,2026-03-09 02:51:06.718452,-0.03,-0.03,-0.03,-0.03,1030,68,1.19,81,69,0.0,Clouds,broken clouds,2
Jászfényszaru,47.593056,19.754444,2026-03-09 02:51:07.881306,1.7,-0.93,1.7,1.7,1030,74,2.42,93,70,0.0,Clouds,broken clouds,2
Pusztamonostor,47.564444,19.794167,2026-03-09 02:51:09.042937,1.63,-0.87,1.63,1.63,1030,74,2.28,95,67,0.0,Clouds,broken clouds,2
Jászberény,47.494444,19.893333,2026-03-09 02:51:10.210853,1.46,-0.43,1.46,1.46,1030,75,1.74,113,60,0.0,Clouds,broken clouds,2
Meggyespele,47.441944,19.938889,2026-03-09 02:51:11.371921,1.37,-0.25,1.37,1.37,1030,75,1.54,141,49,0.0,Clouds,scattered clouds,2
Portelek,47.418056,19.958889,2026-03-09 02:51:12.532325,1.28,-0.43,1.28,1.28,1030,75,1.59,153,49,0.0,Clouds,scattered clouds,2
Jászboldogháza-Jánoshida,47.366944,20.001389,2026-03-09 02:51:13.704105,1.21,-0.89,1.21,1.21,1030,74,1.87,175,43,0.0,Clouds,scattered clouds,2
Jászárokszállás,47.635556,19.971111,2026-03-09 02:51:14.864724,1.9,-0.71,1.9,1.9,1030,73,2.44,85,43,0.0,Clouds,scattered clouds,2
Jászdózsa,47.563056,20.028056,2026-03-09 02:51:16.035152,1.84,-0.38,1.84,1.84,1030,74,2.06,94,37,0.0,Clouds,scattered clouds,2
Jászapáti,47.513611,20.155,2026-03-09 02:51:17.211436,1.79,0.23,1.79,1.79,1030,74,1.54,121,19,0.0,Clouds,few clouds,2
Jászkisér,47.456111,20.203333,2026-03-09 02:51:18.380340,1.75,0.21,1.75,1.75,1030,74,1.52,153,15,0.0,Clouds,few clouds,2
Jászladány,47.373333,20.159167,2026-03-09 02:51:19.554026,2.01,-0.22,2.01,2.01,1030,73,2.09,185,19,0.0,Clouds,few clouds,2
Szászberek,47.320556,20.090833,2026-03-09 02:51:20.728567,2.01,-0.5,2.01,2.01,1030,72,2.36,192,23,0.0,Clouds,few clouds,2
Gyöngyöshalász,47.743056,19.932222,2026-03-09 02:51:21.885429,1.99,-0.72,1.99,1.99,1030,70,2.56,80,44,0.0,Clouds,scattered clouds,2
Gyöngyös,47.783056,19.937222,2026-03-09 02:51:23.069992,1.72,-0.91,1.72,1.72,1030,69,2.42,80,37,0.0,Clouds,scattered clouds,2
Erdőtelek,47.683333,20.3025,2026-03-09 02:51:24.226703,2.15,-0.42,2.15,2.15,1030,71,2.44,79,5,0.0,Clear,clear sky,2
Heves,47.609444,20.306111,2026-03-09 02:51:25.391391,2.0,0.19,2.0,2.0,1030,73,1.74,99,3,0.0,Clear,clear sky,2
Hevesvezekény,47.562222,20.365833,2026-03-09 02:51:26.568023,1.96,0.63,1.96,1.96,1030,73,1.4,117,1,0.0,Clear,clear sky,2
Tarnaszentmiklós,47.546944,20.390833,2026-03-09 02:51:27.727904,1.89,1.89,1.89,1.89,1030,73,1.33,134,1,0.0,Clear,clear sky,2
Kisköre,47.495556,20.481667,2026-03-09 02:51:28.891196,1.6,-0.21,1.6,1.6,1030,72,1.7,184,3,0.0,Clear,clear sky,2
Abádszalók,47.455278,20.553056,2026-03-09 02:51:30.065774,1.4,-0.86,1.4,1.4,1030,71,2.03,194,4,0.0,Clear,clear sky,2
Kunhegyes,47.376667,20.641111,2026-03-09 02:51:31.225609,1.74,-1.32,1.74,1.74,1030,70,2.89,210,5,0.0,Clear,clear sky,2
Kenderes,47.254444,20.686111,2026-03-09 02:51:32.388417,2.09,-1.04,2.09,2.09,1030,69,3.06,217,4,0.0,Clear,clear sky,2
Maklár,47.808056,20.404722,2026-03-09 02:51:33.548100,9.57,8.17,9.57,9.57,1030,68,2.72,71,7,0.0,Clear,clear sky,2
Andornaktálya,47.852203,20.402295,2026-03-09 02:51:34.712117,9.51,8.27,9.51,9.51,1030,66,2.46,74,8,0.0,Clear,clear sky,2
Eger,47.891667,20.381667,2026-03-09 02:51:35.874043,9.42,8.42,8.9,9.42,1030,65,2.12,83,13,0.0,Clouds,few clouds,2
Egervár,47.908056,20.380556,2026-03-09 02:51:37.033873,9.24,8.38,8.71,9.24,1030,45,1.92,89,14,0.0,Clouds,few clouds,2
Eger-Felnémet,47.936667,20.370556,2026-03-09 02:51:38.196208,9.29,8.61,8.77,9.29,1030,45,1.73,95,15,0.0,Clouds,few clouds,2
Szarvaskő,47.988611,20.3325,2026-03-09 02:51:39.356941,8.88,8.51,8.36,8.88,1030,45,1.38,116,18,0.0,Clouds,few clouds,2
Mónosbél,48.031944,20.33,2026-03-09 02:51:40.514205,8.7,8.7,8.18,8.7,1029,45,1.26,127,18,0.0,Clouds,few clouds,2
Bélapátfalva,48.055556,20.340556,2026-03-09 02:51:41.681507,8.41,8.41,7.88,8.41,1029,45,1.22,129,18,0.0,Clouds,few clouds,2
Bélapátfalvi Cementgyár,48.058056,20.355,2026-03-09 02:51:42.840529,8.36,8.36,7.84,8.36,1029,45,1.22,129,18,0.0,Clouds,few clouds,2
Szilvásvárad,48.11345,20.37919,2026-03-09 02:51:44.000106,8.23,8.23,7.71,8.23,1029,45,1.19,121,14,0.0,Clouds,few clouds,2
Hejőkeresztúr,47.960278,20.869444,2026-03-09 02:51:45.171498,9.05,8.4,9.05,9.25,1030,51,1.66,70,2,0.0,Clear,clear sky,2
Tiszaújváros,47.926111,21.030556,2026-03-09 02:51:46.334565,9.1,8.06,9.1,9.1,1030,69,2.1,84,7,0.0,Clear,clear sky,2
Miskolc-Gömöri,48.106667,20.800278,2026-03-09 02:51:47.499837,8.99,8.99,8.95,9.66,1030,68,0.99,60,0,0.0,Clear,clear sky,2
Sajókeresztúr,48.168008,20.774014,2026-03-09 02:51:48.656756,8.95,8.95,8.9,9.61,1030,69,0.97,50,0,0.0,Clear,clear sky,2
Sajóecseg,48.186111,20.766667,2026-03-09 02:51:49.828751,8.98,8.98,8.94,9.65,1030,69,1.0,47,0,0.0,Clear,clear sky,2
Sajószentpéter,48.222222,20.708056,2026-03-09 02:51:50.992610,8.89,8.89,8.84,9.55,1030,70,1.07,46,0,0.0,Clear,clear sky,2
Kazincbarcika,48.264444,20.6275,2026-03-09 02:51:52.166120,8.91,8.91,8.84,9.56,1030,61,1.2,66,1,0.0,Clear,clear sky,2
Sajókaza,48.272778,20.581944,2026-03-09 02:51:53.328922,9.42,9.42,8.84,9.55,1030,61,1.23,74,2,0.0,Clear,clear sky,2
Vadna,48.276389,20.555278,2026-03-09 02:51:54.497962,9.47,9.47,8.82,9.53,1030,61,1.23,74,2,0.0,Clear,clear sky,2
Dubicsány,48.280833,20.504722,2026-03-09 02:51:55.661320,9.47,9.47,8.8,9.52,1030,61,1.32,86,3,0.0,Clear,clear sky,2
Raposka,46.851389,17.412778,2026-03-09 02:51:56.823958,8.06,6.55,8.06,8.06,1028,70,2.47,83,100,0.0,Clouds,overcast clouds,2
Ivacs,47.641944,19.273889,2026-03-09 02:51:57.983440,6.01,4.75,4.85,7.35,1029,70,1.8,105,97,0.0,Clouds,overcast clouds,2
Kisköre-Tiszahíd,47.480835,20.507698,2026-03-09 02:51:59.142520,1.56,-0.59,1.56,1.56,1030,71,1.96,191,3,0.0,Clear,clear sky,2
Rozsály,47.912778,22.7825,2026-03-09 02:52:00.307744,8.92,6.46,8.92,9.03,1031,57,4.47,124,0,0.0,Clear,clear sky,2
Pusztakettős,47.453611,20.749722,2026-03-09 02:52:01.482488,1.94,-0.98,1.94,1.94,1030,69,2.78,211,5,0.0,Clear,clear sky,2
Kisvác,47.795278,19.113611,2026-03-09 02:52:02.640327,5.89,4.55,5.89,5.89,1029,71,1.86,118,100,0.0,Clouds,overcast clouds,2
Tiszafüred-Gyártelep,47.6075,20.736111,2026-03-09 02:52:03.805817,2.16,2.16,2.16,2.16,1030,71,0.87,170,5,0.0,Clear,clear sky,2
Újkenéz,48.251111,22.221667,2026-03-09 02:52:04.973546,2.6,-1.46,2.6,2.6,1031,66,4.62,120,0,0.0,Clear,clear sky,2
Püspökladány-Vásártér,47.319167,21.096111,2026-03-09 02:52:06.130605,2.6,-0.32,2.6,2.6,1030,66,2.93,219,7,0.0,Clear,clear sky,2
Végegyháza alsó,46.3675,20.866944,2026-03-09 02:52:07.305591,7.83,6.32,7.83,7.83,1030,83,2.41,164,4,0.0,Clear,clear sky,2
Orosháza felső,46.553611,20.655278,2026-03-09 02:52:08.462550,2.62,0.08,2.62,2.62,1030,75,2.5,169,0,0.0,Clear,clear sky,2
Ambrózfalva,46.353056,20.740556,2026-03-09 02:52:09.621277,2.62,0.08,2.62,2.62,1030,81,2.5,165,9,0.0,Clear,clear sky,2
Alsónyék,46.199444,18.738056,2026-03-09 02:52:10.785284,9.15,7.48,9.15,9.15,1029,71,3.01,131,73,0.0,Clouds,broken clouds,2
Tompapuszta,46.321389,20.966389,2026-03-09 02:52:11.949595,7.82,6.37,7.82,9.52,1030,100,2.33,161,1,0.0,Clear,clear sky,2
Halászlak,46.911879,20.56228,2026-03-09 02:52:13.112438,2.37,0.0,2.37,2.37,1030,72,2.28,194,3,0.0,Clear,clear sky,2
Sirató,46.840556,20.61,2026-03-09 02:52:14.274857,2.48,0.12,2.48,2.48,1030,73,2.29,187,3,0.0,Clear,clear sky,2
Csabacsűd felső,46.829167,20.649167,2026-03-09 02:52:15.445201,2.48,0.09,2.48,2.48,1030,73,2.32,188,3,0.0,Clear,clear sky,2
Orosháza-Üveggyár,46.579979,20.683644,2026-03-09 02:52:16.607261,2.59,0.09,2.59,2.59,1030,75,2.45,171,0,0.0,Clear,clear sky,2
Gyulai városerdő,46.69482,21.32281,2026-03-09 02:52:17.770029,2.81,0.15,2.81,2.81,1030,77,2.67,223,2,0.0,Clear,clear sky,2
Kórógyszentgyörgy,46.564377,20.224998,2026-03-09 02:52:18.931925,8.9,7.25,6.13,8.9,1029,47,2.9,168,3,0.0,Clear,clear sky,2
Kunszállás,46.784444,19.767222,2026-03-09 02:52:20.087476,6.32,4.23,5.97,6.61,1029,63,2.81,160,55,0.0,Clouds,broken clouds,2
Selymes,46.655321,19.8534,2026-03-09 02:52:21.244663,6.39,4.12,6.03,6.67,1029,63,3.08,161,25,0.0,Clouds,scattered clouds,2
Petőfiszállási tanyák,46.587805,19.874509,2026-03-09 02:52:22.401553,6.43,4.1,6.07,6.71,1029,63,3.18,162,14,0.0,Clouds,few clouds,2
Kisteleki szőlők,46.514199,19.92868,2026-03-09 02:52:23.564062,6.42,4.04,6.06,6.7,1029,69,3.26,163,5,0.0,Clear,clear sky,2
Kapitányság,46.435336,19.987564,2026-03-09 02:52:24.719616,2.64,-0.58,2.64,2.64,1029,69,3.32,163,5,0.0,Clear,clear sky,2
Őszeszék,46.39025,20.016017,2026-03-09 02:52:25.883971,2.7,-0.55,2.7,2.7,1029,70,3.39,161,6,0.0,Clear,clear sky,2
Vilmaszállás,46.366389,20.030833,2026-03-09 02:52:27.042072,2.73,-0.56,2.73,2.73,1029,70,3.45,160,6,0.0,Clear,clear sky,2
Jánosszállás,46.334359,20.051199,2026-03-09 02:52:28.202298,2.76,-0.56,2.76,2.76,1029,70,3.5,159,7,0.0,Clear,clear sky,2
Felsőpakony,47.343056,19.230556,2026-03-09 02:52:29.360583,6.92,5.39,6.53,7.75,1029,53,2.24,121,96,0.0,Clouds,overcast clouds,2
Felsőméntelek,46.987074,19.557745,2026-03-09 02:52:30.530249,3.88,3.88,3.88,3.88,1029,60,0.51,0,0,0.0,Clear,clear sky,2
Alsóméntelek,46.961558,19.579121,2026-03-09 02:52:31.692966,3.91,3.91,3.91,3.91,1029,60,0.51,0,0,0.0,Clear,clear sky,2
Nagynyír,46.943319,19.585447,2026-03-09 02:52:32.854470,3.9,3.9,3.9,3.9,1029,60,0.51,0,0,0.0,Clear,clear sky,2
Úrihegy,46.917778,19.621389,2026-03-09 02:52:34.017751,3.93,3.93,3.93,6.49,1029,60,0.51,0,0,0.0,Clear,clear sky,2
Miklóstelep,46.913412,19.630913,2026-03-09 02:52:35.174761,3.94,3.94,3.94,6.51,1029,60,0.51,0,0,0.0,Clear,clear sky,2
Tiszajenő alsó,47.016944,20.134444,2026-03-09 02:52:36.336966,2.02,0.49,2.02,2.02,1029,80,1.54,230,0,0.0,Clear,clear sky,2
Óbög,46.987222,20.111111,2026-03-09 02:52:37.499217,2.03,0.5,2.01,6.1,1029,80,1.54,230,0,0.0,Clear,clear sky,2
Árpádszállás,46.866456,19.989163,2026-03-09 02:52:38.664818,6.03,4.25,6.03,6.66,1029,61,2.35,174,23,0.0,Clouds,few clouds,2
Tőserdő,46.851111,19.980278,2026-03-09 02:52:39.828050,6.43,4.64,6.05,6.68,1029,63,2.44,173,20,0.0,Clouds,few clouds,2
Tiszaalpár felső,46.836256,19.976753,2026-03-09 02:52:40.988743,6.44,4.65,6.07,6.71,1029,63,2.44,173,20,0.0,Clouds,few clouds,2
Borsihalom,46.773056,19.92,2026-03-09 02:52:42.154855,6.42,4.45,6.06,6.7,1029,63,2.67,168,25,0.0,Clouds,scattered clouds,2
Petőfiváros,46.725556,19.848611,2026-03-09 02:52:43.316829,6.38,4.25,6.03,6.66,1029,63,2.88,162,38,0.0,Clouds,scattered clouds,2
Csorna,47.601944,17.248889,2026-03-09 02:52:44.480405,5.0,2.82,5.0,5.0,1028,69,2.59,142,93,0.0,Clouds,overcast clouds,2
Szorgalmatos,47.986667,21.366389,2026-03-09 02:52:45.643035,2.93,0.36,2.93,2.93,1030,70,2.6,75,3,0.0,Clear,clear sky,2
Fótfürdő,47.6225,19.200556,2026-03-09 02:52:46.800100,6.66,5.74,4.85,7.35,1029,53,1.58,97,99,0.0,Clouds,overcast clouds,2
Fenyveshegy,47.818333,19.068056,2026-03-09 02:52:47.974428,2.12,0.12,2.12,2.12,1029,72,1.91,115,100,0.0,Clouds,overcast clouds,2
Hűvösvölgy,47.541202,18.96351,2026-03-09 02:52:49.137845,5.98,5.98,5.1,7.36,1029,56,0.89,156,100,0.0,Clouds,overcast clouds,2
Hárshegy,47.535318,18.961433,2026-03-09 02:52:50.291317,5.98,5.98,5.1,7.36,1029,56,0.89,156,100,0.0,Clouds,overcast clouds,2
Szépjuhászné,47.528277,18.955246,2026-03-09 02:52:51.451845,5.19,5.19,4.21,6.47,1029,56,0.89,156,100,0.0,Clouds,overcast clouds,2
Jánoshegy,47.51433,18.95047,2026-03-09 02:52:52.612151,5.28,5.28,4.12,6.38,1029,55,0.89,156,100,0.0,Clouds,overcast clouds,2
Virágvölgy,47.505965,18.95876,2026-03-09 02:52:53.778042,5.09,5.09,3.8,6.07,1029,55,0.89,156,100,0.0,Clouds,overcast clouds,2
Csillebérc,47.498196,18.961694,2026-03-09 02:52:54.947030,4.89,4.89,3.57,5.83,1029,54,0.89,156,100,0.0,Clouds,overcast clouds,2
Normafa,47.5,18.970558,2026-03-09 02:52:56.108967,4.94,4.94,3.62,5.88,1029,54,0.89,156,100,0.0,Clouds,overcast clouds,2
Széchenyihegy,47.49413,18.977049,2026-03-09 02:52:57.266204,4.96,4.96,3.64,5.9,1029,54,0.89,156,100,0.0,Clouds,overcast clouds,2
Balatonfőkajár felső,47.031389,18.215278,2026-03-09 02:52:58.429011,7.95,6.48,7.95,7.95,1029,66,2.39,89,100,0.0,Clouds,overcast clouds,2
Piroska,47.148333,20.129722,2026-03-09 02:52:59.592353,2.02,0.49,2.02,2.02,1029,80,1.54,230,0,0.0,Clear,clear sky,2
Somodor,46.4725,17.836667,2026-03-09 02:53:00.753606,2.62,0.03,2.62,2.62,1028,69,2.55,103,91,0.0,Clouds,overcast clouds,2
Középmező,45.995833,18.668889,2026-03-09 02:53:01.915952,9.14,7.24,9.14,9.14,1028,51,3.42,110,72,0.0,Clouds,broken clouds,2
Jobbágyi,47.828889,19.6875,2026-03-09 02:53:03.073659,1.96,-0.52,1.96,1.96,1030,70,2.32,103,88,0.0,Clouds,overcast clouds,2
Ferihegy,47.437222,19.223889,2026-03-09 02:53:04.236736,5.92,4.38,5.08,7.59,1029,55,2.06,110,0,0.0,Clear,clear sky,2
Máriapócs,47.852778,22.019167,2026-03-09 02:53:05.401506,2.36,-1.58,2.36,2.36,1031,64,4.32,125,1,0.0,Clear,clear sky,2
Máriaudvar,47.751944,19.165,2026-03-09 02:53:06.564826,5.92,4.66,5.92,5.92,1029,71,1.79,112,100,0.0,Clouds,overcast clouds,2
Nagyberki,46.353333,18.004167,2026-03-09 02:53:07.727362,2.74,0.54,2.74,2.74,1028,69,2.18,112,55,0.0,Clouds,broken clouds,2
Badacsonytomaj,46.804722,17.518056,2026-03-09 02:53:08.890106,2.79,0.15,2.79,2.79,1028,68,2.65,71,100,0.0,Clouds,overcast clouds,2
Badacsony,46.788611,17.506389,2026-03-09 02:53:10.057545,8.11,6.5,8.11,8.11,1028,68,2.62,71,100,0.0,Clouds,overcast clouds,2
Badacsonylábdihegy,46.793889,17.470833,2026-03-09 02:53:11.214905,8.08,6.46,8.08,8.08,1028,68,2.62,71,100,0.0,Clouds,overcast clouds,2
Badacsonytördemic-Szigliget,46.809722,17.469167,2026-03-09 02:53:12.378627,8.03,6.4,8.03,8.03,1028,68,2.62,73,100,0.0,Clouds,overcast clouds,2
Nemesgulács-Kisapáti,46.836944,17.476389,2026-03-09 02:53:13.541814,8.07,6.47,8.07,8.07,1028,68,2.59,76,100,0.0,Clouds,overcast clouds,2
Tapolca,46.877778,17.428611,2026-03-09 02:53:14.703266,7.99,6.47,7.99,7.99,1028,69,2.46,89,100,0.0,Clouds,overcast clouds,2
Uzsabánya alsó,46.898333,17.345278,2026-03-09 02:53:15.864240,7.79,6.22,7.79,7.79,1028,70,2.48,102,100,0.0,Clouds,overcast clouds,2
Uzsa,46.920278,17.331667,2026-03-09 02:53:17.038871,7.75,6.12,7.75,7.75,1028,69,2.55,109,100,0.0,Clouds,overcast clouds,2
Sümegi Bazaltbánya,46.9525,17.2925,2026-03-09 02:53:18.200041,2.65,-0.04,2.65,2.65,1028,69,2.67,117,100,0.0,Clouds,overcast clouds,2
Sümeg,46.981111,17.270833,2026-03-09 02:53:19.361872,2.88,0.13,2.88,2.88,1028,69,2.79,125,100,0.0,Clouds,overcast clouds,2
Gógánfa,47.021111,17.207778,2026-03-09 02:53:20.527384,2.97,0.11,2.97,2.97,1027,68,2.95,133,100,0.0,Clouds,overcast clouds,2
Ukk,47.041944,17.195833,2026-03-09 02:53:21.686659,3.07,0.23,3.07,3.07,1027,68,2.95,137,100,0.0,Clouds,overcast clouds,2
Nemeskeresztúr,47.093611,17.183611,2026-03-09 02:53:22.847492,3.06,0.14,3.06,3.06,1027,68,3.05,142,100,0.0,Clouds,overcast clouds,2
Jánosháza,47.115833,17.171667,2026-03-09 02:53:24.012703,3.15,0.21,3.15,3.15,1027,68,3.09,144,99,0.0,Clouds,overcast clouds,2
Keszthely,46.758333,17.248056,2026-03-09 02:53:25.181635,8.08,6.9,8.08,8.08,1028,61,2.06,100,0,0.0,Clear,clear sky,2
Alsógyenes,46.765844,17.276435,2026-03-09 02:53:26.341103,8.08,6.9,8.08,8.08,1028,61,2.06,100,0,0.0,Clear,clear sky,2
Gyenesdiás,46.763333,17.292778,2026-03-09 02:53:27.501416,8.08,6.9,8.08,8.08,1028,61,2.06,100,0,0.0,Clear,clear sky,2
Vonyarcvashegy,46.755278,17.318333,2026-03-09 02:53:28.661575,8.09,6.91,8.09,8.09,1028,61,2.06,100,0,0.0,Clear,clear sky,2
Balatongyörök,46.751944,17.354444,2026-03-09 02:53:29.824655,8.11,6.94,8.11,8.11,1028,61,2.06,100,0,0.0,Clear,clear sky,2
Becehegy,46.776111,17.372778,2026-03-09 02:53:30.985761,8.08,6.9,8.08,8.08,1028,61,2.06,100,0,0.0,Clear,clear sky,2
Balatonederics,46.8025,17.385,2026-03-09 02:53:32.151845,8.03,6.55,8.03,8.03,1028,70,2.42,82,100,0.0,Clouds,overcast clouds,2
Dabronc,47.025766,17.167006,2026-03-09 02:53:33.317377,3.03,0.22,3.03,3.03,1027,69,2.9,134,100,0.0,Clouds,overcast clouds,2
Türje,46.994444,17.093611,2026-03-09 02:53:34.488204,3.01,0.33,3.01,3.01,1027,69,2.74,134,100,0.0,Clouds,overcast clouds,2
Zalabér-Batyk,46.983056,17.040833,2026-03-09 02:53:35.648321,3.11,0.54,3.11,3.11,1027,70,2.64,135,100,0.0,Clouds,overcast clouds,2
Pakod,46.959167,16.996667,2026-03-09 02:53:36.809513,3.03,0.46,3.03,3.03,1027,71,2.62,136,100,0.0,Clouds,overcast clouds,2
Pókaszepetk,46.924444,16.972222,2026-03-09 02:53:37.970986,3.03,0.42,3.03,3.03,1027,71,2.66,130,100,0.0,Clouds,overcast clouds,2
Kemendollár,46.905833,16.946667,2026-03-09 02:53:39.132305,7.91,6.24,7.91,7.91,1027,72,2.65,132,100,0.0,Clouds,overcast clouds,2
Zalaegerszeg,46.833056,16.848333,2026-03-09 02:53:40.297073,7.73,6.2,7.73,7.73,1027,74,2.42,128,100,0.0,Clouds,overcast clouds,2
Bocfölde,46.780278,16.853611,2026-03-09 02:53:41.466336,7.79,6.27,7.79,7.79,1027,74,2.42,119,100,0.0,Clouds,overcast clouds,2
Sárhida,46.755833,16.851389,2026-03-09 02:53:42.642608,7.75,6.34,7.75,7.75,1027,75,2.27,117,100,0.0,Clouds,overcast clouds,2
Bak,46.7325,16.849167,2026-03-09 02:53:43.804988,7.77,6.4,7.77,7.77,1027,75,2.23,113,100,0.0,Clouds,overcast clouds,2
Tófej,46.670833,16.801944,2026-03-09 02:53:44.972639,7.61,6.38,7.61,7.61,1027,75,2.03,106,100,0.0,Clouds,overcast clouds,2
Gutorfölde,46.646944,16.739722,2026-03-09 02:53:46.132359,2.5,0.67,2.5,2.5,1027,76,1.82,104,100,0.0,Clouds,overcast clouds,2
Csömödér-Páka,46.608056,16.641111,2026-03-09 02:53:47.299093,2.77,1.22,2.77,2.77,1027,76,1.63,104,100,0.0,Clouds,overcast clouds,2
Iklódbördőce,46.603056,16.604722,2026-03-09 02:53:48.461663,2.61,1.12,2.61,2.61,1027,77,1.57,108,100,0.0,Clouds,overcast clouds,2
Lenti,46.621389,16.528611,2026-03-09 02:53:49.625848,2.83,1.37,2.83,2.83,1027,79,1.57,112,100,0.0,Clouds,overcast clouds,2
Rédics,46.618056,16.471111,2026-03-09 02:53:50.786371,2.84,1.4,2.84,2.84,1027,79,1.56,113,100,0.0,Clouds,overcast clouds,2
Zalalövő,46.845556,16.576389,2026-03-09 02:53:51.948058,2.81,1.06,2.81,2.81,1027,79,1.79,134,100,0.0,Clouds,overcast clouds,2
Zalaegerszeg-Ola,46.849167,16.844722,2026-03-09 02:53:53.122323,2.8,0.37,2.8,2.8,1027,74,2.42,128,100,0.0,Clouds,overcast clouds,2
Andráshida,46.863116,16.7792,2026-03-09 02:53:54.283819,2.83,0.42,2.83,2.83,1027,74,2.41,133,100,0.0,Clouds,overcast clouds,2
Bagod,46.875,16.746111,2026-03-09 02:53:55.449967,2.96,0.71,2.96,2.96,1027,75,2.27,136,100,0.0,Clouds,overcast clouds,2
Zalaszentgyörgy,46.872222,16.7125,2026-03-09 02:53:56.610128,2.93,0.74,2.93,2.93,1027,76,2.2,136,100,0.0,Clouds,overcast clouds,2
Zalacséb-Salomvár,46.858056,16.662222,2026-03-09 02:53:57.771363,2.72,0.56,2.72,2.72,1027,77,2.14,137,100,0.0,Clouds,overcast clouds,2
Kópháza,47.631389,16.6375,2026-03-09 02:53:58.931730,4.55,1.99,4.55,4.55,1027,73,2.97,164,100,0.0,Clouds,overcast clouds,2
Nagycenk,47.601111,16.690278,2026-03-09 02:54:00.089663,4.66,2.1,4.66,4.66,1027,73,2.99,164,100,0.0,Clouds,overcast clouds,2
Sopronkövesd,47.548333,16.748056,2026-03-09 02:54:01.261732,4.49,1.91,4.49,4.49,1027,73,2.98,166,100,0.0,Clouds,overcast clouds,2
Lövő,47.509444,16.7775,2026-03-09 02:54:02.425700,4.53,1.93,4.53,4.53,1027,73,3.01,167,100,0.0,Clouds,overcast clouds,2
Újkér,47.457778,16.786667,2026-03-09 02:54:03.590792,3.71,1.16,3.71,3.71,1027,74,2.75,170,100,0.0,Clouds,overcast clouds,2
Bük,47.388611,16.752222,2026-03-09 02:54:04.750921,3.69,1.64,3.69,3.69,1027,75,2.19,176,100,0.0,Clouds,overcast clouds,2
Acsád,47.308333,16.734722,2026-03-09 02:54:05.913436,3.31,1.63,3.31,3.31,1027,75,1.8,176,100,0.0,Clouds,overcast clouds,2
Salköveskút-Vassurány,47.291389,16.704167,2026-03-09 02:54:07.083196,3.31,1.68,3.31,3.31,1027,75,1.76,174,100,0.0,Clouds,overcast clouds,2
Zalaszentiván,46.8875,16.909444,2026-03-09 02:54:08.246383,7.89,6.24,7.89,7.89,1027,73,2.61,132,100,0.0,Clouds,overcast clouds,2
Alsónemesapáti,46.854167,16.936389,2026-03-09 02:54:09.413276,7.88,6.19,7.88,7.88,1027,72,2.67,126,100,0.0,Clouds,overcast clouds,2
Józsa,47.600833,21.584444,2026-03-09 02:54:10.573469,3.86,1.98,3.86,3.86,1030,65,2.06,130,0,0.0,Clear,clear sky,2
Hajdúszentgyörgy,47.608056,21.578333,2026-03-09 02:54:11.738743,3.83,1.94,3.83,3.83,1030,65,2.06,130,0,0.0,Clear,clear sky,2
Zelemér,47.627778,21.578333,2026-03-09 02:54:12.903104,3.78,1.88,3.78,3.78,1030,65,2.06,130,0,0.0,Clear,clear sky,2
Hajdúböszörmény,47.668056,21.524167,2026-03-09 02:54:14.063568,3.81,1.46,3.81,3.81,1030,64,2.53,170,7,0.0,Clear,clear sky,2
Hajdúvid,47.749444,21.508056,2026-03-09 02:54:15.229610,2.72,0.49,2.72,2.72,1030,65,2.21,164,6,0.0,Clear,clear sky,2
Hajdúdorog,47.805556,21.493056,2026-03-09 02:54:16.399743,2.75,0.82,2.75,2.75,1030,66,1.94,152,5,0.0,Clear,clear sky,2
Hajdúnánás,47.831944,21.426667,2026-03-09 02:54:17.565121,2.88,1.4,2.88,2.88,1030,67,1.59,138,5,0.0,Clear,clear sky,2
Hajdúnánás-Vásártér,47.843056,21.407222,2026-03-09 02:54:18.740528,2.88,1.4,2.88,2.88,1030,67,1.59,138,5,0.0,Clear,clear sky,2
Tedej,47.903611,21.404444,2026-03-09 02:54:19.916621,2.9,1.08,2.9,2.9,1030,68,1.86,98,4,0.0,Clear,clear sky,2
Tiszavasvári,47.945278,21.374722,2026-03-09 02:54:21.087642,2.91,0.79,2.91,2.91,1030,69,2.13,86,4,0.0,Clear,clear sky,2
Egyházerdő,47.9725,21.365,2026-03-09 02:54:22.249743,2.93,0.56,2.93,2.93,1030,69,2.38,79,4,0.0,Clear,clear sky,2
Tiszalök,48.013056,21.369167,2026-03-09 02:54:23.419826,2.91,0.18,2.91,2.91,1030,70,2.78,71,3,0.0,Clear,clear sky,2
Hajnalos,47.998889,21.414167,2026-03-09 02:54:24.579943,2.92,0.4,2.92,2.92,1030,69,2.54,76,3,0.0,Clear,clear sky,2
Kisfástanya,47.989167,21.47,2026-03-09 02:54:25.740612,2.87,0.41,2.87,2.87,1030,69,2.46,77,2,0.0,Clear,clear sky,2
Tiszaeszlár,48.010556,21.491944,2026-03-09 02:54:26.899338,2.88,0.35,2.88,2.88,1030,69,2.54,73,2,0.0,Clear,clear sky,2
Bashalom,48.026111,21.514722,2026-03-09 02:54:28.061087,2.91,0.25,2.91,2.91,1030,69,2.69,68,1,0.0,Clear,clear sky,2
Sáránd,47.415556,21.625,2026-03-09 02:54:29.222773,4.01,2.15,4.01,4.01,1030,65,2.06,130,0,0.0,Clear,clear sky,2
Derecske,47.365,21.584167,2026-03-09 02:54:30.393903,4.08,2.23,4.08,4.08,1030,65,2.06,130,0,0.0,Clear,clear sky,2
Derecske-Vásártér,47.352222,21.58,2026-03-09 02:54:31.571377,4.08,2.23,4.08,4.08,1030,65,2.06,130,0,0.0,Clear,clear sky,2
Konyár,47.323611,21.666111,2026-03-09 02:54:32.731780,4.05,2.2,4.05,4.05,1030,65,2.06,130,0,0.0,Clear,clear sky,2
Konyári Sóstófürdő,47.324167,21.744444,2026-03-09 02:54:33.902904,4.06,1.98,4.06,4.06,1030,66,2.29,184,12,0.0,Clouds,few clouds,2
Pocsaj-Esztár,47.288333,21.793056,2026-03-09 02:54:35.067102,4.05,2.01,4.05,7.46,1030,66,2.25,184,12,0.0,Clouds,few clouds,2
Kismarja,47.243889,21.813889,2026-03-09 02:54:36.232535,7.46,5.85,7.24,7.46,1030,66,2.45,184,12,0.0,Clouds,few clouds,2
Nagykereki,47.191667,21.8,2026-03-09 02:54:37.404313,7.45,5.72,7.23,7.45,1030,57,2.61,184,12,0.0,Clouds,few clouds,2
Debrecen-Szabadságtelep,47.527778,21.658611,2026-03-09 02:54:38.562784,3.89,2.01,3.89,3.89,1030,65,2.06,130,0,0.0,Clear,clear sky,2
Kondoroskert,47.525556,21.713889,2026-03-09 02:54:39.728306,3.92,2.05,3.92,3.92,1030,65,2.06,130,0,0.0,Clear,clear sky,2
Nagycsere,47.523889,21.763056,2026-03-09 02:54:40.889874,3.9,2.02,3.9,3.9,1030,65,2.06,130,0,0.0,Clear,clear sky,2
Haláp,47.521667,21.818333,2026-03-09 02:54:42.052948,3.9,2.02,3.9,3.9,1030,65,2.06,130,0,0.0,Clear,clear sky,2
Vámospércs,47.518056,21.893889,2026-03-09 02:54:43.214198,3.84,2.35,3.84,3.84,1030,61,1.71,156,7,0.0,Clear,clear sky,2
Szentannapuszta,47.52,21.965833,2026-03-09 02:54:44.375574,3.79,2.23,3.79,3.79,1030,61,1.76,152,6,0.0,Clear,clear sky,2
Nyírábrány,47.523889,22.016944,2026-03-09 02:54:45.536568,2.43,0.61,2.43,2.43,1030,61,1.8,150,6,0.0,Clear,clear sky,2
Dombostanya,47.602778,21.706389,2026-03-09 02:54:46.704971,3.82,1.93,3.82,3.82,1030,65,2.06,130,0,0.0,Clear,clear sky,2
Hajdúsámson,47.608056,21.755278,2026-03-09 02:54:47.865721,3.82,1.93,3.82,3.82,1030,65,2.06,130,0,0.0,Clear,clear sky,2
Tamásipuszta,47.632778,21.796111,2026-03-09 02:54:49.026122,3.77,1.64,3.77,3.77,1030,62,2.29,147,5,0.0,Clear,clear sky,2
Aradványpuszta,47.662778,21.8425,2026-03-09 02:54:50.190870,3.72,1.39,3.72,3.72,1030,63,2.49,142,5,0.0,Clear,clear sky,2
Nyíradony,47.699444,21.903333,2026-03-09 02:54:51.355319,2.3,-0.81,2.3,2.3,1030,64,3.09,130,3,0.0,Clear,clear sky,2
Nyírmihálydi,47.7375,21.958889,2026-03-09 02:54:52.517525,2.28,-1.06,2.28,2.28,1030,64,3.38,128,3,0.0,Clear,clear sky,2
Nyírgelse,47.750833,21.987778,2026-03-09 02:54:53.686429,2.22,-1.32,2.22,2.22,1031,64,3.64,126,2,0.0,Clear,clear sky,2
Nyírbogát,47.793056,22.066389,2026-03-09 02:54:54.848129,2.28,-1.61,2.28,2.28,1031,64,4.21,124,1,0.0,Clear,clear sky,2
Nagykálló,47.871111,21.825833,2026-03-09 02:54:56.007714,2.59,-0.83,2.59,2.59,1030,65,3.59,133,1,0.0,Clear,clear sky,2
Kállósemjén,47.854722,21.935,2026-03-09 02:54:57.177626,2.5,-1.23,2.5,2.5,1030,65,4.03,129,1,0.0,Clear,clear sky,2
Nyírbátor,47.8425,22.131111,2026-03-09 02:54:58.340526,2.23,-1.81,2.23,2.23,1031,63,4.43,124,0,0.0,Clear,clear sky,2
Nyírcsászári,47.865556,22.179167,2026-03-09 02:54:59.508442,2.23,-1.95,2.23,2.23,1031,62,4.67,125,0,0.0,Clear,clear sky,2
Hodász,47.896111,22.213611,2026-03-09 02:55:00.666150,2.19,-2.09,2.19,2.19,1031,61,4.84,125,0,0.0,Clear,clear sky,2
Nyírmeggyes,47.9225,22.256667,2026-03-09 02:55:01.835518,2.26,-2.05,2.26,2.26,1031,61,4.93,125,0,0.0,Clear,clear sky,2
Mátészalka,47.951389,22.313333,2026-03-09 02:55:03.006573,2.31,-2.02,2.31,2.31,1031,61,4.99,126,0,0.0,Clear,clear sky,2
Kocsord,47.941944,22.375833,2026-03-09 02:55:04.181669,2.32,-2.12,2.32,2.32,1031,59,5.2,127,0,0.0,Clear,clear sky,2
Kocsord alsó,47.946389,22.400556,2026-03-09 02:55:05.338760,2.32,-2.12,2.32,2.32,1031,59,5.2,127,0,0.0,Clear,clear sky,2
Győrtelek,47.936667,22.424722,2026-03-09 02:55:06.507007,2.3,-2.16,2.3,2.3,1031,59,5.24,127,0,0.0,Clear,clear sky,2
Győrtelek alsó,47.921111,22.443333,2026-03-09 02:55:07.675557,2.21,-2.32,2.21,2.21,1031,58,5.33,127,0,0.0,Clear,clear sky,2
Ököritófülpös,47.911389,22.495,2026-03-09 02:55:08.853472,2.16,-2.4,2.16,2.16,1031,57,5.35,127,0,0.0,Clear,clear sky,2
Porcsalma-Tyukod,47.868056,22.568333,2026-03-09 02:55:10.034696,8.95,6.09,8.95,9.05,1031,55,5.49,128,0,0.0,Clear,clear sky,2
Csenger,47.826111,22.666389,2026-03-09 02:55:11.194030,8.94,6.07,8.94,9.04,1031,54,5.51,128,0,0.0,Clear,clear sky,2
Kisfái,46.888303,19.807366,2026-03-09 02:55:12.355112,4.02,4.02,4.02,6.03,1029,60,0.51,0,0,0.0,Clear,clear sky,2
Nyárlőrinci szőlők,46.8775,19.828333,2026-03-09 02:55:13.522351,6.03,4.1,6.03,6.51,1029,63,2.53,167,51,0.0,Clouds,broken clouds,2
Nyárlőrinc alsó,46.863889,19.878889,2026-03-09 02:55:14.687852,6.05,4.15,6.05,6.53,1029,63,2.49,169,45,0.0,Clouds,scattered clouds,2
Tiszaug-Tiszahídfő,46.866106,20.052098,2026-03-09 02:55:15.854074,6.69,5.05,6.21,6.69,1029,59,2.32,175,19,0.0,Clouds,few clouds,2
Csongrádi úti tanyák,46.690278,19.921667,2026-03-09 02:55:17.021542,6.16,3.95,6.16,6.64,1029,63,2.93,165,15,0.0,Clouds,few clouds,2
Kettőshalom,46.689167,20.0225,2026-03-09 02:55:18.184775,6.68,4.64,6.19,6.68,1029,59,2.84,167,5,0.0,Clear,clear sky,2
Csongrád alsó,46.711389,20.126389,2026-03-09 02:55:19.343774,6.68,4.75,6.19,6.68,1029,59,2.68,169,2,0.0,Clear,clear sky,2
Dónát,46.66988,20.368168,2026-03-09 02:55:20.507269,8.91,8.59,6.7,8.91,1029,47,1.34,82,3,0.0,Clear,clear sky,2
Pusztatemplom,46.676667,20.407222,2026-03-09 02:55:21.668875,8.9,8.58,6.68,8.9,1029,47,1.34,82,2,0.0,Clear,clear sky,2
Előhát,47.364722,20.653611,2026-03-09 02:55:22.824768,1.8,-1.32,1.8,1.8,1030,70,2.98,212,5,0.0,Clear,clear sky,2
Polgárdi-Tekerespuszta,47.017778,18.297778,2026-03-09 02:55:23.984758,2.38,-0.19,2.38,2.38,1029,66,2.49,103,100,0.0,Clouds,overcast clouds,2
Szatina-Kishajmás,46.202778,18.083611,2026-03-09 02:55:25.142287,6.25,4.49,6.25,6.25,1028,70,2.37,117,30,0.0,Clouds,scattered clouds,2
Márok,45.886944,18.499167,2026-03-09 02:55:26.311496,8.91,7.18,6.47,8.91,1028,51,3.03,87,65,0.0,Clouds,broken clouds,2
Nagynyárád,45.953333,18.564722,2026-03-09 02:55:27.480800,8.98,7.3,6.53,8.98,1028,51,2.98,94,69,0.0,Clouds,broken clouds,2
Szászvár,46.2875,18.369722222222222,2026-03-09 02:55:28.639560,8.57,6.74,8.57,8.57,1028,70,3.09,127,73,0.0,Clouds,broken clouds,2
Cikó,46.263514,18.557605,2026-03-09 02:55:29.800727,8.89,7.23,8.89,8.89,1029,72,2.91,129,70,0.0,Clouds,broken clouds,2
Gyöngyfa-Magyarmecske,45.983889,17.958889,2026-03-09 02:55:30.963229,6.57,4.16,6.57,6.57,1028,73,3.35,96,15,0.0,Clouds,few clouds,2
Nagyhát,47.581389,21.445,2026-03-09 02:55:32.132270,3.92,2.05,3.92,3.92,1030,65,2.06,130,0,0.0,Clear,clear sky,2
Balmazújváros,47.613889,21.348056,2026-03-09 02:55:33.296993,4.1,2.01,4.1,4.1,1030,66,2.31,180,9,0.0,Clear,clear sky,2
Kónya,47.600833,21.2375,2026-03-09 02:55:34.458206,2.72,0.54,2.72,2.72,1030,67,2.16,184,10,0.0,Clear,clear sky,2
Hortobágy,47.586111,21.154722,2026-03-09 02:55:35.616619,2.69,0.78,2.69,2.69,1030,67,1.91,188,12,0.0,Clouds,few clouds,2
Hortobágyi Halastó,47.604167,21.074167,2026-03-09 02:55:36.780681,2.64,0.93,2.64,2.64,1030,68,1.74,191,12,0.0,Clouds,few clouds,2
Ohat-Pusztakócs,47.623333,20.951111,2026-03-09 02:55:37.952495,2.54,2.54,2.54,2.54,1030,69,1.1,186,13,0.0,Clouds,few clouds,2
Egyek,47.616944,20.883611,2026-03-09 02:55:39.118478,2.46,2.46,2.46,2.46,1030,70,0.79,176,9,0.0,Clear,clear sky,2
Tiszafüred,47.627778,20.756111,2026-03-09 02:55:40.278905,2.29,2.29,2.29,2.29,1030,71,0.66,148,6,0.0,Clear,clear sky,2
Poroszló,47.657778,20.654444,2026-03-09 02:55:41.445377,2.3,2.3,2.3,2.3,1030,71,1.13,87,3,0.0,Clear,clear sky,2
Kétútköz,47.694167,20.565,2026-03-09 02:55:42.619058,2.44,0.33,2.44,2.44,1030,71,2.05,69,3,0.0,Clear,clear sky,2
Egerfarmos,47.711667,20.5225,2026-03-09 02:55:43.785974,2.41,0.07,2.41,2.41,1030,70,2.26,71,4,0.0,Clear,clear sky,2
Piliscsaba,47.638056,18.829722,2026-03-09 02:55:44.945768,5.63,4.09,5.18,6.98,1029,57,2.01,97,100,0.0,Clouds,overcast clouds,2
Pilisjászfalu,47.656111,18.797778,2026-03-09 02:55:46.108460,5.76,4.17,5.43,7.23,1029,58,2.08,99,100,0.0,Clouds,overcast clouds,2
Leányvár,47.687594,18.772553,2026-03-09 02:55:47.266110,5.65,4.06,5.6,7.3,1029,58,2.07,103,100,0.0,Clouds,overcast clouds,2
Dorog,47.723333,18.732778,2026-03-09 02:55:48.429993,5.82,4.24,5.82,7.52,1029,70,2.09,111,100,0.0,Clouds,overcast clouds,2
Esztergom-Kertváros,47.743333,18.719167,2026-03-09 02:55:49.592633,5.89,4.32,5.89,5.89,1029,70,2.09,112,100,0.0,Clouds,overcast clouds,2
Esztergom,47.7775,18.743611,2026-03-09 02:55:50.758283,5.95,4.41,5.95,5.95,1029,70,2.07,110,100,0.0,Clouds,overcast clouds,2
Dunaalmás,47.733056,18.326389,2026-03-09 02:55:51.925008,2.78,0.02,2.78,2.78,1029,70,2.78,123,99,0.0,Clouds,overcast clouds,2
Neszmély,47.734444,18.345278,2026-03-09 02:55:53.086225,2.78,0.02,2.78,2.78,1029,70,2.78,123,99,0.0,Clouds,overcast clouds,2
Süttő,47.761111,18.455,2026-03-09 02:55:54.246627,2.66,0.16,2.66,2.66,1029,70,2.47,124,100,0.0,Clouds,overcast clouds,2
Piszke,47.75307,18.478017,2026-03-09 02:55:55.405404,2.65,0.19,2.65,2.65,1029,70,2.42,124,100,0.0,Clouds,overcast clouds,2
Lábatlan,47.751944,18.513333,2026-03-09 02:55:56.567135,2.59,0.18,2.59,2.59,1029,70,2.36,123,100,0.0,Clouds,overcast clouds,2
Eternitgyár,47.755544,18.530014,2026-03-09 02:55:57.739672,2.59,0.18,2.59,2.59,1029,70,2.36,123,100,0.0,Clouds,overcast clouds,2
Nyergesújfalu felső,47.762222,18.540556,2026-03-09 02:55:58.897991,2.59,0.18,2.59,2.59,1029,70,2.36,123,100,0.0,Clouds,overcast clouds,2
Nyergesújfalu,47.761111,18.561667,2026-03-09 02:56:00.057072,2.5,0.12,2.5,2.5,1029,70,2.31,122,100,0.0,Clouds,overcast clouds,2
Tokod,47.735,18.675,2026-03-09 02:56:01.229742,5.91,4.31,5.91,5.91,1029,70,2.12,113,100,0.0,Clouds,overcast clouds,2
Környe,47.541667,18.330278,2026-03-09 02:56:02.392975,2.23,-0.83,2.23,2.23,1029,72,3.01,118,100,0.0,Clouds,overcast clouds,2
Kecskéd alsó,47.519722,18.316667,2026-03-09 02:56:03.555204,2.26,-0.87,2.26,2.26,1029,72,3.11,117,100,0.0,Clouds,overcast clouds,2
Oroszlány,47.486944,18.308611,2026-03-09 02:56:04.720255,2.15,-0.95,2.15,2.15,1029,72,3.04,115,100,0.0,Clouds,overcast clouds,2
Győrszabadhegy,47.663056,17.648056,2026-03-09 02:56:05.884632,1.08,-2.68,1.08,1.08,1028,80,3.6,90,0,0.0,Clear,clear sky,2
Ménfőcsanak felső,47.638333,17.615,2026-03-09 02:56:07.044892,1.08,-2.68,1.08,1.08,1028,80,3.6,90,0,0.0,Clear,clear sky,2
Gyömöre-Tét,47.501672,17.559596,2026-03-09 02:56:08.204066,7.03,4.88,0.91,7.03,1028,57,3.09,130,0,0.0,Clear,clear sky,2
Szerecseny,47.469167,17.5475,2026-03-09 02:56:09.370533,7.02,4.87,0.9,7.02,1028,57,3.09,130,0,0.0,Clear,clear sky,2
Gecse-Gyarmat,47.456111,17.515,2026-03-09 02:56:10.530807,7.05,4.91,0.94,7.05,1028,57,3.09,130,0,0.0,Clear,clear sky,2
Vaszar,47.4025,17.496389,2026-03-09 02:56:11.692895,7.08,4.94,7.08,7.08,1027,57,3.09,130,0,0.0,Clear,clear sky,2
Pápa,47.340556,17.458889,2026-03-09 02:56:12.854084,7.03,4.88,7.03,7.03,1027,57,3.09,130,0,0.0,Clear,clear sky,2
Mezőlak,47.324722,17.371389,2026-03-09 02:56:14.017937,7.11,4.98,7.11,7.11,1027,57,3.09,130,0,0.0,Clear,clear sky,2
Mihályháza,47.318889,17.331667,2026-03-09 02:56:15.179576,7.14,5.02,7.14,7.14,1027,57,3.09,130,0,0.0,Clear,clear sky,2
