station_name,station_lat,station_lon,observation_time,temp,feels_like,temp_min,temp_max,pressure,humidity,wind_speed,wind_deg,clouds,precipitation_1h,weather_main,weather_description,collection_hour
Búcsúszentlászló,46.793056,16.932778,2026-03-04 21:42:24.628213,6.06,3.92,6.06,6.06,1026,88,2.81,345,82,0.0,Clouds,broken clouds,21
Angyalföld,47.549722,19.09,2026-03-04 21:42:25.830967,6.21,6.21,6.21,6.21,1025,68,0.85,309,97,0.0,Clouds,overcast clouds,21
Felsőjánosfa,46.841389,16.544167,2026-03-04 21:42:27.032371,5.64,4.07,5.64,5.64,1027,87,2.04,10,67,0.0,Clouds,broken clouds,21
Pankasz,46.835833,16.496111,2026-03-04 21:42:28.234662,5.32,3.77,5.32,5.32,1027,87,1.97,9,62,0.0,Clouds,broken clouds,21
Nagyrákos,46.827222,16.455556,2026-03-04 21:42:29.437533,5.26,3.75,5.26,5.26,1027,87,1.92,8,59,0.0,Clouds,broken clouds,21
Őriszentpéter,46.828889,16.415278,2026-03-04 21:42:30.637779,5.35,4.0,5.35,5.35,1027,87,1.79,5,52,0.0,Clouds,broken clouds,21
Törökbálint,47.45,18.908611,2026-03-04 21:42:31.835331,6.14,5.01,6.14,6.14,1025,70,1.7,328,96,0.0,Clouds,overcast clouds,21
Bicske alsó,47.486389,18.642778,2026-03-04 21:42:33.040392,6.11,4.74,6.11,6.11,1025,75,1.92,336,84,0.0,Clouds,broken clouds,21
Bajánsenye,46.818056,16.358056,2026-03-04 21:42:34.237264,5.45,4.11,5.45,5.45,1027,88,1.79,6,49,0.0,Clouds,scattered clouds,21
Aquincum,47.566218,19.048273,2026-03-04 21:42:35.448236,5.78,5.78,5.78,5.78,1025,70,1.12,316,93,0.0,Clouds,overcast clouds,21
Piliscsév,47.673889,18.791389,2026-03-04 21:42:36.651824,5.86,4.94,5.86,5.86,1025,75,1.49,322,87,0.0,Clouds,overcast clouds,21
Tát,47.741201,18.64783,2026-03-04 21:42:37.852629,6.31,6.31,6.31,6.31,1025,78,1.24,310,66,0.0,Clouds,broken clouds,21
Süttő felső,47.756667,18.437222,2026-03-04 21:42:39.057287,6.22,5.43,6.22,6.22,1026,80,1.43,313,48,0.0,Clouds,scattered clouds,21
Budatétény,47.405,19.016389,2026-03-04 21:42:40.258618,6.3,5.48,6.3,6.3,1025,69,1.46,314,99,0.0,Clouds,overcast clouds,21
Seregélyes-Szőlőhegy,47.119444,18.612222,2026-03-04 21:42:41.456539,6.47,6.47,6.47,6.47,1025,74,1.19,320,100,0.0,Clouds,overcast clouds,21
Gödöllő-Állami telepek,47.564444,19.375556,2026-03-04 21:42:42.668377,5.8,5.8,5.8,5.8,1025,71,0.83,278,100,0.0,Clouds,overcast clouds,21
Dunakeszi alsó,47.607778,19.128889,2026-03-04 21:42:43.870393,6.2,6.2,6.2,6.2,1025,70,0.82,299,96,0.0,Clouds,overcast clouds,21
Vác-Alsóváros,47.773056,19.149722,2026-03-04 21:42:45.074409,6.27,5.48,6.27,6.27,1025,75,1.43,282,85,0.0,Clouds,overcast clouds,21
Szob alsó,47.816667,18.8725,2026-03-04 21:42:46.274524,6.34,6.34,6.34,6.34,1025,77,1.3,292,80,0.0,Clouds,broken clouds,21
Zalaszentmihály-Pacsa,46.7225,16.951944,2026-03-04 21:42:47.473490,6.1,4.01,6.1,6.1,1026,89,2.75,346,76,0.0,Clouds,broken clouds,21
Pötréte,46.682778,16.9575,2026-03-04 21:42:48.675068,6.16,4.18,6.16,6.16,1026,89,2.62,348,68,0.0,Clouds,broken clouds,21
Felsőrajk,46.667222,16.982778,2026-03-04 21:42:49.876391,6.15,4.08,6.15,6.15,1026,89,2.74,347,68,0.0,Clouds,broken clouds,21
Gelse,46.600556,16.982778,2026-03-04 21:42:51.074972,6.18,4.27,6.18,6.18,1026,89,2.53,350,55,0.0,Clouds,broken clouds,21
Őrtilos,46.297778,16.887778,2026-03-04 21:42:52.272117,6.48,4.73,6.48,6.48,1026,85,2.41,347,75,0.0,Clouds,broken clouds,21
Zákány,46.251944,16.9425,2026-03-04 21:42:53.475684,6.34,4.34,6.34,6.34,1026,84,2.69,346,62,0.0,Clouds,broken clouds,21
Berzence,46.201389,17.143611,2026-03-04 21:42:54.677227,6.84,4.96,6.84,6.84,1026,81,2.65,343,51,0.0,Clouds,broken clouds,21
Somogyudvarhely,46.163333,17.179722,2026-03-04 21:42:55.876269,6.87,5.13,6.87,6.87,1026,80,2.48,339,51,0.0,Clouds,broken clouds,21
Bélavár,46.122778,17.207778,2026-03-04 21:42:57.075497,7.0,5.56,7.0,7.0,1026,80,2.15,329,49,0.0,Clouds,scattered clouds,21
Vízvár,46.101389,17.239444,2026-03-04 21:42:58.286502,6.95,5.68,6.95,6.95,1026,79,1.96,322,48,0.0,Clouds,scattered clouds,21
Babócsa,46.028359,17.342276,2026-03-04 21:42:59.487718,7.04,6.13,7.04,7.04,1026,80,1.62,302,42,0.12,Rain,light rain,21
Péterhida-Komlósd,46.006667,17.358056,2026-03-04 21:43:00.688869,7.13,6.34,7.13,7.13,1026,80,1.53,293,39,0.29,Rain,light rain,21
Barcs,45.951944,17.446944,2026-03-04 21:43:01.908758,7.22,6.64,7.22,7.22,1026,80,1.37,275,33,0.23,Rain,light rain,21
Barcs felső,45.958333,17.486389,2026-03-04 21:43:03.107217,7.16,7.16,7.16,7.16,1026,79,1.29,274,32,0.0,Clouds,scattered clouds,21
Középrigóc,45.970556,17.525,2026-03-04 21:43:04.306498,7.11,7.11,7.11,7.11,1026,79,1.21,274,31,0.0,Clouds,scattered clouds,21
Darány,45.992222,17.598611,2026-03-04 21:43:05.503970,7.15,7.15,7.15,7.15,1026,78,0.87,279,28,0.0,Clouds,scattered clouds,21
Kisdobsza,46.012222,17.668056,2026-03-04 21:43:06.698667,7.24,7.24,7.24,7.24,1026,78,0.63,286,27,0.0,Clouds,scattered clouds,21
Nemeske,46.023333,17.705278,2026-03-04 21:43:07.902026,7.29,7.29,7.29,7.29,1026,77,0.55,288,27,0.0,Clouds,scattered clouds,21
Molvány,46.035278,17.748611,2026-03-04 21:43:09.097505,7.26,7.26,7.26,7.26,1026,77,0.42,300,24,0.0,Clouds,few clouds,21
Szigetvár,46.043333,17.801944,2026-03-04 21:43:10.296518,7.26,7.26,7.26,7.26,1026,77,0.37,305,22,0.0,Clouds,few clouds,21
Nagypeterd,46.039444,17.871667,2026-03-04 21:43:11.510256,7.29,7.29,7.29,7.29,1026,77,0.31,312,16,0.0,Clouds,few clouds,21
Szentdénes,46.036667,17.926944,2026-03-04 21:43:12.710433,7.25,7.25,7.25,7.25,1026,77,0.31,312,14,0.0,Clouds,few clouds,21
Háros,47.412222,19.035,2026-03-04 21:43:13.914460,6.3,5.48,6.3,6.3,1025,69,1.46,314,99,0.0,Clouds,overcast clouds,21
Nagytétény-Diósd,47.398333,18.974444,2026-03-04 21:43:15.118064,6.6,5.68,6.6,6.6,1025,70,1.58,315,99,0.0,Clouds,overcast clouds,21
Érdliget,47.390278,18.937778,2026-03-04 21:43:16.319741,6.52,5.53,6.52,6.52,1025,70,1.63,319,98,0.0,Clouds,overcast clouds,21
Érd felső,47.381111,18.922222,2026-03-04 21:43:17.515718,6.18,5.08,6.18,6.18,1025,70,1.68,323,98,0.0,Clouds,overcast clouds,21
Érd,47.369722,18.900833,2026-03-04 21:43:18.719704,6.35,5.31,6.35,6.35,1025,71,1.65,320,99,0.0,Clouds,overcast clouds,21
Százhalombatta,47.322222,18.899167,2026-03-04 21:43:19.915724,6.38,5.44,6.38,6.38,1025,71,1.57,313,100,0.0,Clouds,overcast clouds,21
Dunai Finomító,47.294444,18.878889,2026-03-04 21:43:21.117897,6.27,5.52,6.27,6.27,1025,72,1.4,318,99,0.0,Clouds,overcast clouds,21
Ercsi,47.247222,18.875278,2026-03-04 21:43:22.320409,6.4,6.4,6.4,6.4,1025,72,1.32,313,100,0.0,Clouds,overcast clouds,21
Iváncsa,47.177778,18.811944,2026-03-04 21:43:23.514269,6.38,6.38,6.38,6.38,1025,73,1.05,305,100,0.0,Clouds,overcast clouds,21
Pusztaszabolcs,47.139722,18.761667,2026-03-04 21:43:24.709372,6.46,6.46,6.46,6.46,1025,74,1.05,299,100,0.0,Clouds,overcast clouds,21
Szabadegyháza,47.082778,18.704167,2026-03-04 21:43:25.908564,6.45,6.45,6.45,6.45,1025,75,1.19,302,100,0.0,Clouds,overcast clouds,21
Sárosd,47.039722,18.660278,2026-03-04 21:43:27.109034,6.52,5.89,6.52,6.52,1025,76,1.34,310,100,0.0,Clouds,overcast clouds,21
Nagylók,46.979444,18.635833,2026-03-04 21:43:28.312292,6.4,5.7,6.4,6.4,1026,78,1.38,303,100,0.0,Clouds,overcast clouds,21
Sárbogárd,46.896944,18.611944,2026-03-04 21:43:29.513580,6.63,6.63,6.63,6.63,1026,79,1.32,301,98,0.0,Clouds,overcast clouds,21
Rétszilas,46.814167,18.601389,2026-03-04 21:43:30.716571,6.69,6.69,6.69,6.69,1026,80,1.2,294,96,0.0,Clouds,overcast clouds,21
Nagyatád,46.228611,17.354167,2026-03-04 21:43:31.914211,6.92,5.47,6.92,6.92,1026,79,2.15,332,51,0.0,Clouds,broken clouds,21
Budapest-Keleti,47.500278,19.084167,2026-03-04 21:43:33.109831,6.36,6.36,6.36,6.36,1025,68,1.14,317,97,0.0,Clouds,overcast clouds,21
Ferencváros,47.468611,19.088056,2026-03-04 21:43:34.318874,6.52,6.52,6.52,6.52,1025,68,1.22,315,98,0.0,Clouds,overcast clouds,21
Budapest-Nyugati,47.510833,19.0575,2026-03-04 21:43:35.513461,6.31,6.31,6.31,6.31,1025,68,1.08,317,96,0.0,Clouds,overcast clouds,21
Kőbánya felső,47.491944,19.133889,2026-03-04 21:43:36.718998,6.34,6.34,6.34,6.34,1025,69,0.87,306,99,0.0,Clouds,overcast clouds,21
Rákos,47.488889,19.174722,2026-03-04 21:43:37.921553,6.3,6.3,6.3,6.3,1025,69,0.81,302,99,0.0,Clouds,overcast clouds,21
Rákosrendező,47.525556,19.089444,2026-03-04 21:43:39.124607,6.3,6.3,6.3,6.3,1025,68,0.89,310,97,0.0,Clouds,overcast clouds,21
Zugló,47.511389,19.101389,2026-03-04 21:43:40.323015,6.3,6.3,6.3,6.3,1025,68,0.89,310,97,0.0,Clouds,overcast clouds,21
Mezőtárkány,47.725,20.480278,2026-03-04 21:43:41.527190,7.37,6.61,7.37,7.37,1025,80,1.53,265,27,0.0,Clouds,scattered clouds,21
Istvántelek,47.550278,19.106389,2026-03-04 21:43:42.725608,6.21,6.21,6.21,6.21,1025,68,0.85,309,97,0.0,Clouds,overcast clouds,21
Rákospalota-Újpest,47.565833,19.111944,2026-03-04 21:43:43.927576,6.12,6.12,6.12,6.12,1025,69,0.85,305,96,0.0,Clouds,overcast clouds,21
Kőbánya alsó,47.483056,19.127222,2026-03-04 21:43:45.129890,6.34,6.34,6.34,6.34,1025,69,0.87,306,99,0.0,Clouds,overcast clouds,21
Kőbánya-Kispest,47.463889,19.149444,2026-03-04 21:43:46.330900,6.38,6.38,6.38,6.38,1025,69,0.96,304,99,0.0,Clouds,overcast clouds,21
Pestszentlőrinc,47.454722,19.182778,2026-03-04 21:43:47.530038,6.36,6.36,6.36,6.36,1025,70,1.0,298,100,0.0,Clouds,overcast clouds,21
Kispest,47.448135,19.157552,2026-03-04 21:43:48.727561,6.44,6.44,6.44,6.44,1025,69,1.07,302,99,0.0,Clouds,overcast clouds,21
Újpest,47.558889,19.079722,2026-03-04 21:43:49.930635,6.21,6.21,6.21,6.21,1025,69,1.03,315,95,0.0,Clouds,overcast clouds,21
Pestszentimre felső,47.413611,19.173333,2026-03-04 21:43:51.127039,6.37,6.37,6.37,6.37,1025,71,1.11,296,100,0.0,Clouds,overcast clouds,21
Dunakeszi,47.626111,19.136111,2026-03-04 21:43:52.328916,6.15,6.15,6.15,6.15,1025,70,0.89,295,95,0.0,Clouds,overcast clouds,21
Dunakeszi-Gyártelep,47.643611,19.135,2026-03-04 21:43:53.530592,6.22,6.22,6.22,6.22,1025,71,0.97,292,93,0.0,Clouds,overcast clouds,21
Alsógöd,47.676944,19.134444,2026-03-04 21:43:54.727239,6.25,6.25,6.25,6.25,1025,72,1.08,289,92,0.0,Clouds,overcast clouds,21
Göd,47.687778,19.1375,2026-03-04 21:43:55.927052,6.25,6.25,6.25,6.25,1025,72,1.08,289,92,0.0,Clouds,overcast clouds,21
Felsőgöd,47.705556,19.143333,2026-03-04 21:43:57.130011,6.34,6.34,6.34,6.34,1025,73,1.18,286,90,0.0,Clouds,overcast clouds,21
Sződ-Sződliget,47.728056,19.154722,2026-03-04 21:43:58.324802,6.37,6.37,6.37,6.37,1025,74,1.27,285,89,0.0,Clouds,overcast clouds,21
Vác,47.782778,19.133056,2026-03-04 21:43:59.526535,6.27,5.48,6.27,6.27,1025,75,1.43,282,85,0.0,Clouds,overcast clouds,21
Verőce,47.823889,19.029444,2026-03-04 21:44:00.729418,5.57,4.46,5.57,5.57,1025,76,1.61,284,75,0.0,Clouds,broken clouds,21
Kismaros,47.8275,19.010278,2026-03-04 21:44:01.940924,4.79,3.6,4.79,4.79,1025,76,1.58,284,75,0.0,Clouds,broken clouds,21
Nagymaros-Visegrád,47.791389,18.959167,2026-03-04 21:44:03.147955,5.18,4.27,5.18,5.18,1025,76,1.41,289,80,0.0,Clouds,broken clouds,21
Nagymaros,47.780278,18.952222,2026-03-04 21:44:04.352966,5.18,4.27,5.18,5.18,1025,76,1.41,289,80,0.0,Clouds,broken clouds,21
Zebegény,47.801389,18.908889,2026-03-04 21:44:05.552663,5.89,5.07,5.89,5.89,1025,77,1.42,288,79,0.0,Clouds,broken clouds,21
Szob,47.821111,18.861944,2026-03-04 21:44:06.753181,5.78,5.78,5.78,5.78,1025,77,1.33,289,78,0.0,Clouds,broken clouds,21
Alagimajor,47.601944,19.153889,2026-03-04 21:44:07.951638,6.2,6.2,6.2,6.2,1025,70,0.82,299,96,0.0,Clouds,overcast clouds,21
Fót,47.611389,19.181667,2026-03-04 21:44:09.159634,6.02,6.02,6.02,6.02,1025,70,0.86,293,96,0.0,Clouds,overcast clouds,21
Fótújfalu,47.615,19.192778,2026-03-04 21:44:10.364309,6.02,6.02,6.02,6.02,1025,70,0.86,293,96,0.0,Clouds,overcast clouds,21
Csomád,47.635556,19.222778,2026-03-04 21:44:11.569719,5.3,5.3,5.3,5.3,1025,71,0.85,291,97,0.0,Clouds,overcast clouds,21
Veresegyház,47.649167,19.288611,2026-03-04 21:44:12.767967,5.99,5.99,5.99,5.99,1025,72,0.96,286,100,0.0,Clouds,overcast clouds,21
Erdőkertes,47.662222,19.295833,2026-03-04 21:44:13.972488,5.99,5.99,5.99,5.99,1025,72,0.96,286,100,0.0,Clouds,overcast clouds,21
Őrbottyán,47.685833,19.283611,2026-03-04 21:44:15.165043,5.82,5.82,5.82,5.82,1025,72,1.06,286,100,0.0,Clouds,overcast clouds,21
Váchartyán,47.725833,19.248889,2026-03-04 21:44:16.367905,5.9,5.9,5.9,5.9,1025,73,1.21,285,96,0.0,Clouds,overcast clouds,21
Magyarkút-Verőce,47.826111,19.044444,2026-03-04 21:44:17.578784,5.57,4.46,5.57,5.57,1025,76,1.61,284,75,0.0,Clouds,broken clouds,21
Szokolya,47.871111,19.030556,2026-03-04 21:44:18.791907,4.89,3.56,4.89,4.89,1025,77,1.71,285,71,0.0,Clouds,broken clouds,21
Berkenye,47.885278,19.071944,2026-03-04 21:44:19.997311,5.63,4.4,5.63,5.63,1025,76,1.72,284,72,0.0,Clouds,broken clouds,21
Nógrád,47.901944,19.0475,2026-03-04 21:44:21.191923,5.25,3.95,5.25,5.25,1025,77,1.73,286,70,0.0,Clouds,broken clouds,21
Diósjenő,47.94,19.049444,2026-03-04 21:44:22.390604,4.89,3.51,4.89,4.89,1025,77,1.75,287,69,0.0,Clouds,broken clouds,21
Borsosberény,47.971389,19.093056,2026-03-04 21:44:23.586385,5.65,4.36,5.65,5.65,1025,76,1.78,288,71,0.0,Clouds,broken clouds,21
Nagyoroszi,47.993611,19.101111,2026-03-04 21:44:24.783087,5.51,4.18,5.51,5.51,1025,76,1.79,290,71,0.0,Clouds,broken clouds,21
Drégelyvár,48.001944,19.079444,2026-03-04 21:44:25.995923,5.73,4.47,5.73,5.73,1025,76,1.76,294,67,0.0,Clouds,broken clouds,21
Drégely,48.042222,19.056111,2026-03-04 21:44:27.197589,6.1,4.94,6.1,6.1,1025,76,1.72,297,67,0.0,Clouds,broken clouds,21
Drégelypalánk,48.055,19.046111,2026-03-04 21:44:28.399303,6.22,5.21,6.22,6.22,1025,77,1.61,300,67,0.0,Clouds,broken clouds,21
Ipolyvece,48.056944,19.106389,2026-03-04 21:44:29.596380,6.26,5.05,6.26,6.26,1025,76,1.79,299,71,0.0,Clouds,broken clouds,21
Dejtár,48.045556,19.196389,2026-03-04 21:44:30.793349,6.24,5.02,6.24,6.24,1025,76,1.8,295,75,0.0,Clouds,broken clouds,21
Ipolyszög,48.054444,19.221944,2026-03-04 21:44:31.991234,6.3,5.06,6.3,6.3,1025,76,1.82,298,77,0.0,Clouds,broken clouds,21
Iklad-Domony,47.658056,19.444444,2026-03-04 21:44:33.186404,6.32,6.32,6.32,6.32,1025,73,1.23,285,100,0.0,Clouds,overcast clouds,21
Iklad-Domony felső,47.667778,19.428056,2026-03-04 21:44:34.389079,6.28,6.28,6.28,6.28,1025,73,1.22,286,100,0.0,Clouds,overcast clouds,21
Galgamácsa,47.693889,19.3925,2026-03-04 21:44:35.594833,5.99,5.99,5.99,5.99,1025,73,1.19,286,100,0.0,Clouds,overcast clouds,21
Vácrátót,47.732778,19.217778,2026-03-04 21:44:36.795714,6.13,6.13,6.13,6.13,1025,73,1.24,284,93,0.0,Clouds,overcast clouds,21
Csörög,47.735833,19.196389,2026-03-04 21:44:37.996095,6.34,6.34,6.34,6.34,1025,73,1.25,284,91,0.0,Clouds,overcast clouds,21
Galgagyörk,47.735278,19.372222,2026-03-04 21:44:39.201874,6.08,6.08,6.08,6.08,1025,73,1.24,286,100,0.0,Clouds,overcast clouds,21
Püspökhatvan,47.768611,19.366944,2026-03-04 21:44:40.409090,6.12,6.12,6.12,6.12,1025,74,1.3,286,99,0.0,Clouds,overcast clouds,21
Acsa-Erdőkürt,47.801111,19.386111,2026-03-04 21:44:41.608666,5.98,5.98,5.98,5.98,1025,75,1.31,285,98,0.0,Clouds,overcast clouds,21
Galgaguta,47.848611,19.385556,2026-03-04 21:44:42.812026,5.72,5.72,5.72,5.72,1025,76,1.29,284,95,0.0,Clouds,overcast clouds,21
Nógrádkövesd,47.879444,19.371111,2026-03-04 21:44:44.013898,5.89,5.89,5.89,5.89,1025,76,1.28,284,94,0.0,Clouds,overcast clouds,21
Magyarnándor,47.970833,19.356667,2026-03-04 21:44:45.217024,5.77,5.02,5.77,5.77,1025,76,1.35,286,86,0.0,Clouds,overcast clouds,21
Mohora,47.995556,19.347778,2026-03-04 21:44:46.419829,5.91,5.13,5.91,5.91,1025,76,1.39,288,85,0.0,Clouds,overcast clouds,21
Szügy,48.036389,19.333056,2026-03-04 21:44:47.623793,6.16,5.26,6.16,6.16,1025,77,1.51,293,82,0.0,Clouds,broken clouds,21
Balassagyarmat,48.071111,19.293611,2026-03-04 21:44:48.821571,6.25,5.16,6.25,6.25,1025,76,1.68,297,81,0.0,Clouds,broken clouds,21
Őrhalom,48.078773,19.403936,2026-03-04 21:44:50.037861,6.08,5.36,6.08,6.08,1025,77,1.36,294,77,0.0,Clouds,broken clouds,21
Hugyag,48.083056,19.421111,2026-03-04 21:44:51.253880,6.08,5.36,6.08,6.08,1025,77,1.36,294,77,0.0,Clouds,broken clouds,21
Szécsény,48.093056,19.521111,2026-03-04 21:44:52.450826,6.4,6.4,6.4,6.4,1025,79,1.03,285,75,0.0,Clouds,broken clouds,21
Ludányhalászi,48.1325,19.529444,2026-03-04 21:44:53.659338,6.39,6.39,6.39,6.39,1025,78,1.13,290,63,0.0,Clouds,broken clouds,21
Nógrádszakál,48.178333,19.521667,2026-03-04 21:44:54.867379,6.36,6.36,6.36,6.36,1025,78,1.19,293,58,0.0,Clouds,broken clouds,21
Ráróspuszta,48.207222,19.541389,2026-03-04 21:44:56.068728,5.83,5.11,5.83,5.83,1025,78,1.34,298,50,0.0,Clouds,scattered clouds,21
Litke,48.215833,19.598611,2026-03-04 21:44:57.268494,6.39,6.39,6.39,6.39,1025,79,0.92,277,37,0.0,Clouds,scattered clouds,21
Nyíregyháza külső,47.943056,21.740278,2026-03-04 21:44:58.471895,6.37,4.56,6.37,6.37,1025,79,2.45,239,58,0.0,Clouds,broken clouds,21
Oros,47.945833,21.806389,2026-03-04 21:44:59.675572,6.32,4.49,6.32,6.32,1025,79,2.47,237,49,0.0,Clouds,scattered clouds,21
Napkor,47.948889,21.873056,2026-03-04 21:45:00.881119,6.29,4.49,6.29,6.29,1025,78,2.42,235,38,0.0,Clouds,scattered clouds,21
Apagy,47.953775,21.939044,2026-03-04 21:45:02.081840,6.26,4.46,6.26,6.26,1025,78,2.42,233,36,0.0,Clouds,scattered clouds,21
Levelek-Magy,47.948056,21.993611,2026-03-04 21:45:03.287231,6.16,4.34,6.16,6.16,1025,78,2.42,231,34,0.0,Clouds,scattered clouds,21
Ófehértó,47.940556,22.041389,2026-03-04 21:45:04.494443,6.04,4.15,6.04,6.04,1025,78,2.48,230,37,0.0,Clouds,scattered clouds,21
Ligettanya,47.951667,22.071389,2026-03-04 21:45:05.703892,5.99,4.16,5.99,5.99,1025,79,2.4,229,33,0.0,Clouds,scattered clouds,21
Baktalórántháza,47.988611,22.083333,2026-03-04 21:45:06.910968,6.01,4.21,6.01,6.01,1025,79,2.36,228,29,0.0,Clouds,scattered clouds,21
Vaja-Rohod,48.006389,22.164167,2026-03-04 21:45:08.112375,6.01,4.26,6.01,6.01,1025,79,2.31,224,25,0.0,Clouds,scattered clouds,21
Rákóczitanya,48.022222,22.178333,2026-03-04 21:45:09.320010,5.96,4.22,5.96,5.96,1025,79,2.28,222,25,0.0,Clouds,scattered clouds,21
Nyírmada,48.059167,22.203056,2026-03-04 21:45:10.524347,6.02,4.3,6.02,6.02,1025,79,2.27,217,22,0.0,Clouds,few clouds,21
Tunyogmatolcs,47.960244,22.442247,2026-03-04 21:45:11.724748,6.07,4.73,6.07,6.07,1025,80,1.89,220,31,0.0,Clouds,scattered clouds,21
Tunyogmatolcs alsó,47.966025,22.464713,2026-03-04 21:45:12.929608,6.04,4.76,6.04,6.04,1025,80,1.82,218,33,0.0,Clouds,scattered clouds,21
Fehérgyarmat,47.979167,22.524444,2026-03-04 21:45:14.129652,6.05,5.08,6.05,6.05,1025,79,1.55,206,43,0.0,Clouds,scattered clouds,21
Penyige,47.995278,22.566944,2026-03-04 21:45:15.333808,6.05,5.14,6.05,6.05,1025,79,1.5,202,49,0.0,Clouds,scattered clouds,21
Nagyszekeres,47.976111,22.6125,2026-03-04 21:45:16.542504,6.04,5.18,6.04,6.04,1025,79,1.46,198,56,0.0,Clouds,broken clouds,21
Kisszekeres,47.965833,22.629444,2026-03-04 21:45:17.745457,6.0,5.03,6.0,6.0,1025,79,1.55,206,59,0.0,Clouds,broken clouds,21
Jánkmajtis,47.941944,22.657222,2026-03-04 21:45:18.947473,5.97,4.88,5.97,5.97,1025,79,1.64,210,70,0.0,Clouds,broken clouds,21
Gacsály,47.926111,22.745,2026-03-04 21:45:20.150206,5.94,4.97,5.94,5.94,1025,78,1.54,201,88,0.0,Clouds,overcast clouds,21
Zajta,47.9025,22.796111,2026-03-04 21:45:21.350284,5.87,4.79,5.87,5.87,1025,78,1.62,204,97,0.0,Clouds,overcast clouds,21
Eperjeske alsó,48.360556,22.19,2026-03-04 21:45:22.553216,6.14,6.14,6.14,6.14,1025,80,0.75,129,54,0.0,Clouds,broken clouds,21
Mándok,48.326944,22.196389,2026-03-04 21:45:23.753557,6.15,6.15,6.15,6.15,1025,80,1.14,171,47,0.0,Clouds,scattered clouds,21
Tornyospálca,48.268333,22.201944,2026-03-04 21:45:24.954445,6.2,5.14,6.2,6.2,1025,80,1.65,188,41,0.0,Clouds,scattered clouds,21
Aranyosapáti,48.211303,22.253534,2026-03-04 21:45:26.151539,6.22,4.72,6.22,6.22,1025,79,2.07,184,28,0.0,Clouds,scattered clouds,21
Gyüre,48.171389,22.269167,2026-03-04 21:45:27.356212,6.19,4.61,6.19,6.19,1025,79,2.15,193,22,0.0,Clouds,few clouds,21
Varsány,48.151722,22.290047,2026-03-04 21:45:28.564441,6.17,4.61,6.17,6.17,1025,79,2.13,194,19,0.0,Clouds,few clouds,21
Vásárosnamény,48.126667,22.306111,2026-03-04 21:45:29.772712,6.16,4.61,6.16,6.16,1025,79,2.11,199,18,0.0,Clouds,few clouds,21
Vitka,48.095556,22.308056,2026-03-04 21:45:30.973663,6.14,4.62,6.14,6.14,1025,80,2.08,203,17,0.0,Clouds,few clouds,21
Nagydobos,48.054167,22.311111,2026-03-04 21:45:32.174612,6.06,4.53,6.06,6.06,1025,80,2.07,209,18,0.0,Clouds,few clouds,21
Ópályi,47.997778,22.318333,2026-03-04 21:45:33.377538,6.0,4.42,6.0,6.0,1025,80,2.12,221,27,0.0,Clouds,scattered clouds,21
Nyírcsaholy,47.908056,22.348333,2026-03-04 21:45:34.579963,6.0,4.26,6.0,6.0,1025,80,2.29,226,42,0.0,Clouds,scattered clouds,21
Nagyecsed,47.864722,22.385556,2026-03-04 21:45:35.782183,5.98,4.16,5.98,5.98,1025,80,2.38,227,50,0.0,Clouds,scattered clouds,21
Tiborszállás,47.815278,22.402778,2026-03-04 21:45:37.000785,5.95,3.99,5.95,5.95,1025,79,2.55,227,62,0.0,Clouds,broken clouds,21
Kiskunhalas,46.434444,19.493611,2026-03-04 21:45:38.203290,6.13,6.13,6.13,6.13,1026,69,1.13,326,46,0.0,Clouds,scattered clouds,21
Kecskemét alsó,46.895833,19.692222,2026-03-04 21:45:39.400062,6.31,4.47,6.31,6.31,1025,75,2.48,306,69,0.0,Clouds,broken clouds,21
Putnok,48.286667,20.4375,2026-03-04 21:45:40.597635,7.25,6.37,7.25,7.25,1025,85,1.62,222,26,0.0,Clouds,scattered clouds,21
Bánréve,48.299722,20.351944,2026-03-04 21:45:41.793436,7.23,6.48,7.23,7.23,1025,85,1.51,216,28,0.0,Clouds,scattered clouds,21
Ipolytarnóc,48.236667,19.629167,2026-03-04 21:45:42.997952,6.38,6.38,6.38,6.38,1025,79,0.88,271,30,0.0,Clouds,scattered clouds,21
Rákosliget,47.486111,19.257778,2026-03-04 21:45:44.202704,6.02,6.02,6.02,6.02,1025,71,0.72,286,100,0.0,Clouds,overcast clouds,21
Ikrény,47.657778,17.524167,2026-03-04 21:45:45.411081,5.94,4.2,5.94,5.94,1026,88,2.28,358,60,0.0,Clouds,broken clouds,21
Rábapatona,47.648889,17.461944,2026-03-04 21:45:46.608917,5.94,4.17,5.94,5.94,1026,88,2.31,0,60,0.0,Clouds,broken clouds,21
Enese,47.644167,17.425278,2026-03-04 21:45:47.812293,5.93,4.17,5.93,5.93,1026,88,2.3,1,59,0.0,Clouds,broken clouds,21
Kóny,47.632222,17.357222,2026-03-04 21:45:49.010274,5.91,4.07,5.91,5.91,1026,88,2.39,4,53,0.0,Clouds,broken clouds,21
Farád,47.595278,17.195833,2026-03-04 21:45:50.212941,5.89,3.96,5.89,5.89,1026,88,2.49,2,38,0.0,Clouds,scattered clouds,21
Rábatamási,47.592778,17.161389,2026-03-04 21:45:51.419958,5.89,3.96,5.89,5.89,1026,88,2.49,2,38,0.0,Clouds,scattered clouds,21
Szárföld,47.589167,17.123889,2026-03-04 21:45:52.624561,5.88,3.94,5.88,5.88,1026,88,2.5,0,38,0.0,Clouds,scattered clouds,21
Veszkény,47.586944,17.101389,2026-03-04 21:45:53.828684,5.88,3.94,5.88,5.88,1026,88,2.5,359,38,0.0,Clouds,scattered clouds,21
Kapuvár,47.581944,17.046944,2026-03-04 21:45:55.032932,5.86,3.87,5.86,5.86,1026,87,2.56,356,39,0.0,Clouds,scattered clouds,21
Vitnyéd-Csermajor,47.5825,16.987222,2026-03-04 21:45:56.230614,5.84,3.85,5.84,5.84,1027,87,2.55,353,40,0.0,Clouds,scattered clouds,21
Petőháza,47.595278,16.893056,2026-03-04 21:45:57.432803,5.85,3.92,5.85,5.85,1027,85,2.49,345,36,0.0,Clouds,scattered clouds,21
Fertőszentmiklós,47.6,16.858889,2026-03-04 21:45:58.648724,5.81,3.88,5.81,5.81,1027,85,2.48,342,35,0.0,Clouds,scattered clouds,21
Pinnye,47.600278,16.768611,2026-03-04 21:45:59.854976,5.64,3.76,5.64,5.64,1027,84,2.38,329,35,0.0,Clouds,scattered clouds,21
Fertőboz,47.625,16.691667,2026-03-04 21:46:01.063669,5.54,3.7,5.54,5.54,1027,84,2.31,320,36,0.0,Clouds,scattered clouds,21
Sopron,47.677778,16.587222,2026-03-04 21:46:02.261652,5.19,3.46,5.19,5.19,1027,85,2.13,302,31,0.0,Clouds,scattered clouds,21
Fertőszéplak-Fertőd,47.618889,16.850833,2026-03-04 21:46:03.469417,5.86,3.97,5.86,5.86,1027,85,2.44,338,33,0.0,Clouds,scattered clouds,21
Nyúl,47.587778,17.698056,2026-03-04 21:46:04.679605,5.97,4.5,5.97,5.97,1026,89,2.0,353,48,0.0,Clouds,scattered clouds,21
Pannonhalma,47.547778,17.740833,2026-03-04 21:46:05.884665,5.84,4.67,5.84,5.84,1026,89,1.7,345,43,0.0,Clouds,scattered clouds,21
Tarjánpuszta,47.504722,17.789167,2026-03-04 21:46:07.083020,5.81,4.85,5.81,5.81,1026,89,1.52,340,46,0.0,Clouds,scattered clouds,21
Győrasszonyfa,47.4925,17.799167,2026-03-04 21:46:08.283474,5.81,4.85,5.81,5.81,1026,89,1.52,340,46,0.0,Clouds,scattered clouds,21
Veszprémvarsány,47.443333,17.818333,2026-03-04 21:46:09.487392,5.77,4.89,5.77,5.77,1026,89,1.45,332,52,0.0,Clouds,broken clouds,21
Bakonyszentlászló,47.395556,17.8175,2026-03-04 21:46:10.691240,5.44,4.54,5.44,5.44,1026,89,1.43,326,58,0.0,Clouds,broken clouds,21
Porva-Csesznek,47.326944,17.841111,2026-03-04 21:46:11.898874,4.13,2.97,4.13,4.13,1026,89,1.49,321,65,0.0,Clouds,broken clouds,21
Zirc,47.266667,17.878056,2026-03-04 21:46:13.111824,4.27,2.82,4.27,4.27,1026,87,1.73,317,75,0.0,Clouds,broken clouds,21
Eplény,47.192778,17.921667,2026-03-04 21:46:14.314330,4.8,3.21,4.8,4.8,1026,86,1.93,318,82,0.0,Clouds,broken clouds,21
Marcaltő,47.4275,17.348889,2026-03-04 21:46:15.517046,5.95,3.9,5.95,5.95,1026,91,2.66,359,32,0.0,Clouds,scattered clouds,21
Szany-Rábaszentandrás,47.460833,17.315278,2026-03-04 21:46:16.714475,5.93,3.86,5.93,5.93,1026,90,2.68,3,32,0.0,Clouds,scattered clouds,21
Egyed-Rábacsanak,47.521944,17.316389,2026-03-04 21:46:17.916966,5.9,3.85,5.9,5.9,1026,90,2.65,5,35,0.0,Clouds,scattered clouds,21
Rábapordány,47.557222,17.315,2026-03-04 21:46:19.133054,5.92,3.9,5.92,5.92,1026,90,2.61,5,38,0.0,Clouds,scattered clouds,21
Albertfalva,47.440784,19.033965,2026-03-04 21:46:20.335995,6.46,5.75,6.46,6.46,1025,69,1.39,317,98,0.0,Clouds,overcast clouds,21
Budafok,47.425833,19.041389,2026-03-04 21:46:21.529958,6.3,5.48,6.3,6.3,1025,69,1.46,314,99,0.0,Clouds,overcast clouds,21
Tétényliget,47.384722,18.955278,2026-03-04 21:46:22.734008,6.52,5.53,6.52,6.52,1025,70,1.63,319,98,0.0,Clouds,overcast clouds,21
Érd alsó,47.379722,18.923056,2026-03-04 21:46:23.933195,6.18,5.08,6.18,6.18,1025,70,1.68,323,98,0.0,Clouds,overcast clouds,21
Tárnok,47.365556,18.873889,2026-03-04 21:46:25.134612,6.5,5.44,6.5,6.5,1025,71,1.69,329,97,0.0,Clouds,overcast clouds,21
Martonvásár,47.321389,18.781667,2026-03-04 21:46:26.336407,6.43,5.68,6.43,6.43,1025,72,1.42,330,98,0.0,Clouds,overcast clouds,21
Baracska,47.297222,18.753333,2026-03-04 21:46:27.537309,6.5,6.5,6.5,6.5,1025,72,1.24,330,99,0.0,Clouds,overcast clouds,21
Pettend,47.26,18.708889,2026-03-04 21:46:28.741892,6.37,6.37,6.37,6.37,1025,72,1.06,331,100,0.0,Clouds,overcast clouds,21
Kápolnásnyék,47.245556,18.692222,2026-03-04 21:46:29.942962,6.43,6.43,6.43,6.43,1025,72,0.99,328,100,0.0,Clouds,overcast clouds,21
Velence,47.226944,18.663889,2026-03-04 21:46:31.141750,6.5,6.5,6.5,6.5,1025,72,1.01,329,100,0.0,Clouds,overcast clouds,21
Velencefürdő,47.218611,18.648056,2026-03-04 21:46:32.340232,6.51,6.51,6.51,6.51,1025,72,1.01,326,100,0.0,Clouds,overcast clouds,21
Gárdony,47.205833,18.624722,2026-03-04 21:46:33.542262,6.53,6.53,6.53,6.53,1025,72,1.05,327,100,0.0,Clouds,overcast clouds,21
Agárd,47.197666,18.604907,2026-03-04 21:46:34.745639,6.53,6.53,6.53,6.53,1025,72,1.05,327,100,0.0,Clouds,overcast clouds,21
Dinnyés,47.179722,18.560833,2026-03-04 21:46:35.946431,6.53,6.53,6.53,6.53,1025,73,1.22,328,100,0.0,Clouds,overcast clouds,21
Székesfehérvár,47.183611,18.424722,2026-03-04 21:46:37.141364,6.49,5.53,6.49,6.49,1025,73,1.6,330,90,0.0,Clouds,overcast clouds,21
Szabadbattyán,47.105278,18.388333,2026-03-04 21:46:38.350025,6.47,5.56,6.47,6.47,1025,75,1.55,332,91,0.0,Clouds,overcast clouds,21
Kiscséripuszta,47.048056,18.355,2026-03-04 21:46:39.551189,6.29,5.47,6.29,6.29,1026,76,1.46,331,91,0.0,Clouds,overcast clouds,21
Lepsény,46.9875,18.248056,2026-03-04 21:46:40.753329,6.55,5.89,6.55,6.55,1026,77,1.36,326,90,0.0,Clouds,overcast clouds,21
Balatonaliga,46.984444,18.171389,2026-03-04 21:46:41.957230,6.32,5.57,6.32,6.32,1026,78,1.41,323,89,0.0,Clouds,overcast clouds,21
Balatonvilágos,46.964167,18.157222,2026-03-04 21:46:43.161238,6.66,5.94,6.66,6.66,1026,78,1.42,321,91,0.0,Clouds,overcast clouds,21
Szabadifürdő,46.926111,18.103333,2026-03-04 21:46:44.372396,6.67,5.93,6.67,6.67,1026,78,1.44,317,95,0.17,Rain,light rain,21
Ózd alsó,48.227778,20.306111,2026-03-04 21:46:45.576051,7.22,7.22,7.22,7.22,1025,86,1.32,223,18,0.0,Clouds,few clouds,21
Ózd,48.2225,20.294722,2026-03-04 21:46:46.781265,7.22,7.22,7.22,7.22,1025,86,1.32,223,18,0.0,Clouds,few clouds,21
Alsóboldva,48.212778,20.792222,2026-03-04 21:46:47.982861,7.49,6.09,7.49,7.49,1024,80,2.2,263,38,0.0,Clouds,scattered clouds,21
Boldva,48.223333,20.790278,2026-03-04 21:46:49.176546,7.49,6.09,7.49,7.49,1024,80,2.2,263,38,0.0,Clouds,scattered clouds,21
Borsodszirák,48.259167,20.770556,2026-03-04 21:46:50.384409,7.37,5.95,7.37,7.37,1024,81,2.2,257,47,0.0,Clouds,scattered clouds,21
Edelény alsó,48.279167,20.760833,2026-03-04 21:46:51.586431,7.37,5.95,7.37,7.37,1024,81,2.2,257,47,0.0,Clouds,scattered clouds,21
Edelény,48.299722,20.749444,2026-03-04 21:46:52.787172,7.24,5.87,7.24,7.24,1024,81,2.12,256,53,0.0,Clouds,broken clouds,21
Szendrőlád,48.334444,20.731944,2026-03-04 21:46:53.986883,6.04,4.7,6.04,6.04,1025,80,1.88,256,60,0.0,Clouds,broken clouds,21
Szendrő,48.400725,20.721346,2026-03-04 21:46:55.190804,6.78,5.98,6.78,6.78,1025,79,1.5,265,71,0.0,Clouds,broken clouds,21
Szendrő felső,48.409907,20.720148,2026-03-04 21:46:56.391594,6.78,5.98,6.78,6.78,1025,79,1.5,265,71,0.0,Clouds,broken clouds,21
Szalonna,48.449444,20.722222,2026-03-04 21:46:57.593334,6.67,6.67,6.67,6.67,1025,78,1.14,283,80,0.0,Clouds,broken clouds,21
Perkupa,48.471389,20.691111,2026-03-04 21:46:58.793513,5.9,5.9,5.9,5.9,1025,78,0.99,291,83,0.0,Clouds,broken clouds,21
Szemeretelep,47.443056,19.214167,2026-03-04 21:47:00.019903,6.3,6.3,6.3,6.3,1025,71,0.94,293,100,0.0,Clouds,overcast clouds,21
Jósvafő-Aggtelek,48.489722,20.693889,2026-03-04 21:47:01.227740,6.14,6.14,6.14,6.14,1025,78,0.93,307,87,0.0,Clouds,overcast clouds,21
Bódvaszilas,48.5375,20.738056,2026-03-04 21:47:02.431360,5.65,5.65,5.65,5.65,1025,78,0.98,325,91,0.0,Clouds,overcast clouds,21
Komjáti,48.5475,20.759722,2026-03-04 21:47:03.634907,5.11,5.11,5.11,5.11,1025,77,1.09,341,94,0.0,Clouds,overcast clouds,21
Tornanádaska,48.558333,20.787222,2026-03-04 21:47:04.871637,6.25,6.25,6.25,6.25,1025,77,1.12,345,95,0.0,Clouds,overcast clouds,21
Onga,48.121111,20.906667,2026-03-04 21:47:06.068032,7.53,6.59,7.53,7.53,1024,78,1.72,283,21,0.0,Clouds,few clouds,21
Szikszó-Vásártér,48.193056,20.934722,2026-03-04 21:47:07.269296,7.36,6.16,7.36,7.36,1024,79,1.95,269,43,0.0,Clouds,scattered clouds,21
Szikszó,48.201667,20.941667,2026-03-04 21:47:08.471317,7.34,6.22,7.34,7.34,1024,78,1.87,269,45,0.0,Clouds,scattered clouds,21
Aszaló,48.219867,20.961466,2026-03-04 21:47:09.675292,7.14,5.97,7.14,7.14,1024,79,1.89,266,52,0.0,Clouds,broken clouds,21
Halmaj,48.246667,20.991667,2026-03-04 21:47:10.871625,7.15,6.1,7.15,7.15,1024,79,1.77,265,61,0.0,Clouds,broken clouds,21
Csobád,48.277222,21.033889,2026-03-04 21:47:12.074765,7.05,6.2,7.05,7.05,1024,78,1.57,266,68,0.0,Clouds,broken clouds,21
Ináncs,48.291111,21.057778,2026-03-04 21:47:13.272351,6.88,6.88,6.88,6.88,1024,78,1.21,274,74,0.0,Clouds,broken clouds,21
Forró-Encs,48.3275,21.117778,2026-03-04 21:47:14.469653,6.72,6.72,6.72,6.72,1025,78,0.93,287,78,0.0,Clouds,broken clouds,21
Méra,48.363056,21.140278,2026-03-04 21:47:15.664550,6.33,6.33,6.33,6.33,1025,78,0.67,338,84,0.0,Clouds,broken clouds,21
Novajidrány,48.404444,21.170556,2026-03-04 21:47:16.864735,6.44,6.44,6.44,6.44,1025,79,0.87,7,87,0.0,Clouds,overcast clouds,21
Hernádszurdok,48.487222,21.213889,2026-03-04 21:47:18.068315,6.14,5.16,6.14,6.14,1025,80,1.57,34,95,0.0,Clouds,overcast clouds,21
Hidasnémeti,48.508333,21.229722,2026-03-04 21:47:19.278435,5.93,4.77,5.93,5.93,1025,81,1.7,37,98,0.0,Clouds,overcast clouds,21
Mád,48.19,21.268889,2026-03-04 21:47:20.491614,6.54,5.6,6.54,6.54,1025,77,1.59,283,70,0.0,Clouds,broken clouds,21
Rátka,48.215,21.230278,2026-03-04 21:47:21.700608,6.91,6.13,6.91,6.91,1025,78,1.5,283,68,0.0,Clouds,broken clouds,21
Tállya,48.226944,21.225278,2026-03-04 21:47:22.899476,6.91,6.13,6.91,6.91,1025,78,1.5,283,68,0.0,Clouds,broken clouds,21
Golop,48.242778,21.204167,2026-03-04 21:47:24.096356,6.94,6.28,6.94,6.94,1025,78,1.4,280,68,0.0,Clouds,broken clouds,21
Abaújszántó,48.286944,21.181667,2026-03-04 21:47:25.292683,6.54,6.54,6.54,6.54,1025,78,1.07,290,73,0.0,Clouds,broken clouds,21
Abaújszántói fürdő,48.268333,21.179722,2026-03-04 21:47:26.494105,6.85,6.85,6.85,6.85,1025,78,1.25,283,70,0.0,Clouds,broken clouds,21
Abaújkér,48.309444,21.198333,2026-03-04 21:47:27.695414,6.48,6.48,6.48,6.48,1025,78,0.88,301,76,0.0,Clouds,broken clouds,21
Boldogkőváralja,48.345,21.208889,2026-03-04 21:47:28.892719,6.35,6.35,6.35,6.35,1025,78,0.86,330,76,0.0,Clouds,broken clouds,21
Korlát-Vizsoly,48.365,21.219167,2026-03-04 21:47:30.093223,6.4,6.4,6.4,6.4,1025,79,0.87,351,80,0.0,Clouds,broken clouds,21
Fony,48.411389,21.242778,2026-03-04 21:47:31.295690,6.32,6.32,6.32,6.32,1025,79,1.2,21,88,0.0,Clouds,overcast clouds,21
Hejce-Vilmány,48.419444,21.245556,2026-03-04 21:47:32.498575,6.32,6.32,6.32,6.32,1025,79,1.2,21,88,0.0,Clouds,overcast clouds,21
Göncruszka,48.445,21.246944,2026-03-04 21:47:33.701836,6.23,5.49,6.23,6.23,1025,80,1.39,29,92,0.0,Clouds,overcast clouds,21
Gönc,48.470556,21.261389,2026-03-04 21:47:34.901204,6.1,5.09,6.1,6.1,1025,81,1.59,33,95,0.0,Clouds,overcast clouds,21
Zsujta,48.4925,21.265,2026-03-04 21:47:36.107636,6.03,4.87,6.03,6.03,1025,81,1.71,36,98,0.0,Clouds,overcast clouds,21
Bodrogkeresztúr,48.175556,21.354167,2026-03-04 21:47:37.308883,6.12,4.98,6.12,6.12,1025,77,1.71,282,75,0.0,Clouds,broken clouds,21
Szegi,48.201944,21.387778,2026-03-04 21:47:38.520514,6.56,5.53,6.56,6.56,1025,77,1.67,283,71,0.0,Clouds,broken clouds,21
Erdőbénye,48.218056,21.401944,2026-03-04 21:47:39.718456,6.85,5.94,6.85,6.85,1025,77,1.6,286,67,0.0,Clouds,broken clouds,21
Olaszliszka-Tolcsva,48.258333,21.448056,2026-03-04 21:47:40.916534,6.7,6.0,6.7,6.7,1025,77,1.41,300,64,0.0,Clouds,broken clouds,21
Bodrogolaszi,48.286944,21.512778,2026-03-04 21:47:42.118375,5.28,4.43,5.28,5.28,1025,78,1.38,311,66,0.0,Clouds,broken clouds,21
Sárospatak,48.325833,21.566111,2026-03-04 21:47:43.319306,6.44,5.56,6.44,6.44,1025,79,1.52,325,69,0.0,Clouds,broken clouds,21
Sátoraljaújhely,48.385833,21.657778,2026-03-04 21:47:44.517661,5.57,3.84,5.57,5.57,1025,82,2.2,353,82,0.0,Clouds,broken clouds,21
Vecsés,47.40855,19.25652,2026-03-04 21:47:45.722728,6.34,6.34,6.34,6.34,1025,72,0.96,281,100,0.0,Clouds,overcast clouds,21
Vecsés-Kertekalja,47.403333,19.271389,2026-03-04 21:47:46.921562,6.34,6.34,6.34,6.34,1025,72,0.96,281,100,0.0,Clouds,overcast clouds,21
Üllő,47.390833,19.348889,2026-03-04 21:47:48.123226,6.36,6.36,6.36,6.36,1025,73,1.02,267,100,0.0,Clouds,overcast clouds,21
Monor,47.34545,19.43701,2026-03-04 21:47:49.320334,6.18,6.18,6.18,6.18,1025,74,1.29,247,100,0.0,Clouds,overcast clouds,21
Pilis,47.279722,19.536389,2026-03-04 21:47:50.522244,6.02,5.14,6.02,6.02,1025,74,1.48,243,100,0.0,Clouds,overcast clouds,21
Albertirsa,47.240278,19.606389,2026-03-04 21:47:51.717160,6.02,4.65,6.02,6.02,1025,74,1.91,248,100,0.0,Clouds,overcast clouds,21
Ceglédbercel-Cserő,47.210278,19.686944,2026-03-04 21:47:52.919678,6.05,4.38,6.05,6.05,1025,74,2.22,255,97,0.0,Clouds,overcast clouds,21
Cegléd,47.182778,19.806111,2026-03-04 21:47:54.115577,6.11,4.11,6.11,6.11,1025,73,2.63,266,87,0.0,Clouds,overcast clouds,21
Abony,47.173056,20.016389,2026-03-04 21:47:55.316006,6.24,4.49,6.24,6.24,1025,72,2.35,272,65,0.0,Clouds,broken clouds,21
Szolnok,47.179167,20.175833,2026-03-04 21:47:56.518326,6.32,4.63,6.32,6.32,1025,72,2.3,265,60,0.0,Clouds,broken clouds,21
Szajol,47.170556,20.295278,2026-03-04 21:47:57.729196,6.35,4.58,6.35,6.35,1025,73,2.4,260,54,0.0,Clouds,broken clouds,21
Törökszentmiklós,47.170278,20.413611,2026-03-04 21:47:58.930788,6.41,4.55,6.41,6.41,1025,74,2.53,258,41,0.0,Clouds,scattered clouds,21
Rákoscsaba-Újtelep,47.4875,19.271944,2026-03-04 21:48:00.126465,6.02,6.02,6.02,6.02,1025,71,0.72,286,100,0.0,Clouds,overcast clouds,21
Rákoscsaba,47.492222,19.284722,2026-03-04 21:48:01.329039,6.11,6.11,6.11,6.11,1025,71,0.72,280,100,0.0,Clouds,overcast clouds,21
Pécel,47.493889,19.338889,2026-03-04 21:48:02.529012,5.99,5.99,5.99,5.99,1025,71,0.76,274,100,0.21,Rain,light rain,21
Isaszeg,47.537719,19.388955,2026-03-04 21:48:03.728431,5.82,5.82,5.82,5.82,1025,71,0.8,275,100,0.0,Clouds,overcast clouds,21
Gödöllő,47.592222,19.358611,2026-03-04 21:48:04.924274,5.67,5.67,5.67,5.67,1025,71,0.89,281,100,0.0,Clouds,overcast clouds,21
Máriabesnyő,47.595556,19.389722,2026-03-04 21:48:06.130683,5.67,5.67,5.67,5.67,1025,71,0.89,281,100,0.0,Clouds,overcast clouds,21
Bag,47.641111,19.471667,2026-03-04 21:48:07.335909,6.32,6.32,6.32,6.32,1025,73,1.23,285,100,0.0,Clouds,overcast clouds,21
Aszód,47.647467,19.492882,2026-03-04 21:48:08.540406,6.21,6.21,6.21,6.21,1025,73,1.3,286,100,0.0,Clouds,overcast clouds,21
Hévízgyörk,47.638611,19.526667,2026-03-04 21:48:09.738530,6.21,5.49,6.21,6.21,1025,73,1.37,287,99,0.0,Clouds,overcast clouds,21
Galgahévíz,47.6325,19.558333,2026-03-04 21:48:10.935670,6.41,5.55,6.41,6.41,1025,73,1.5,285,95,0.0,Clouds,overcast clouds,21
Tura,47.626389,19.5975,2026-03-04 21:48:12.137959,6.34,5.38,6.34,6.34,1025,73,1.58,286,92,0.0,Clouds,overcast clouds,21
Hatvan,47.663611,19.671389,2026-03-04 21:48:13.340659,6.5,5.47,6.5,6.5,1025,74,1.66,295,84,0.0,Clouds,broken clouds,21
Vámosgyörk,47.686111,19.927778,2026-03-04 21:48:14.541966,6.61,5.56,6.61,6.61,1025,75,1.69,289,81,0.0,Clouds,broken clouds,21
Adács,47.696389,19.975278,2026-03-04 21:48:15.745624,6.75,5.86,6.75,6.75,1025,76,1.57,291,80,0.0,Clouds,broken clouds,21
Karácsond,47.718056,20.048611,2026-03-04 21:48:16.943722,6.73,5.92,6.73,6.73,1025,77,1.5,295,77,0.0,Clouds,broken clouds,21
Ludas,47.723889,20.095556,2026-03-04 21:48:18.155314,6.99,6.39,6.99,6.99,1025,78,1.36,291,70,0.0,Clouds,broken clouds,21
Nagyút,47.72666666666667,20.161388888888887,2026-03-04 21:48:19.359236,7.0,7.0,7.0,7.0,1025,78,1.33,290,67,0.0,Clouds,broken clouds,21
Kál-Kápolna,47.734167,20.254167,2026-03-04 21:48:20.559681,7.12,7.12,7.12,7.12,1025,79,1.25,283,50,0.0,Clouds,scattered clouds,21
Füzesabony,47.751389,20.415278,2026-03-04 21:48:21.756469,7.35,6.76,7.35,7.35,1025,81,1.39,278,28,0.0,Clouds,scattered clouds,21
Szihalom,47.766944,20.491944,2026-03-04 21:48:22.956662,7.41,6.72,7.41,7.41,1025,81,1.48,278,24,0.0,Clouds,few clouds,21
Mezőkövesd,47.797222,20.5675,2026-03-04 21:48:24.161265,7.57,6.79,7.57,7.57,1025,81,1.58,273,29,0.0,Clouds,scattered clouds,21
Mezőkövesd felső,47.807222,20.591389,2026-03-04 21:48:25.364201,7.57,6.79,7.57,7.57,1025,81,1.58,273,29,0.0,Clouds,scattered clouds,21
Mezőkeresztes-Mezőnyárád,47.845556,20.670278,2026-03-04 21:48:26.566646,7.66,6.86,7.66,7.66,1024,81,1.61,277,31,0.0,Clouds,scattered clouds,21
Csincse,47.890833,20.764167,2026-03-04 21:48:27.765072,7.69,6.91,7.69,7.69,1024,80,1.59,276,26,0.0,Clouds,scattered clouds,21
Emőd,47.930556,20.822778,2026-03-04 21:48:28.965030,7.47,6.66,7.47,7.47,1024,80,1.59,291,13,0.0,Clouds,few clouds,21
Nyékládháza,47.9925,20.840556,2026-03-04 21:48:30.174814,7.7,6.86,7.7,7.7,1024,79,1.65,299,4,0.0,Clear,clear sky,21
Miskolc-Tiszai,48.098611,20.811389,2026-03-04 21:48:31.385857,7.66,6.55,7.66,7.66,1024,79,1.91,288,8,0.0,Clear,clear sky,21
Felsőzsolca,48.083611,20.866111,2026-03-04 21:48:32.586844,7.55,6.53,7.55,7.55,1024,79,1.8,289,10,0.0,Clear,clear sky,21
Hernádnémeti-Bőcs,48.051389,20.985,2026-03-04 21:48:33.788672,7.35,6.7,7.35,7.35,1024,79,1.44,295,18,0.0,Clouds,few clouds,21
Tiszalúc,48.039722,21.0575,2026-03-04 21:48:34.994915,7.22,7.22,7.22,7.22,1024,79,1.3,295,33,0.0,Clouds,scattered clouds,21
Taktaharkány,48.091667,21.128611,2026-03-04 21:48:36.196058,7.21,6.53,7.21,7.21,1024,79,1.45,289,48,0.0,Clouds,scattered clouds,21
Taktaszada,48.1125,21.149444,2026-03-04 21:48:37.393392,7.13,6.35,7.13,7.13,1025,78,1.52,284,58,0.0,Clouds,broken clouds,21
Szerencs,48.155556,21.214444,2026-03-04 21:48:38.589093,7.06,6.15,7.06,7.06,1025,78,1.63,282,71,0.0,Clouds,broken clouds,21
Mezőzombor,48.156944,21.267778,2026-03-04 21:48:39.789573,6.93,5.97,6.93,6.93,1025,78,1.65,282,73,0.0,Clouds,broken clouds,21
Tarcal,48.125,21.34,2026-03-04 21:48:40.990992,6.97,5.9,6.97,6.97,1025,78,1.76,279,83,0.0,Clouds,broken clouds,21
Tokaj,48.112778,21.406667,2026-03-04 21:48:42.191388,6.35,5.07,6.35,6.35,1025,78,1.87,273,84,0.0,Clouds,broken clouds,21
Rakamaz,48.12,21.475,2026-03-04 21:48:43.395449,6.84,5.61,6.84,6.84,1025,78,1.9,271,82,0.0,Clouds,broken clouds,21
Görögszállás,48.04,21.555,2026-03-04 21:48:44.612028,6.7,5.28,6.7,6.7,1025,79,2.07,259,89,0.0,Clouds,overcast clouds,21
Nyírtelek,48.005,21.615556,2026-03-04 21:48:45.810538,6.57,5.0,6.57,6.57,1025,79,2.21,251,77,0.0,Clouds,broken clouds,21
Rákoshegy,47.468611,19.245556,2026-03-04 21:48:47.012933,6.17,6.17,6.17,6.17,1025,70,0.79,285,100,0.0,Clouds,overcast clouds,21
Ecser,47.439444,19.318056,2026-03-04 21:48:48.209793,6.31,6.31,6.31,6.31,1025,71,0.86,277,100,0.0,Clouds,overcast clouds,21
Maglód,47.438889,19.340833,2026-03-04 21:48:49.412219,6.1,6.1,6.1,6.1,1025,71,0.88,270,100,0.0,Clouds,overcast clouds,21
Maglódi nyaraló,47.434167,19.363611,2026-03-04 21:48:50.612272,5.86,5.86,5.86,5.86,1025,72,0.93,264,100,0.0,Clouds,overcast clouds,21
Gyömrő,47.429722,19.393333,2026-03-04 21:48:51.812488,5.86,5.86,5.86,5.86,1025,72,0.93,264,100,0.0,Clouds,overcast clouds,21
Mende,47.426944,19.439722,2026-03-04 21:48:53.014901,5.79,5.79,5.79,5.79,1025,73,1.21,252,100,0.0,Clouds,overcast clouds,21
Szőlősnyaraló,47.450278,19.561111,2026-03-04 21:48:54.209655,6.13,5.1,6.13,6.13,1025,73,1.61,254,100,0.0,Clouds,overcast clouds,21
Sülysáp,47.451944,19.5275,2026-03-04 21:48:55.425228,6.04,5.29,6.04,6.04,1025,73,1.38,254,100,0.0,Clouds,overcast clouds,21
Tápiószecső,47.443056,19.614722,2026-03-04 21:48:56.630367,6.16,5.0,6.16,6.16,1025,73,1.73,255,100,0.0,Clouds,overcast clouds,21
Szentmártonkáta,47.431944,19.680556,2026-03-04 21:48:57.828171,6.08,4.67,6.08,6.08,1025,74,1.96,257,99,0.0,Clouds,overcast clouds,21
Nagykáta,47.409722,19.737778,2026-03-04 21:48:59.029000,6.03,4.47,6.03,6.03,1025,74,2.1,255,99,0.0,Clouds,overcast clouds,21
Farmos,47.355278,19.8375,2026-03-04 21:49:00.234552,5.82,3.97,5.82,5.82,1025,73,2.38,258,92,0.0,Clouds,overcast clouds,21
Tápiószele,47.346313,19.873504,2026-03-04 21:49:01.432582,5.71,3.83,5.71,5.71,1025,73,2.39,259,89,0.0,Clouds,overcast clouds,21
Tápiógyörgye,47.325,19.95,2026-03-04 21:49:02.640856,6.01,4.27,6.01,6.01,1025,73,2.3,262,79,0.56,Rain,light rain,21
Újszász,47.285833,20.066944,2026-03-04 21:49:03.841974,6.29,4.75,6.29,6.29,1025,73,2.13,266,67,0.0,Clouds,broken clouds,21
Szurdokpüspöki,47.851944,19.690278,2026-03-04 21:49:05.042177,6.53,6.53,6.53,6.53,1025,78,1.31,304,96,0.0,Clouds,overcast clouds,21
Lőrinci,47.739444,19.673611,2026-03-04 21:49:06.244379,6.5,5.54,6.5,6.5,1025,75,1.6,301,84,0.0,Clouds,broken clouds,21
Selyp,47.759167,19.670833,2026-03-04 21:49:07.449046,6.51,5.6,6.51,6.51,1025,75,1.56,303,85,0.0,Clouds,overcast clouds,21
Apc-Zagyvaszántó,47.791328,19.66822,2026-03-04 21:49:08.651208,6.54,5.69,6.54,6.54,1025,76,1.51,304,87,0.0,Clouds,overcast clouds,21
Pásztó,47.918889,19.688889,2026-03-04 21:49:09.859348,6.43,6.43,6.43,6.43,1025,79,1.14,301,100,0.0,Clouds,overcast clouds,21
Mátraszőlős-Hasznos,47.938506,19.706122,2026-03-04 21:49:11.061083,6.49,6.49,6.49,6.49,1025,80,1.1,298,100,0.0,Clouds,overcast clouds,21
Tar,47.956111,19.746389,2026-03-04 21:49:12.259392,6.13,6.13,6.13,6.13,1025,81,1.11,292,91,0.0,Clouds,overcast clouds,21
Mátraverebély,47.968333,19.778611,2026-03-04 21:49:13.461117,6.13,6.13,6.13,6.13,1025,81,1.11,292,91,0.0,Clouds,overcast clouds,21
Nagybátony,47.981111,19.82,2026-03-04 21:49:14.663337,6.36,6.36,6.36,6.36,1025,81,1.11,285,82,0.0,Clouds,broken clouds,21
Kisterenye,48.009444,19.831944,2026-03-04 21:49:15.870267,6.51,6.51,6.51,6.51,1025,82,1.14,277,69,0.0,Clouds,broken clouds,21
Kisterenye-Bányatelep,48.021389,19.831944,2026-03-04 21:49:17.070692,6.51,6.51,6.51,6.51,1025,82,1.14,277,69,0.0,Clouds,broken clouds,21
Salgótarján külső,48.089444,19.790833,2026-03-04 21:49:18.280932,5.94,5.94,5.94,5.94,1025,83,1.03,255,55,0.0,Clouds,broken clouds,21
Balatonfenyves GV,46.7125,17.479167,2026-03-04 21:49:19.481187,6.49,4.88,6.49,6.49,1026,86,2.24,324,66,0.0,Clouds,broken clouds,21
Várhegyalja,47.737778,18.366667,2026-03-04 21:49:20.683848,6.06,5.07,6.06,6.06,1026,80,1.57,321,55,0.0,Clouds,broken clouds,21
Imremajor,46.680556,17.499722,2026-03-04 21:49:21.891838,6.55,5.01,6.55,6.55,1026,86,2.18,324,65,0.0,Clouds,broken clouds,21
Rákospalota-Kertváros,47.578333,19.122778,2026-03-04 21:49:23.090122,6.12,6.12,6.12,6.12,1025,69,0.85,305,96,0.0,Clouds,overcast clouds,21
Vicziántelep,47.675833,19.286111,2026-03-04 21:49:24.285078,5.83,5.83,5.83,5.83,1025,72,1.06,286,100,0.0,Clouds,overcast clouds,21
Pálmajor,46.662831,17.457526,2026-03-04 21:49:25.486373,6.53,4.97,6.53,6.53,1026,86,2.2,327,59,0.0,Clouds,broken clouds,21
Somogyszentpál felső,46.649758,17.471404,2026-03-04 21:49:26.691759,6.56,5.08,6.56,6.56,1026,86,2.11,324,63,0.0,Clouds,broken clouds,21
Somogyszentpál,46.638611,17.478611,2026-03-04 21:49:27.890724,6.52,5.1,6.52,6.52,1026,86,2.04,324,61,0.0,Clouds,broken clouds,21
Rudnaykert,47.7175,19.257778,2026-03-04 21:49:29.092665,5.9,5.9,5.9,5.9,1025,73,1.21,285,96,0.0,Clouds,overcast clouds,21
Maroshegy,47.158333,18.406667,2026-03-04 21:49:30.299639,6.45,5.49,6.45,6.45,1025,74,1.59,331,91,0.0,Clouds,overcast clouds,21
Bánhida,47.573703,18.371737,2026-03-04 21:49:31.500130,5.9,4.99,5.9,5.9,1026,79,1.49,318,68,0.0,Clouds,broken clouds,21
Magyarkút,47.850278,19.045,2026-03-04 21:49:32.713093,5.54,4.37,5.54,5.54,1025,77,1.66,284,73,0.0,Clouds,broken clouds,21
Becske alsó,47.897222,19.364722,2026-03-04 21:49:33.918789,5.37,5.37,5.37,5.37,1025,77,1.27,284,92,0.0,Clouds,overcast clouds,21
Hosszúberek-Péteri,47.370556,19.389722,2026-03-04 21:49:35.123312,6.33,6.33,6.33,6.33,1025,73,1.1,260,100,0.0,Clouds,overcast clouds,21
Monorierdő,47.308889,19.499167,2026-03-04 21:49:36.327600,6.12,5.37,6.12,6.12,1025,74,1.39,244,100,0.0,Clouds,overcast clouds,21
Ceglédbercel,47.215833,19.658611,2026-03-04 21:49:37.525029,6.09,4.57,6.09,6.09,1025,73,2.07,253,98,0.0,Clouds,overcast clouds,21
Budai út,47.208333,19.731389,2026-03-04 21:49:38.739988,5.98,4.19,5.98,5.98,1025,73,2.35,257,96,0.0,Clouds,overcast clouds,21
Büdöskútpuszta,48.373056,20.726111,2026-03-04 21:49:39.942667,6.98,5.98,6.98,6.98,1025,80,1.7,259,66,0.0,Clouds,broken clouds,21
Bánrévei Vízmű,48.282778,20.368333,2026-03-04 21:49:41.145645,7.21,6.41,7.21,7.21,1025,85,1.55,217,27,0.0,Clouds,scattered clouds,21
Rákoskert,47.456389,19.296111,2026-03-04 21:49:42.348437,6.1,6.1,6.1,6.1,1025,71,0.79,278,100,0.0,Clouds,overcast clouds,21
Szirmabesenyő,48.146944,20.783056,2026-03-04 21:49:43.548824,7.12,5.81,7.12,7.12,1024,79,2.03,276,17,0.0,Clouds,few clouds,21
Kitérőgyár,47.766944,19.935278,2026-03-04 21:49:44.748184,6.55,5.62,6.55,6.55,1025,77,1.58,304,75,0.0,Clouds,broken clouds,21
Tápiószentmárton,47.373333,19.797778,2026-03-04 21:49:45.947463,5.75,3.91,5.75,5.75,1025,73,2.36,256,95,0.0,Clouds,overcast clouds,21
Zagyvarékas,47.244229,20.097435,2026-03-04 21:49:47.149580,6.35,4.79,6.35,6.35,1025,73,2.16,268,64,0.0,Clouds,broken clouds,21
Abonyi út,47.206401,20.125204,2026-03-04 21:49:48.352471,6.36,4.76,6.36,6.36,1025,73,2.21,268,63,0.0,Clouds,broken clouds,21
Jászkisér felső,47.438056,20.202222,2026-03-04 21:49:49.552034,6.54,5.08,6.54,6.54,1025,75,2.09,250,61,0.0,Clouds,broken clouds,21
Szellőhát,47.425556,20.188889,2026-03-04 21:49:50.748251,6.5,5.02,6.5,6.5,1025,74,2.1,251,61,0.0,Clouds,broken clouds,21
Szilvásvárad-Szalajkavölgy,48.0956,20.38272,2026-03-04 21:49:51.946482,6.42,6.42,6.42,6.42,1025,88,0.81,292,11,0.0,Clouds,few clouds,21
Vásárosnamény külső,48.084444,22.255556,2026-03-04 21:49:53.147496,5.99,4.39,5.99,5.99,1025,81,2.14,206,18,0.0,Clouds,few clouds,21
Újváros,46.660556,20.536111,2026-03-04 21:49:54.354042,6.4,4.89,6.4,6.4,1025,71,2.11,225,12,0.0,Clouds,few clouds,21
Városi park,46.697778,19.864722,2026-03-04 21:49:55.553908,6.11,4.32,6.11,6.11,1026,74,2.37,299,51,0.0,Clouds,broken clouds,21
Belsőkamaráspuszta,46.341944,20.848889,2026-03-04 21:49:56.756671,5.57,5.57,5.57,5.57,1025,71,1.16,202,30,0.0,Clouds,scattered clouds,21
Sajószöged,47.945278,20.981667,2026-03-04 21:49:57.956018,7.4,7.4,7.4,7.4,1025,79,1.23,285,6,0.0,Clear,clear sky,21
Kazincbarcika alsó,48.255278,20.649167,2026-03-04 21:49:59.155899,7.34,6.03,7.34,7.34,1025,84,2.07,250,27,0.0,Clouds,scattered clouds,21
Nyárjas,46.857778,19.923611,2026-03-04 21:50:00.364054,6.29,4.1,6.29,6.29,1026,73,2.94,289,57,0.0,Clouds,broken clouds,21
Pogonyipuszta,48.296389,20.381667,2026-03-04 21:50:01.569644,7.21,6.41,7.21,7.21,1025,85,1.55,217,27,0.0,Clouds,scattered clouds,21
Sióvölgy,46.911103,18.076964,2026-03-04 21:50:02.765436,6.66,5.82,6.66,6.66,1026,79,1.52,316,95,0.65,Rain,light rain,21
Répáspuszta,46.430278,17.847222,2026-03-04 21:50:03.971988,6.46,5.07,6.46,6.46,1026,83,2.0,302,61,0.0,Clouds,broken clouds,21
Virányos,48.066667,21.527222,2026-03-04 21:50:05.177230,6.72,5.33,6.72,6.72,1025,78,2.04,262,86,0.0,Clouds,overcast clouds,21
Füzesbokor,47.988611,21.6475,2026-03-04 21:50:06.379438,6.52,4.88,6.52,6.52,1025,80,2.28,247,73,0.0,Clouds,broken clouds,21
Kunfehértó,46.355833,19.417222,2026-03-04 21:50:07.580744,6.24,6.24,6.24,6.24,1026,69,0.49,293,44,0.0,Clouds,scattered clouds,21
Erdőszél,46.329444,19.395,2026-03-04 21:50:08.790448,6.16,6.16,6.16,6.16,1026,69,0.38,265,48,0.0,Clouds,scattered clouds,21
Jánoshalma,46.293056,19.330278,2026-03-04 21:50:09.997386,6.35,6.35,6.35,6.35,1026,68,0.67,217,47,0.0,Clouds,scattered clouds,21
Mélykút,46.213056,19.370556,2026-03-04 21:50:11.197565,6.43,6.43,6.43,6.43,1025,68,1.14,203,36,0.0,Clouds,scattered clouds,21
Bácsalmás,46.118056,19.346389,2026-03-04 21:50:12.396918,6.58,5.95,6.58,6.58,1025,67,1.34,204,34,0.0,Clouds,scattered clouds,21
Almás,46.116216,19.328803,2026-03-04 21:50:13.631549,6.58,5.95,6.58,6.58,1025,67,1.34,204,34,0.0,Clouds,scattered clouds,21
Bácsbokod-Bácsborsód,46.115833,19.16,2026-03-04 21:50:14.832625,6.75,5.92,6.75,6.75,1025,66,1.52,211,56,0.0,Clouds,broken clouds,21
Baja,46.187014,18.957602,2026-03-04 21:50:16.035979,7.03,6.31,7.03,7.03,1025,68,1.46,230,80,0.0,Clouds,broken clouds,21
Harkakötöny,46.458333,19.601944,2026-03-04 21:50:17.234323,6.2,5.5,6.2,6.2,1026,71,1.36,310,40,0.0,Clouds,scattered clouds,21
Tajó,46.473056,19.650556,2026-03-04 21:50:18.437254,6.22,5.52,6.22,6.22,1026,71,1.36,304,38,0.0,Clouds,scattered clouds,21
Kiskunmajsa,46.501667,19.728056,2026-03-04 21:50:19.638889,6.22,5.35,6.22,6.22,1026,71,1.49,298,37,0.0,Clouds,scattered clouds,21
Jászszentlászló,46.565833,19.753611,2026-03-04 21:50:20.839128,6.21,4.97,6.21,6.21,1026,73,1.81,302,41,0.0,Clouds,scattered clouds,21
Galambos,46.625,19.801111,2026-03-04 21:50:22.040549,6.15,4.7,6.15,6.15,1026,73,2.01,303,44,0.0,Clouds,scattered clouds,21
Pestszentimre,47.402222,19.188611,2026-03-04 21:50:23.248709,6.47,6.47,6.47,6.47,1025,70,1.21,294,100,0.0,Clouds,overcast clouds,21
Gyál felső,47.390278,19.204722,2026-03-04 21:50:24.449684,6.42,6.42,6.42,6.42,1025,71,1.14,289,100,0.0,Clouds,overcast clouds,21
Gyál,47.376667,19.219444,2026-03-04 21:50:25.645482,6.42,6.42,6.42,6.42,1025,71,1.14,289,100,0.0,Clouds,overcast clouds,21
Ócsa,47.301389,19.232222,2026-03-04 21:50:26.846207,6.49,6.49,6.49,6.49,1025,72,1.28,284,100,0.0,Clouds,overcast clouds,21
Inárcs-Kakucs,47.247222,19.317778,2026-03-04 21:50:28.044084,6.48,6.48,6.48,6.48,1025,73,0.94,263,100,0.0,Clouds,overcast clouds,21
Dabas,47.194722,19.328889,2026-03-04 21:50:29.245462,6.41,6.41,6.41,6.41,1025,73,0.64,237,100,0.0,Clouds,overcast clouds,21
Gyón,47.178333,19.355556,2026-03-04 21:50:30.446742,6.44,6.44,6.44,6.44,1025,73,0.48,214,100,0.0,Clouds,overcast clouds,21
Hernád,47.161389,19.4025,2026-03-04 21:50:31.660017,6.32,6.32,6.32,6.32,1025,73,0.75,215,98,0.0,Clouds,overcast clouds,21
Bakonygyirót,47.416389,17.811944,2026-03-04 21:50:32.861891,5.72,4.94,5.72,5.72,1026,89,1.37,334,54,0.0,Clouds,broken clouds,21
Vinye,47.360317,17.819635,2026-03-04 21:50:34.062202,5.31,4.38,5.31,5.31,1026,89,1.44,323,61,0.0,Clouds,broken clouds,21
Nemesgörzsöny,47.402924,17.376385,2026-03-04 21:50:35.264861,5.86,3.85,5.86,5.86,1026,91,2.59,360,35,0.0,Clouds,scattered clouds,21
Rábahíd,47.438618,17.337525,2026-03-04 21:50:36.467032,5.84,3.76,5.84,5.84,1026,91,2.67,1,31,0.0,Clouds,scattered clouds,21
Öskü,47.162222,18.076389,2026-03-04 21:50:37.671033,5.99,4.43,5.99,5.99,1026,81,2.09,323,82,0.0,Clouds,broken clouds,21
Márkó,47.1275,17.813889,2026-03-04 21:50:38.875811,5.0,3.48,5.0,5.0,1026,87,1.89,318,82,0.0,Clouds,broken clouds,21
Nemeskocs,47.203333,17.188889,2026-03-04 21:50:40.092447,5.8,3.6,5.8,5.8,1026,90,2.82,343,43,0.0,Clouds,scattered clouds,21
Zalagyömörő,47.011111,17.220833,2026-03-04 21:50:41.289908,5.85,3.83,5.85,5.85,1026,89,2.6,340,45,0.0,Clouds,scattered clouds,21
Rigács,47.061667,17.199167,2026-03-04 21:50:42.488873,5.79,3.75,5.79,5.79,1026,89,2.61,340,45,0.0,Clouds,scattered clouds,21
Kemenespálfa,47.139722,17.183056,2026-03-04 21:50:43.696847,5.81,3.69,5.81,5.81,1026,90,2.71,341,45,0.0,Clouds,scattered clouds,21
Lentiszombathely,46.611389,16.5725,2026-03-04 21:50:44.905955,5.87,4.6,5.87,5.87,1027,87,1.79,14,66,0.0,Clouds,broken clouds,21
Ortaháza,46.626667,16.685833,2026-03-04 21:50:46.110013,5.7,4.5,5.7,5.7,1027,88,1.7,10,54,0.0,Clouds,broken clouds,21
Rádiháza,46.654722,16.765833,2026-03-04 21:50:47.317584,5.66,4.4,5.66,5.66,1027,88,1.75,4,52,0.0,Clouds,broken clouds,21
Baktüttös,46.690833,16.826389,2026-03-04 21:50:48.515391,5.77,4.21,5.77,5.77,1026,88,2.06,355,58,0.0,Clouds,broken clouds,21
Budafa,46.851667,16.624722,2026-03-04 21:50:49.721593,5.59,3.95,5.59,5.59,1027,88,2.11,7,74,0.0,Clouds,broken clouds,21
Zalapatakalja,46.845556,16.603889,2026-03-04 21:50:50.923916,5.57,3.96,5.57,5.57,1027,87,2.07,9,70,0.0,Clouds,broken clouds,21
Tormásliget,47.430556,16.781667,2026-03-04 21:50:52.128642,5.39,3.27,5.39,5.39,1027,86,2.61,345,39,0.0,Clouds,scattered clouds,21
Belecska,46.64,18.411389,2026-03-04 21:50:53.331570,6.83,6.83,6.83,6.83,1026,78,1.33,296,100,0.0,Clouds,overcast clouds,21
Almár,47.956111,20.356944,2026-03-04 21:50:54.543236,6.77,6.14,6.77,6.77,1025,85,1.36,332,20,0.0,Clouds,few clouds,21
Vasútmúzeum,47.543889,19.099444,2026-03-04 21:50:55.739639,6.22,6.22,6.22,6.22,1025,68,0.85,309,97,0.0,Clouds,overcast clouds,21
Abda,47.690833,17.540556,2026-03-04 21:50:56.944310,5.83,4.14,5.83,5.83,1026,88,2.2,352,61,0.0,Clouds,broken clouds,21
Vadaspark,47.526111,18.949167,2026-03-04 21:50:58.146080,4.86,3.84,4.86,4.86,1025,69,1.46,326,94,0.0,Clouds,overcast clouds,21
Barosstelep,47.398889,18.989167,2026-03-04 21:50:59.348001,6.61,5.69,6.61,6.61,1025,70,1.58,315,99,0.0,Clouds,overcast clouds,21
Fegyvernek-Örményes,47.194444,20.5575,2026-03-04 21:51:00.559776,6.48,4.62,6.48,6.48,1025,75,2.54,256,29,0.0,Clouds,scattered clouds,21
Zagyvapálfalva,48.068889,19.785,2026-03-04 21:51:01.761889,6.16,6.16,6.16,6.16,1025,83,1.03,262,63,0.0,Clouds,broken clouds,21
Salgótarján,48.105556,19.807222,2026-03-04 21:51:02.962444,5.49,5.49,5.49,5.49,1025,83,1.02,248,45,0.0,Clouds,scattered clouds,21
Szabadisóstó,46.933889,18.118056,2026-03-04 21:51:04.173557,6.65,5.89,6.65,6.65,1026,78,1.45,319,93,0.12,Rain,light rain,21
Siófok,46.907778,18.053889,2026-03-04 21:51:05.370691,6.66,5.82,6.66,6.66,1026,79,1.52,316,95,0.55,Rain,light rain,21
Balatonszéplak felső,46.898056,18.018056,2026-03-04 21:51:06.573737,6.59,5.74,6.59,6.59,1026,79,1.52,313,97,0.62,Rain,light rain,21
Balatonszéplak alsó,46.891944,17.993333,2026-03-04 21:51:07.776863,6.67,5.8,6.67,6.67,1026,80,1.54,312,98,0.15,Rain,light rain,21
Zamárdi felső,46.886111,17.969444,2026-03-04 21:51:08.981870,6.65,5.76,6.65,6.65,1026,80,1.56,312,97,0.13,Rain,light rain,21
Zamárdi,46.88,17.944722,2026-03-04 21:51:10.187527,6.65,5.76,6.65,6.65,1026,80,1.56,312,97,0.0,Clouds,overcast clouds,21
Szántód,46.861944,17.899167,2026-03-04 21:51:11.387065,6.66,5.82,6.66,6.66,1026,81,1.52,309,97,0.0,Clouds,overcast clouds,21
Szőny-Déli,47.735278,18.141944,2026-03-04 21:51:12.586255,6.05,4.42,6.05,6.05,1026,84,2.18,330,49,0.0,Clouds,scattered clouds,21
Várpalota,47.194444,18.149167,2026-03-04 21:51:13.794716,5.73,4.03,5.73,5.73,1026,79,2.2,325,78,0.0,Clouds,broken clouds,21
Pétfürdő,47.1675,18.121389,2026-03-04 21:51:14.998749,6.16,4.59,6.16,6.16,1026,80,2.14,325,80,0.0,Clouds,broken clouds,21
Hajmáskér,47.141111,18.009444,2026-03-04 21:51:16.198697,5.73,4.15,5.73,5.73,1026,82,2.07,322,83,0.0,Clouds,broken clouds,21
Veszprém,47.118889,17.91,2026-03-04 21:51:17.404720,5.61,4.12,5.61,5.61,1026,85,1.96,319,85,0.0,Clouds,overcast clouds,21
Herend,47.136944,17.760278,2026-03-04 21:51:18.603978,4.88,3.38,4.88,4.88,1026,88,1.86,319,80,0.0,Clouds,broken clouds,21
Városlőd,47.144167,17.652778,2026-03-04 21:51:19.801983,4.59,3.19,4.59,4.59,1026,90,1.73,326,70,0.0,Clouds,broken clouds,21
Városlőd-Kislőd,47.133889,17.631111,2026-03-04 21:51:21.007585,5.04,3.61,5.04,5.04,1026,89,1.82,327,71,0.0,Clouds,broken clouds,21
Ajka,47.105902,17.572938,2026-03-04 21:51:22.207227,5.42,3.85,5.42,5.42,1026,90,2.01,335,61,0.0,Clouds,broken clouds,21
Ajka-Gyártelep,47.096806,17.555219,2026-03-04 21:51:23.402905,5.42,3.85,5.42,5.42,1026,90,2.01,335,61,0.0,Clouds,broken clouds,21
Devecser,47.1125,17.435278,2026-03-04 21:51:24.614939,5.71,4.01,5.71,5.71,1026,90,2.19,338,52,0.0,Clouds,broken clouds,21
Somlóvásárhely,47.124444,17.369167,2026-03-04 21:51:25.815276,5.71,3.84,5.71,5.71,1026,90,2.38,339,46,0.0,Clouds,scattered clouds,21
Tüskevár,47.128611,17.331389,2026-03-04 21:51:27.020240,5.79,3.88,5.79,5.79,1026,90,2.45,339,44,0.0,Clouds,scattered clouds,21
Karakószörcsök,47.133611,17.287778,2026-03-04 21:51:28.218464,5.81,3.84,5.81,5.81,1026,90,2.53,339,43,0.0,Clouds,scattered clouds,21
Kerta,47.151944,17.237222,2026-03-04 21:51:29.416730,5.85,3.73,5.85,5.85,1026,90,2.72,340,44,0.0,Clouds,scattered clouds,21
Boba,47.183333,17.191389,2026-03-04 21:51:30.623773,5.79,3.61,5.79,5.79,1026,90,2.79,342,44,0.0,Clouds,scattered clouds,21
Börgönd,47.140278,18.515,2026-03-04 21:51:31.832911,6.41,5.72,6.41,6.41,1025,74,1.37,328,100,0.0,Clouds,overcast clouds,21
Belsőbáránd,47.102778,18.499722,2026-03-04 21:51:33.037735,6.38,5.6,6.38,6.38,1025,74,1.44,330,99,0.0,Clouds,overcast clouds,21
Zichyújfalu,47.124444,18.6725,2026-03-04 21:51:34.239672,6.41,6.41,6.41,6.41,1025,74,1.1,312,100,0.0,Clouds,overcast clouds,21
Seregélyes,47.121111,18.580556,2026-03-04 21:51:35.439992,6.55,6.55,6.55,6.55,1025,74,1.31,326,100,0.0,Clouds,overcast clouds,21
Polgárdi-Ipartelepek,47.079167,18.314444,2026-03-04 21:51:36.641452,6.1,5.18,6.1,6.1,1026,76,1.52,330,88,0.0,Clouds,overcast clouds,21
Polgárdi,47.07,18.284167,2026-03-04 21:51:37.841245,6.1,5.18,6.1,6.1,1026,76,1.52,330,88,0.0,Clouds,overcast clouds,21
Füle,47.05,18.255278,2026-03-04 21:51:39.036572,6.08,5.22,6.08,6.08,1026,77,1.47,328,88,0.0,Clouds,overcast clouds,21
Zánka-Erzsébettábor,46.8775,17.709167,2026-03-04 21:51:40.239733,6.54,5.42,6.54,6.54,1026,84,1.75,316,85,0.0,Clouds,overcast clouds,21
Csajág,47.033889,18.186389,2026-03-04 21:51:41.438207,6.23,5.4,6.23,6.23,1026,78,1.46,324,87,0.0,Clouds,overcast clouds,21
Balatonakarattya,47.017222,18.167778,2026-03-04 21:51:42.639722,6.23,5.4,6.23,6.23,1026,78,1.46,324,87,0.0,Clouds,overcast clouds,21
Csittényhegy,47.025278,18.1375,2026-03-04 21:51:43.837638,6.46,5.6,6.46,6.46,1026,78,1.51,323,87,0.0,Clouds,overcast clouds,21
Balatonkenese,47.0325,18.105556,2026-03-04 21:51:45.034120,6.58,5.65,6.58,6.58,1026,79,1.58,322,87,0.0,Clouds,overcast clouds,21
Balatonfűzfő,47.060278,18.0425,2026-03-04 21:51:46.242658,6.28,5.04,6.28,6.28,1026,80,1.82,321,87,0.0,Clouds,overcast clouds,21
Balatonalmádi,47.028333,18.015,2026-03-04 21:51:47.443962,6.5,5.37,6.5,6.5,1026,80,1.75,321,88,0.0,Clouds,overcast clouds,21
Káptalanfüred,47.008889,18.003889,2026-03-04 21:51:48.653016,5.63,4.38,5.63,5.63,1026,81,1.74,319,90,0.0,Clouds,overcast clouds,21
Alsóörs,46.985278,17.974722,2026-03-04 21:51:49.855303,5.63,4.38,5.63,5.63,1026,81,1.74,319,90,0.11,Rain,light rain,21
Csopak,46.974722,17.931111,2026-03-04 21:51:51.052926,5.98,4.72,5.98,5.98,1026,82,1.8,317,92,0.42,Rain,light rain,21
Balatonarács,46.9625,17.8975,2026-03-04 21:51:52.253837,5.98,4.72,5.98,5.98,1026,82,1.8,317,92,0.18,Rain,light rain,21
Balatonfüred,46.955833,17.883056,2026-03-04 21:51:53.459227,6.39,5.22,6.39,6.39,1026,83,1.77,316,92,0.18,Rain,light rain,21
Aszófő,46.925556,17.8325,2026-03-04 21:51:54.661277,6.36,5.23,6.36,6.36,1026,83,1.73,315,92,0.0,Clouds,overcast clouds,21
Örvényes,46.9125,17.818056,2026-03-04 21:51:55.865827,6.36,5.23,6.36,6.36,1026,83,1.73,315,92,0.0,Clouds,overcast clouds,21
Balatonudvari,46.904722,17.808056,2026-03-04 21:51:57.067710,5.82,4.57,5.82,5.82,1026,84,1.76,316,91,0.0,Clouds,overcast clouds,21
Fövenyes,46.893611,17.789444,2026-03-04 21:51:58.265494,6.48,5.42,6.48,6.48,1026,83,1.68,314,92,0.0,Clouds,overcast clouds,21
Balatonakali-Dörgicse,46.88,17.747778,2026-03-04 21:51:59.462622,6.1,4.95,6.1,6.1,1026,84,1.71,315,89,0.0,Clouds,overcast clouds,21
Zánka-Köveskál,46.872778,17.687778,2026-03-04 21:52:00.668954,6.12,4.85,6.12,6.12,1026,85,1.83,318,83,0.0,Clouds,broken clouds,21
Balatonszepezd,46.851111,17.663056,2026-03-04 21:52:01.872876,6.54,5.39,6.54,6.54,1026,85,1.77,316,83,0.0,Clouds,broken clouds,21
Szepezdfürdő,46.839722,17.649444,2026-03-04 21:52:03.075279,5.48,4.05,5.48,5.48,1026,85,1.88,318,81,0.0,Clouds,broken clouds,21
Révfülöp,46.829167,17.632222,2026-03-04 21:52:04.276714,5.48,4.05,5.48,5.48,1026,85,1.88,318,81,0.0,Clouds,broken clouds,21
Balatonrendes,46.824722,17.582778,2026-03-04 21:52:05.487607,6.1,4.48,6.1,6.1,1026,86,2.18,323,73,0.0,Clouds,broken clouds,21
Ábrahámhegy,46.815,17.572222,2026-03-04 21:52:06.714503,6.1,4.48,6.1,6.1,1026,86,2.18,323,73,0.0,Clouds,broken clouds,21
Badacsonyörs,46.805556,17.531667,2026-03-04 21:52:07.918546,6.33,4.65,6.33,6.33,1026,86,2.29,325,69,0.0,Clouds,broken clouds,21
Kisújszállás,47.223889,20.751111,2026-03-04 21:52:09.121357,6.52,4.77,6.52,6.52,1025,75,2.41,250,20,0.0,Clouds,few clouds,21
Karcag,47.303333,20.928056,2026-03-04 21:52:10.323690,6.5,4.89,6.5,6.5,1025,77,2.25,246,9,0.0,Clear,clear sky,21
Püspökladány,47.3275,21.128889,2026-03-04 21:52:11.528611,6.41,4.88,6.41,6.41,1025,78,2.14,245,13,0.0,Clouds,few clouds,21
Kaba,47.368889,21.259444,2026-03-04 21:52:12.728667,6.22,4.72,6.22,6.22,1025,79,2.07,245,22,0.0,Clouds,few clouds,21
Hajdúszoboszló,47.429444,21.406944,2026-03-04 21:52:13.937032,5.85,4.3,5.85,5.85,1025,81,2.06,243,24,0.0,Clouds,few clouds,21
Ebes,47.462778,21.488889,2026-03-04 21:52:15.145855,5.59,3.98,5.59,5.59,1025,81,2.08,240,23,0.0,Clouds,few clouds,21
Debrecen,47.520278,21.628611,2026-03-04 21:52:16.341671,5.2,3.5,5.2,5.2,1025,82,2.1,234,27,0.0,Clouds,scattered clouds,21
Debrecen-Csapókert,47.540556,21.648056,2026-03-04 21:52:17.542972,5.22,3.49,5.22,5.22,1025,82,2.14,232,32,0.0,Clouds,scattered clouds,21
Apafa,47.584045,21.655858,2026-03-04 21:52:18.745682,5.3,3.52,5.3,5.3,1025,82,2.2,231,36,0.0,Clouds,scattered clouds,21
Bocskaikert,47.6425,21.666389,2026-03-04 21:52:19.948018,5.43,3.54,5.43,5.43,1025,81,2.35,230,52,0.0,Clouds,broken clouds,21
Hajdúhadház,47.686944,21.679167,2026-03-04 21:52:21.156943,5.59,3.67,5.59,5.59,1025,81,2.42,230,57,0.0,Clouds,broken clouds,21
Téglás,47.714722,21.684722,2026-03-04 21:52:22.355868,5.69,3.75,5.69,5.69,1025,81,2.46,229,61,0.0,Clouds,broken clouds,21
Újfehértó,47.814444,21.706389,2026-03-04 21:52:23.554120,6.1,4.14,6.1,6.1,1025,80,2.58,232,72,0.0,Clouds,broken clouds,21
Nyíregyháza,47.946667,21.705556,2026-03-04 21:52:24.749663,6.37,4.59,6.37,6.37,1025,80,2.42,241,70,0.0,Clouds,broken clouds,21
Sóstó,47.998051,21.729047,2026-03-04 21:52:25.955761,6.37,4.66,6.37,6.37,1025,80,2.33,243,54,0.0,Clouds,broken clouds,21
Sóstóhegy,48.012222,21.742778,2026-03-04 21:52:27.162213,6.48,4.85,6.48,6.48,1025,80,2.27,244,53,0.0,Clouds,broken clouds,21
Kemecse,48.065556,21.801667,2026-03-04 21:52:28.359766,6.46,4.91,6.46,6.46,1025,79,2.17,242,43,0.0,Clouds,scattered clouds,21
Nyírbogdány,48.082222,21.855278,2026-03-04 21:52:29.555549,6.41,4.89,6.41,6.41,1025,79,2.13,240,42,0.0,Clouds,scattered clouds,21
Kék,48.093333,21.883889,2026-03-04 21:52:30.752619,6.4,4.81,6.4,6.4,1025,80,2.2,234,38,0.0,Clouds,scattered clouds,21
Demecser,48.111667,21.926667,2026-03-04 21:52:31.958014,6.38,4.82,6.38,6.38,1025,80,2.17,230,39,0.0,Clouds,scattered clouds,21
Gégény,48.128333,21.951944,2026-03-04 21:52:33.163404,6.34,4.79,6.34,6.34,1025,80,2.15,226,41,0.0,Clouds,scattered clouds,21
Pátroha,48.158611,21.996667,2026-03-04 21:52:34.367174,6.34,4.82,6.34,6.34,1025,80,2.11,222,43,0.0,Clouds,scattered clouds,21
Ajak,48.1865,22.048972,2026-03-04 21:52:35.572083,6.32,4.87,6.32,6.32,1025,80,2.04,218,45,0.0,Clouds,scattered clouds,21
Kisvárda,48.208333,22.078333,2026-03-04 21:52:36.770320,6.3,4.91,6.3,6.3,1025,80,1.97,209,43,0.0,Clouds,scattered clouds,21
Kisvárda-Hármasút,48.228333,22.091944,2026-03-04 21:52:37.976283,6.3,4.91,6.3,6.3,1025,80,1.97,209,43,0.0,Clouds,scattered clouds,21
Fényeslitke,48.267222,22.107222,2026-03-04 21:52:39.183402,6.22,5.29,6.22,6.22,1025,81,1.54,199,47,0.0,Clouds,scattered clouds,21
Komoró,48.305278,22.118056,2026-03-04 21:52:40.381279,6.23,6.23,6.23,6.23,1025,81,1.23,193,50,0.0,Clouds,scattered clouds,21
Tuzsér,48.342222,22.131667,2026-03-04 21:52:41.589676,6.15,6.15,6.15,6.15,1025,81,0.57,165,56,0.0,Clouds,broken clouds,21
Tiszabezdéd,48.371389,22.145,2026-03-04 21:52:42.792405,6.12,6.12,6.12,6.12,1025,81,0.58,125,56,0.0,Clouds,broken clouds,21
Záhony,48.402222,22.183611,2026-03-04 21:52:43.993681,6.06,6.06,6.06,6.06,1025,81,0.78,97,57,0.0,Clouds,broken clouds,21
Karcag-Vásártér,47.3225,20.9075,2026-03-04 21:52:45.190105,6.5,4.89,6.5,6.5,1025,77,2.25,246,9,0.0,Clear,clear sky,21
Berekfürdő,47.374722,20.827222,2026-03-04 21:52:46.391737,6.59,5.05,6.59,6.59,1025,78,2.18,250,10,0.0,Clear,clear sky,21
Kunmadaras,47.415278,20.793056,2026-03-04 21:52:47.590378,6.65,5.22,6.65,6.65,1025,79,2.07,251,7,0.0,Clear,clear sky,21
Tiszaszentimre,47.490833,20.733056,2026-03-04 21:52:48.791465,6.82,5.57,6.82,6.82,1025,79,1.92,249,10,0.0,Clear,clear sky,21
Tiszaszőlős,47.555556,20.728056,2026-03-04 21:52:50.002279,6.91,5.68,6.91,6.91,1025,80,1.91,246,16,0.0,Clouds,few clouds,21
Hosszúhát,47.235556,21.101944,2026-03-04 21:52:51.203381,6.36,4.8,6.36,6.36,1025,76,2.16,242,7,0.0,Clear,clear sky,21
Szerep,47.234444,21.145833,2026-03-04 21:52:52.405968,6.34,4.82,6.34,6.34,1025,76,2.12,242,8,0.0,Clear,clear sky,21
Sárrétudvari,47.231667,21.180833,2026-03-04 21:52:53.613870,6.3,4.8,6.3,6.3,1025,77,2.09,242,9,0.0,Clear,clear sky,21
Biharnagybajom,47.208889,21.221944,2026-03-04 21:52:54.816599,6.26,4.83,6.26,6.26,1025,77,2.01,242,11,0.0,Clouds,few clouds,21
Füzesgyarmat,47.113056,21.194444,2026-03-04 21:52:56.014803,6.26,4.88,6.26,6.26,1025,76,1.96,240,7,0.0,Clear,clear sky,21
Füzesgyarmatfürdő,47.093787,21.201582,2026-03-04 21:52:57.216386,6.26,4.88,6.26,6.26,1025,76,1.96,240,7,0.0,Clear,clear sky,21
Báránd,47.299722,21.235278,2026-03-04 21:52:58.423982,6.29,4.79,6.29,6.29,1025,78,2.08,244,17,0.0,Clouds,few clouds,21
Sáp,47.259722,21.360556,2026-03-04 21:52:59.625059,6.17,4.77,6.17,6.17,1025,78,1.96,242,15,0.0,Clouds,few clouds,21
Berettyóújfalu,47.211944,21.535556,2026-03-04 21:53:00.820450,6.07,4.89,6.07,6.07,1025,78,1.74,233,20,0.0,Clouds,few clouds,21
Mezőpeterd,47.176111,21.625278,2026-03-04 21:53:02.022698,6.06,4.94,6.06,6.06,1025,78,1.68,223,25,0.0,Clouds,scattered clouds,21
Biharkeresztes,47.135556,21.721389,2026-03-04 21:53:03.224344,6.04,4.94,6.04,6.04,1025,78,1.66,202,37,0.0,Clouds,scattered clouds,21
Tócóvölgy,47.529444,21.588889,2026-03-04 21:53:04.442779,5.3,3.61,5.3,5.3,1025,82,2.11,235,27,0.0,Clouds,scattered clouds,21
Sáregres,46.7825,18.588889,2026-03-04 21:53:05.642671,6.69,6.69,6.69,6.69,1026,80,1.18,294,96,0.0,Clouds,overcast clouds,21
Simontornya,46.756582,18.540674,2026-03-04 21:53:06.863112,6.63,6.63,6.63,6.63,1026,80,1.25,299,95,0.0,Clouds,overcast clouds,21
Tolnanémedi,46.727778,18.475833,2026-03-04 21:53:08.062309,6.72,6.72,6.72,6.72,1026,80,1.28,300,96,0.0,Clouds,overcast clouds,21
Pincehely,46.681389,18.43,2026-03-04 21:53:09.262230,6.66,6.0,6.66,6.66,1026,79,1.37,299,100,0.0,Clouds,overcast clouds,21
Keszőhidegkút-Gyönk,46.597778,18.426111,2026-03-04 21:53:10.465071,6.78,6.78,6.78,6.78,1026,78,1.32,294,100,0.0,Clouds,overcast clouds,21
Szárazd,46.575556,18.420833,2026-03-04 21:53:11.665394,6.84,6.84,6.84,6.84,1026,78,1.3,293,100,0.0,Clouds,overcast clouds,21
Regöly,46.568889,18.396111,2026-03-04 21:53:12.872731,6.84,6.84,6.84,6.84,1026,78,1.3,293,100,0.0,Clouds,overcast clouds,21
Szakály-Hőgyész,46.523611,18.389444,2026-03-04 21:53:14.073550,6.81,6.81,6.81,6.81,1026,77,1.29,289,100,0.0,Clouds,overcast clouds,21
Dúzs,46.493889,18.377222,2026-03-04 21:53:15.275429,6.88,6.88,6.88,6.88,1026,77,1.29,288,100,0.0,Clouds,overcast clouds,21
Csibrák,46.466667,18.336389,2026-03-04 21:53:16.479837,6.97,6.97,6.97,6.97,1026,77,1.3,285,100,0.0,Clouds,overcast clouds,21
Kurd,46.449167,18.319167,2026-03-04 21:53:17.683628,6.65,6.65,6.65,6.65,1026,77,1.32,284,98,0.0,Clouds,overcast clouds,21
Döbrököz,46.418889,18.255,2026-03-04 21:53:18.891720,6.96,6.37,6.96,6.96,1026,77,1.35,282,92,0.0,Clouds,overcast clouds,21
Dombóvár,46.37,18.149722,2026-03-04 21:53:20.092947,6.93,6.28,6.93,6.93,1026,79,1.39,283,72,0.0,Clouds,broken clouds,21
Dombóvár alsó,46.363889,18.134167,2026-03-04 21:53:21.294419,6.93,6.28,6.93,6.93,1026,79,1.39,283,72,0.0,Clouds,broken clouds,21
Somoskőújfalu,48.154722,19.815556,2026-03-04 21:53:22.498161,4.37,4.37,4.37,4.37,1025,83,1.03,239,29,0.0,Clouds,scattered clouds,21
Jászfényszaru,47.593056,19.754444,2026-03-04 21:53:23.694509,6.44,5.16,6.44,6.44,1025,74,1.88,281,85,0.0,Clouds,overcast clouds,21
Pusztamonostor,47.564444,19.794167,2026-03-04 21:53:24.895300,6.4,5.02,6.4,6.4,1025,74,1.98,276,86,0.0,Clouds,overcast clouds,21
Jászberény,47.494444,19.893333,2026-03-04 21:53:26.097288,6.32,4.67,6.32,6.32,1025,74,2.26,263,86,0.0,Clouds,overcast clouds,21
Meggyespele,47.441944,19.938889,2026-03-04 21:53:27.295937,6.27,4.55,6.27,6.27,1025,73,2.33,258,79,0.0,Clouds,broken clouds,21
Portelek,47.418056,19.958889,2026-03-04 21:53:28.498821,6.21,4.47,6.21,6.21,1025,73,2.34,258,79,0.0,Clouds,broken clouds,21
Jászboldogháza-Jánoshida,47.366944,20.001389,2026-03-04 21:53:29.700631,6.15,4.45,6.15,6.15,1025,73,2.28,260,76,0.15,Rain,light rain,21
Jászárokszállás,47.635556,19.971111,2026-03-04 21:53:30.902254,6.67,5.5,6.67,6.67,1025,75,1.81,276,81,0.0,Clouds,broken clouds,21
Jászdózsa,47.563056,20.028056,2026-03-04 21:53:32.105566,6.64,5.31,6.64,6.64,1025,75,1.97,264,78,0.0,Clouds,broken clouds,21
Jászapáti,47.513611,20.155,2026-03-04 21:53:33.302367,6.61,5.21,6.61,6.61,1025,75,2.03,252,65,0.0,Clouds,broken clouds,21
Jászkisér,47.456111,20.203333,2026-03-04 21:53:34.499476,6.57,5.12,6.57,6.57,1025,75,2.08,250,62,0.0,Clouds,broken clouds,21
Jászladány,47.373333,20.159167,2026-03-04 21:53:35.701675,6.42,4.93,6.42,6.42,1025,74,2.1,256,64,0.0,Clouds,broken clouds,21
Szászberek,47.320556,20.090833,2026-03-04 21:53:36.903454,6.33,4.82,6.33,6.33,1025,73,2.1,262,66,0.0,Clouds,broken clouds,21
Gyöngyöshalász,47.743056,19.932222,2026-03-04 21:53:38.105219,6.69,5.77,6.69,6.69,1025,77,1.59,302,77,0.0,Clouds,broken clouds,21
Gyöngyös,47.783056,19.937222,2026-03-04 21:53:39.311873,6.42,5.49,6.42,6.42,1025,78,1.56,303,74,0.0,Clouds,broken clouds,21
Erdőtelek,47.683333,20.3025,2026-03-04 21:53:40.516841,7.0,6.4,7.0,7.0,1025,78,1.36,267,49,0.0,Clouds,scattered clouds,21
Heves,47.609444,20.306111,2026-03-04 21:53:41.718041,6.88,5.96,6.88,6.88,1025,77,1.61,252,52,0.0,Clouds,broken clouds,21
Hevesvezekény,47.562222,20.365833,2026-03-04 21:53:42.931825,6.92,5.95,6.92,6.92,1025,78,1.66,247,46,0.0,Clouds,scattered clouds,21
Tarnaszentmiklós,47.546944,20.390833,2026-03-04 21:53:44.137282,6.86,5.82,6.86,6.86,1025,77,1.72,244,47,0.0,Clouds,scattered clouds,21
Kisköre,47.495556,20.481667,2026-03-04 21:53:45.342603,6.82,5.72,6.82,6.82,1025,78,1.77,242,36,0.0,Clouds,scattered clouds,21
Abádszalók,47.455278,20.553056,2026-03-04 21:53:46.545979,6.77,5.61,6.77,6.77,1025,78,1.82,243,34,0.0,Clouds,scattered clouds,21
Kunhegyes,47.376667,20.641111,2026-03-04 21:53:47.758701,6.65,5.21,6.65,6.65,1025,78,2.08,250,21,0.0,Clouds,few clouds,21
Kenderes,47.254444,20.686111,2026-03-04 21:53:48.960624,6.54,4.79,6.54,6.54,1025,76,2.42,252,25,0.0,Clouds,scattered clouds,21
Maklár,47.808056,20.404722,2026-03-04 21:53:50.172210,7.41,6.84,7.41,7.41,1025,81,1.38,293,24,0.0,Clouds,few clouds,21
Andornaktálya,47.852203,20.402295,2026-03-04 21:53:51.377914,7.4,6.78,7.4,7.4,1025,83,1.42,310,21,0.0,Clouds,few clouds,21
Eger,47.891667,20.381667,2026-03-04 21:53:52.573929,7.32,6.71,7.32,7.32,1025,83,1.4,322,24,0.0,Clouds,few clouds,21
Egervár,47.908056,20.380556,2026-03-04 21:53:53.777213,7.51,6.89,7.51,7.51,1025,84,1.43,327,22,0.0,Clouds,few clouds,21
Eger-Felnémet,47.936667,20.370556,2026-03-04 21:53:54.975448,7.5,6.88,7.5,7.5,1025,85,1.43,330,20,0.0,Clouds,few clouds,21
Szarvaskő,47.988611,20.3325,2026-03-04 21:53:56.176710,6.9,6.9,6.9,6.9,1025,86,1.27,331,18,0.0,Clouds,few clouds,21
Mónosbél,48.031944,20.33,2026-03-04 21:53:57.377374,7.01,7.01,7.01,7.01,1025,87,1.01,321,14,0.0,Clouds,few clouds,21
Bélapátfalva,48.055556,20.340556,2026-03-04 21:53:58.575519,6.74,6.74,6.74,6.74,1025,87,0.87,309,13,0.0,Clouds,few clouds,21
Bélapátfalvi Cementgyár,48.058056,20.355,2026-03-04 21:53:59.789444,6.74,6.74,6.74,6.74,1025,87,0.87,309,13,0.0,Clouds,few clouds,21
Szilvásvárad,48.11345,20.37919,2026-03-04 21:54:00.996997,6.42,6.42,6.42,6.42,1025,88,0.81,271,11,0.0,Clouds,few clouds,21
Hejőkeresztúr,47.960278,20.869444,2026-03-04 21:54:02.202044,7.63,6.93,7.63,7.63,1024,79,1.51,295,5,0.0,Clear,clear sky,21
Tiszaújváros,47.926111,21.030556,2026-03-04 21:54:03.406071,7.34,7.34,7.34,7.34,1025,79,1.19,284,9,0.0,Clear,clear sky,21
Miskolc-Gömöri,48.106667,20.800278,2026-03-04 21:54:04.607893,7.64,6.48,7.64,7.64,1024,79,1.96,282,13,0.0,Clouds,few clouds,21
Sajókeresztúr,48.168008,20.774014,2026-03-04 21:54:05.809992,7.57,6.27,7.57,7.57,1024,80,2.1,270,22,0.0,Clouds,few clouds,21
Sajóecseg,48.186111,20.766667,2026-03-04 21:54:07.007896,7.58,6.23,7.58,7.58,1024,81,2.16,265,29,0.0,Clouds,scattered clouds,21
Sajószentpéter,48.222222,20.708056,2026-03-04 21:54:08.215677,7.54,6.16,7.54,7.54,1024,82,2.19,260,32,0.0,Clouds,scattered clouds,21
Kazincbarcika,48.264444,20.6275,2026-03-04 21:54:09.418650,7.44,6.2,7.44,7.44,1025,84,2.01,245,29,0.0,Clouds,scattered clouds,21
Sajókaza,48.272778,20.581944,2026-03-04 21:54:10.620232,7.46,6.29,7.46,7.46,1025,84,1.94,241,26,0.0,Clouds,scattered clouds,21
Vadna,48.276389,20.555278,2026-03-04 21:54:11.821284,7.46,6.29,7.46,7.46,1025,84,1.94,241,26,0.0,Clouds,scattered clouds,21
Dubicsány,48.280833,20.504722,2026-03-04 21:54:13.033210,7.43,6.44,7.43,7.43,1025,85,1.75,230,21,0.0,Clouds,few clouds,21
Raposka,46.851389,17.412778,2026-03-04 21:54:14.248467,6.27,4.33,6.27,6.27,1026,88,2.59,333,51,0.0,Clouds,broken clouds,21
Ivacs,47.641944,19.273889,2026-03-04 21:54:15.456179,5.76,5.76,5.76,5.76,1025,71,0.94,287,99,0.0,Clouds,overcast clouds,21
Kisköre-Tiszahíd,47.480835,20.507698,2026-03-04 21:54:16.659530,6.77,5.61,6.77,6.77,1025,78,1.82,243,37,0.0,Clouds,scattered clouds,21
Rozsály,47.912778,22.7825,2026-03-04 21:54:17.866118,5.79,4.67,5.79,5.79,1025,81,1.65,207,95,0.0,Clouds,overcast clouds,21
Pusztakettős,47.453611,20.749722,2026-03-04 21:54:19.067060,6.71,5.35,6.71,6.71,1025,79,2.01,251,8,0.0,Clear,clear sky,21
Kisvác,47.795278,19.113611,2026-03-04 21:54:20.280713,6.17,5.24,6.17,6.17,1025,75,1.53,282,81,0.0,Clouds,broken clouds,21
Tiszafüred-Gyártelep,47.6075,20.736111,2026-03-04 21:54:21.490231,7.02,5.76,7.02,7.02,1025,80,1.96,242,25,0.0,Clouds,scattered clouds,21
Újkenéz,48.251111,22.221667,2026-03-04 21:54:22.691855,6.12,4.75,6.12,6.12,1025,80,1.92,184,33,0.0,Clouds,scattered clouds,21
Püspökladány-Vásártér,47.319167,21.096111,2026-03-04 21:54:23.892994,6.39,4.84,6.39,6.39,1025,77,2.16,244,11,0.0,Clouds,few clouds,21
Végegyháza alsó,46.3675,20.866944,2026-03-04 21:54:25.094687,5.56,5.56,5.56,5.56,1025,71,1.2,203,30,0.0,Clouds,scattered clouds,21
Orosháza felső,46.553611,20.655278,2026-03-04 21:54:26.296066,6.16,4.81,6.16,6.16,1025,71,1.91,216,5,0.0,Clear,clear sky,21
Ambrózfalva,46.353056,20.740556,2026-03-04 21:54:27.501232,5.82,5.82,5.82,5.82,1025,71,1.31,206,20,0.0,Clouds,few clouds,21
Alsónyék,46.199444,18.738056,2026-03-04 21:54:28.705078,7.1,6.32,7.1,7.1,1026,73,1.52,272,69,0.0,Clouds,broken clouds,21
Tompapuszta,46.321389,20.966389,2026-03-04 21:54:29.910651,5.33,5.33,5.33,5.33,1025,72,0.99,195,41,0.0,Clouds,scattered clouds,21
Halászlak,46.911879,20.56228,2026-03-04 21:54:31.110610,6.42,4.61,6.42,6.42,1025,72,2.46,245,16,0.0,Clouds,few clouds,21
Sirató,46.840556,20.61,2026-03-04 21:54:32.314315,6.4,4.71,6.4,6.4,1025,72,2.32,237,12,0.0,Clouds,few clouds,21
Csabacsűd felső,46.829167,20.649167,2026-03-04 21:54:33.519390,6.36,4.69,6.36,6.36,1025,72,2.29,236,10,0.0,Clear,clear sky,21
Orosháza-Üveggyár,46.579979,20.683644,2026-03-04 21:54:34.719639,6.11,4.72,6.11,6.11,1025,71,1.94,217,4,0.0,Clear,clear sky,21
Gyulai városerdő,46.69482,21.32281,2026-03-04 21:54:35.920826,5.68,4.66,5.68,5.68,1025,74,1.55,209,33,0.0,Clouds,scattered clouds,21
Kórógyszentgyörgy,46.564377,20.224998,2026-03-04 21:54:37.138392,6.54,5.24,6.54,6.54,1025,71,1.92,233,11,0.0,Clouds,few clouds,21
Kunszállás,46.784444,19.767222,2026-03-04 21:54:38.339187,6.2,4.25,6.2,6.2,1026,75,2.59,309,56,0.0,Clouds,broken clouds,21
Selymes,46.655321,19.8534,2026-03-04 21:54:39.543732,6.12,4.57,6.12,6.12,1026,74,2.11,300,46,0.0,Clouds,scattered clouds,21
Petőfiszállási tanyák,46.587805,19.874509,2026-03-04 21:54:40.746537,6.23,4.94,6.23,6.23,1026,73,1.86,288,38,0.0,Clouds,scattered clouds,21
Kisteleki szőlők,46.514199,19.92868,2026-03-04 21:54:41.957822,6.26,5.25,6.26,6.26,1026,72,1.61,261,23,0.0,Clouds,few clouds,21
Kapitányság,46.435336,19.987564,2026-03-04 21:54:43.156127,6.36,5.39,6.36,6.36,1026,71,1.59,238,10,0.0,Clear,clear sky,21
Őszeszék,46.39025,20.016017,2026-03-04 21:54:44.355949,6.37,5.4,6.37,6.37,1026,71,1.59,231,7,0.0,Clear,clear sky,21
Vilmaszállás,46.366389,20.030833,2026-03-04 21:54:45.553189,6.36,5.41,6.36,6.36,1026,71,1.57,230,7,0.0,Clear,clear sky,21
Jánosszállás,46.334359,20.051199,2026-03-04 21:54:46.755105,6.37,5.42,6.37,6.37,1026,71,1.57,229,7,0.0,Clear,clear sky,21
Felsőpakony,47.343056,19.230556,2026-03-04 21:54:47.953681,6.48,6.48,6.48,6.48,1025,72,1.28,286,100,0.0,Clouds,overcast clouds,21
Felsőméntelek,46.987074,19.557745,2026-03-04 21:54:49.151618,6.26,5.35,6.26,6.26,1025,72,1.53,286,83,0.0,Clouds,broken clouds,21
Alsóméntelek,46.961558,19.579121,2026-03-04 21:54:50.349657,6.27,5.32,6.27,6.27,1025,73,1.56,294,81,0.0,Clouds,broken clouds,21
Nagynyír,46.943319,19.585447,2026-03-04 21:54:51.556559,6.27,5.27,6.27,6.27,1025,73,1.6,303,80,0.0,Clouds,broken clouds,21
Úrihegy,46.917778,19.621389,2026-03-04 21:54:52.765297,6.32,4.94,6.32,6.32,1025,74,1.97,306,76,0.0,Clouds,broken clouds,21
Miklóstelep,46.913412,19.630913,2026-03-04 21:54:53.962811,6.35,4.72,6.35,6.35,1025,73,2.24,304,73,0.0,Clouds,broken clouds,21
Tiszajenő alsó,47.016944,20.134444,2026-03-04 21:54:55.159995,6.41,4.39,6.41,6.41,1025,72,2.73,266,53,0.0,Clouds,broken clouds,21
Óbög,46.987222,20.111111,2026-03-04 21:54:56.354521,6.43,4.4,6.43,6.43,1025,72,2.75,268,52,0.0,Clouds,broken clouds,21
Árpádszállás,46.866456,19.989163,2026-03-04 21:54:57.549558,6.39,4.27,6.39,6.39,1025,73,2.87,284,55,0.0,Clouds,broken clouds,21
Tőserdő,46.851111,19.980278,2026-03-04 21:54:58.757251,6.42,4.33,6.42,6.42,1025,73,2.83,285,55,0.0,Clouds,broken clouds,21
Tiszaalpár felső,46.836256,19.976753,2026-03-04 21:54:59.962866,6.42,4.33,6.42,6.42,1025,73,2.83,285,55,0.0,Clouds,broken clouds,21
Borsihalom,46.773056,19.92,2026-03-04 21:55:01.168187,6.32,4.3,6.32,6.32,1026,73,2.71,292,56,0.0,Clouds,broken clouds,21
Petőfiváros,46.725556,19.848611,2026-03-04 21:55:02.364344,6.1,4.22,6.1,6.1,1026,75,2.48,303,53,0.0,Clouds,broken clouds,21
Csorna,47.601944,17.248889,2026-03-04 21:55:03.566669,5.77,3.84,5.77,5.77,1026,89,2.47,3,40,0.0,Clouds,scattered clouds,21
Szorgalmatos,47.986667,21.366389,2026-03-04 21:55:04.760591,6.85,5.66,6.85,6.85,1025,79,1.86,261,95,0.0,Clouds,overcast clouds,21
Fótfürdő,47.6225,19.200556,2026-03-04 21:55:05.972931,6.02,6.02,6.02,6.02,1025,70,0.86,293,96,0.0,Clouds,overcast clouds,21
Fenyveshegy,47.818333,19.068056,2026-03-04 21:55:07.170512,6.35,5.43,6.35,6.35,1025,76,1.55,283,78,0.0,Clouds,broken clouds,21
Hűvösvölgy,47.541202,18.96351,2026-03-04 21:55:08.381965,5.11,4.19,5.11,5.11,1025,70,1.41,325,93,0.0,Clouds,overcast clouds,21
Hárshegy,47.535318,18.961433,2026-03-04 21:55:09.575110,5.11,4.19,5.11,5.11,1025,70,1.41,325,93,0.0,Clouds,overcast clouds,21
Szépjuhászné,47.528277,18.955246,2026-03-04 21:55:10.772692,4.86,3.84,4.86,4.86,1025,69,1.46,326,94,0.0,Clouds,overcast clouds,21
Jánoshegy,47.51433,18.95047,2026-03-04 21:55:11.969326,4.86,3.84,4.86,4.86,1025,69,1.46,326,94,0.0,Clouds,overcast clouds,21
Virágvölgy,47.505965,18.95876,2026-03-04 21:55:13.173617,5.08,4.01,5.08,5.08,1025,69,1.52,327,95,0.0,Clouds,overcast clouds,21
Csillebérc,47.498196,18.961694,2026-03-04 21:55:14.384474,5.08,4.01,5.08,5.08,1025,69,1.52,327,95,0.0,Clouds,overcast clouds,21
Normafa,47.5,18.970558,2026-03-04 21:55:15.589645,5.08,4.01,5.08,5.08,1025,69,1.52,327,95,0.0,Clouds,overcast clouds,21
Széchenyihegy,47.49413,18.977049,2026-03-04 21:55:16.788345,4.26,3.27,4.26,4.26,1025,68,1.38,324,96,0.0,Clouds,overcast clouds,21
Balatonfőkajár felső,47.031389,18.215278,2026-03-04 21:55:17.992581,6.36,5.59,6.36,6.36,1026,77,1.43,325,88,0.0,Clouds,overcast clouds,21
Piroska,47.148333,20.129722,2026-03-04 21:55:19.189603,6.36,4.64,6.36,6.36,1025,72,2.35,267,60,0.0,Clouds,broken clouds,21
Somodor,46.4725,17.836667,2026-03-04 21:55:20.387481,6.54,5.13,6.54,6.54,1026,83,2.03,302,63,0.0,Clouds,broken clouds,21
Középmező,45.995833,18.668889,2026-03-04 21:55:21.592648,7.42,6.42,7.42,7.42,1026,72,1.76,247,34,0.0,Clouds,scattered clouds,21
Jobbágyi,47.828889,19.6875,2026-03-04 21:55:22.795020,6.5,5.8,6.5,6.5,1025,77,1.39,305,93,0.0,Clouds,overcast clouds,21
Ferihegy,47.437222,19.223889,2026-03-04 21:55:23.997996,6.32,6.32,6.32,6.32,1025,70,0.94,293,100,0.0,Clouds,overcast clouds,21
Máriapócs,47.852778,22.019167,2026-03-04 21:55:25.198061,5.9,3.83,5.9,5.9,1025,79,2.67,228,48,0.0,Clouds,scattered clouds,21
Máriaudvar,47.751944,19.165,2026-03-04 21:55:26.398170,6.39,5.71,6.39,6.39,1025,74,1.36,283,87,0.0,Clouds,overcast clouds,21
Nagyberki,46.353333,18.004167,2026-03-04 21:55:27.595592,6.7,5.79,6.7,6.7,1026,81,1.58,291,56,0.0,Clouds,broken clouds,21
Badacsonytomaj,46.804722,17.518056,2026-03-04 21:55:28.791690,6.33,4.65,6.33,6.33,1026,86,2.29,325,69,0.0,Clouds,broken clouds,21
Badacsony,46.788611,17.506389,2026-03-04 21:55:29.996570,6.39,4.66,6.39,6.39,1026,87,2.36,326,66,0.0,Clouds,broken clouds,21
Badacsonylábdihegy,46.793889,17.470833,2026-03-04 21:55:31.202767,6.39,4.66,6.39,6.39,1026,87,2.36,326,66,0.0,Clouds,broken clouds,21
Badacsonytördemic-Szigliget,46.809722,17.469167,2026-03-04 21:55:32.412994,6.35,4.59,6.35,6.35,1026,87,2.39,327,65,0.0,Clouds,broken clouds,21
Nemesgulács-Kisapáti,46.836944,17.476389,2026-03-04 21:55:33.611453,6.34,4.57,6.34,6.34,1026,87,2.4,329,64,0.0,Clouds,broken clouds,21
Tapolca,46.877778,17.428611,2026-03-04 21:55:34.815029,6.2,4.26,6.2,6.2,1026,88,2.58,334,50,0.0,Clouds,scattered clouds,21
Uzsabánya alsó,46.898333,17.345278,2026-03-04 21:55:36.020270,5.05,2.88,5.05,5.05,1026,89,2.6,337,44,0.0,Clouds,scattered clouds,21
Uzsa,46.920278,17.331667,2026-03-04 21:55:37.226085,5.81,3.8,5.81,5.81,1026,89,2.57,338,43,0.0,Clouds,scattered clouds,21
Sümegi Bazaltbánya,46.9525,17.2925,2026-03-04 21:55:38.428424,5.78,3.78,5.78,5.78,1026,89,2.55,339,42,0.0,Clouds,scattered clouds,21
Sümeg,46.981111,17.270833,2026-03-04 21:55:39.625903,5.91,3.91,5.91,5.91,1026,89,2.59,339,44,0.0,Clouds,scattered clouds,21
Gógánfa,47.021111,17.207778,2026-03-04 21:55:40.830541,5.85,3.83,5.85,5.85,1026,89,2.6,340,45,0.0,Clouds,scattered clouds,21
Ukk,47.041944,17.195833,2026-03-04 21:55:42.030960,5.86,3.81,5.86,5.86,1026,89,2.64,340,47,0.0,Clouds,scattered clouds,21
Nemeskeresztúr,47.093611,17.183611,2026-03-04 21:55:43.231787,5.76,3.65,5.76,5.76,1027,90,2.69,340,46,0.0,Clouds,scattered clouds,21
Jánosháza,47.115833,17.171667,2026-03-04 21:55:44.436390,5.81,3.69,5.81,5.81,1026,90,2.71,341,45,0.0,Clouds,scattered clouds,21
Keszthely,46.758333,17.248056,2026-03-04 21:55:45.633624,6.2,4.06,6.2,6.2,1026,89,2.84,338,45,0.0,Clouds,scattered clouds,21
Alsógyenes,46.765844,17.276435,2026-03-04 21:55:46.832635,6.27,4.22,6.27,6.27,1026,89,2.74,336,44,0.0,Clouds,scattered clouds,21
Gyenesdiás,46.763333,17.292778,2026-03-04 21:55:48.035834,6.27,4.22,6.27,6.27,1026,89,2.74,336,44,0.0,Clouds,scattered clouds,21
Vonyarcvashegy,46.755278,17.318333,2026-03-04 21:55:49.239383,5.72,3.6,5.72,5.72,1026,88,2.69,334,45,0.0,Clouds,scattered clouds,21
Balatongyörök,46.751944,17.354444,2026-03-04 21:55:50.448749,6.32,4.35,6.32,6.32,1026,88,2.64,333,48,0.0,Clouds,scattered clouds,21
Becehegy,46.776111,17.372778,2026-03-04 21:55:51.657665,5.14,2.95,5.14,5.14,1026,88,2.64,333,48,0.0,Clouds,scattered clouds,21
Balatonederics,46.8025,17.385,2026-03-04 21:55:52.859943,5.06,2.86,5.06,5.06,1026,88,2.64,334,48,0.0,Clouds,scattered clouds,21
Dabronc,47.025766,17.167006,2026-03-04 21:55:54.067534,5.87,3.82,5.87,5.87,1026,89,2.64,340,47,0.0,Clouds,scattered clouds,21
Türje,46.994444,17.093611,2026-03-04 21:55:55.265211,5.84,3.74,5.84,5.84,1027,89,2.7,341,55,0.0,Clouds,broken clouds,21
Zalabér-Batyk,46.983056,17.040833,2026-03-04 21:55:56.465738,5.94,3.79,5.94,5.94,1027,88,2.79,344,71,0.0,Clouds,broken clouds,21
Pakod,46.959167,16.996667,2026-03-04 21:55:57.665696,5.82,3.64,5.82,5.82,1027,88,2.8,346,76,0.0,Clouds,broken clouds,21
Pókaszepetk,46.924444,16.972222,2026-03-04 21:55:58.864571,5.97,3.79,5.97,5.97,1027,88,2.84,345,80,0.0,Clouds,broken clouds,21
Kemendollár,46.905833,16.946667,2026-03-04 21:56:00.068945,5.67,3.45,5.67,5.67,1027,88,2.81,346,84,0.0,Clouds,broken clouds,21
Zalaegerszeg,46.833056,16.848333,2026-03-04 21:56:01.269600,5.75,3.83,5.75,5.75,1027,88,2.45,353,84,0.0,Clouds,broken clouds,21
Bocfölde,46.780278,16.853611,2026-03-04 21:56:02.485460,5.9,4.01,5.9,5.9,1027,88,2.45,350,79,0.0,Clouds,broken clouds,21
Sárhida,46.755833,16.851389,2026-03-04 21:56:03.685245,5.1,3.23,5.1,5.1,1027,88,2.26,353,72,0.0,Clouds,broken clouds,21
Bak,46.7325,16.849167,2026-03-04 21:56:04.899118,5.54,3.8,5.54,5.54,1027,88,2.2,353,68,0.0,Clouds,broken clouds,21
Tófej,46.670833,16.801944,2026-03-04 21:56:06.109400,5.4,3.9,5.4,5.4,1027,88,1.94,357,56,0.0,Clouds,broken clouds,21
Gutorfölde,46.646944,16.739722,2026-03-04 21:56:07.305507,5.66,4.4,5.66,5.66,1027,88,1.75,4,52,0.0,Clouds,broken clouds,21
Csömödér-Páka,46.608056,16.641111,2026-03-04 21:56:08.507775,5.88,4.73,5.88,5.88,1027,88,1.68,12,57,0.0,Clouds,broken clouds,21
Iklódbördőce,46.603056,16.604722,2026-03-04 21:56:09.709582,5.69,4.42,5.69,5.69,1027,87,1.76,14,63,0.0,Clouds,broken clouds,21
Lenti,46.621389,16.528611,2026-03-04 21:56:10.910434,5.83,4.43,5.83,5.83,1027,87,1.91,15,66,0.0,Clouds,broken clouds,21
Rédics,46.618056,16.471111,2026-03-04 21:56:12.108896,5.82,4.39,5.82,5.82,1027,87,1.93,15,66,0.0,Clouds,broken clouds,21
Zalalövő,46.845556,16.576389,2026-03-04 21:56:13.305360,5.5,3.91,5.5,5.5,1027,87,2.04,10,67,0.0,Clouds,broken clouds,21
Zalaegerszeg-Ola,46.849167,16.844722,2026-03-04 21:56:14.509031,5.75,3.83,5.75,5.75,1027,88,2.45,353,84,0.0,Clouds,broken clouds,21
Andráshida,46.863116,16.7792,2026-03-04 21:56:15.710327,5.68,3.78,5.68,5.68,1027,88,2.41,356,87,0.0,Clouds,overcast clouds,21
Bagod,46.875,16.746111,2026-03-04 21:56:16.909200,5.76,3.99,5.76,5.76,1027,88,2.28,1,83,0.0,Clouds,broken clouds,21
Zalaszentgyörgy,46.872222,16.7125,2026-03-04 21:56:18.118799,5.69,3.95,5.69,5.69,1027,88,2.23,3,82,0.0,Clouds,broken clouds,21
Zalacséb-Salomvár,46.858056,16.662222,2026-03-04 21:56:19.322616,5.45,3.71,5.45,5.45,1027,88,2.19,5,79,0.0,Clouds,broken clouds,21
Kópháza,47.631389,16.6375,2026-03-04 21:56:20.525190,5.17,3.3,5.17,5.17,1027,85,2.28,316,36,0.0,Clouds,scattered clouds,21
Nagycenk,47.601111,16.690278,2026-03-04 21:56:21.726695,5.36,3.47,5.36,5.36,1027,85,2.34,322,37,0.0,Clouds,scattered clouds,21
Sopronkövesd,47.548333,16.748056,2026-03-04 21:56:22.931702,5.21,3.21,5.21,5.21,1027,85,2.43,333,37,0.0,Clouds,scattered clouds,21
Lövő,47.509444,16.7775,2026-03-04 21:56:24.136529,5.18,3.11,5.18,5.18,1027,86,2.51,340,37,0.0,Clouds,scattered clouds,21
Újkér,47.457778,16.786667,2026-03-04 21:56:25.355130,5.28,3.17,5.28,5.28,1027,86,2.57,343,38,0.0,Clouds,scattered clouds,21
Bük,47.388611,16.752222,2026-03-04 21:56:26.554446,5.38,3.28,5.38,5.38,1027,86,2.59,344,43,0.0,Clouds,scattered clouds,21
Acsád,47.308333,16.734722,2026-03-04 21:56:27.756654,5.12,3.01,5.12,5.12,1027,86,2.54,348,54,0.0,Clouds,broken clouds,21
Salköveskút-Vassurány,47.291389,16.704167,2026-03-04 21:56:28.956573,5.18,3.08,5.18,5.18,1027,86,2.54,350,57,0.0,Clouds,broken clouds,21
Zalaszentiván,46.8875,16.909444,2026-03-04 21:56:30.155531,5.84,3.74,5.84,5.84,1027,88,2.7,350,89,0.0,Clouds,overcast clouds,21
Alsónemesapáti,46.854167,16.936389,2026-03-04 21:56:31.370424,5.97,3.79,5.97,5.97,1027,88,2.83,345,85,0.0,Clouds,overcast clouds,21
Józsa,47.600833,21.584444,2026-03-04 21:56:32.574968,5.43,3.63,5.43,5.43,1025,82,2.25,233,40,0.0,Clouds,scattered clouds,21
Hajdúszentgyörgy,47.608056,21.578333,2026-03-04 21:56:33.771553,5.43,3.63,5.43,5.43,1025,82,2.25,233,40,0.0,Clouds,scattered clouds,21
Zelemér,47.627778,21.578333,2026-03-04 21:56:34.981835,5.5,3.67,5.5,5.5,1025,82,2.29,232,45,0.0,Clouds,scattered clouds,21
Hajdúböszörmény,47.668056,21.524167,2026-03-04 21:56:36.182690,5.81,4.01,5.81,5.81,1025,81,2.32,233,52,0.0,Clouds,broken clouds,21
Hajdúvid,47.749444,21.508056,2026-03-04 21:56:37.387941,6.21,4.47,6.21,6.21,1025,81,2.34,235,62,0.0,Clouds,broken clouds,21
Hajdúdorog,47.805556,21.493056,2026-03-04 21:56:38.596189,6.33,4.62,6.33,6.33,1025,81,2.33,237,72,0.0,Clouds,broken clouds,21
Hajdúnánás,47.831944,21.426667,2026-03-04 21:56:39.795517,6.58,5.03,6.58,6.58,1025,81,2.19,240,69,0.0,Clouds,broken clouds,21
Hajdúnánás-Vásártér,47.843056,21.407222,2026-03-04 21:56:40.996559,6.58,5.03,6.58,6.58,1025,81,2.19,240,69,0.0,Clouds,broken clouds,21
Tedej,47.903611,21.404444,2026-03-04 21:56:42.202808,6.71,5.32,6.71,6.71,1025,80,2.04,248,87,0.0,Clouds,overcast clouds,21
Tiszavasvári,47.945278,21.374722,2026-03-04 21:56:43.405032,6.79,5.54,6.79,6.79,1025,80,1.91,254,89,0.0,Clouds,overcast clouds,21
Egyházerdő,47.9725,21.365,2026-03-04 21:56:44.606297,6.84,5.64,6.84,6.84,1025,80,1.87,258,93,0.0,Clouds,overcast clouds,21
Tiszalök,48.013056,21.369167,2026-03-04 21:56:45.804755,6.85,5.67,6.85,6.85,1025,79,1.85,265,96,0.0,Clouds,overcast clouds,21
Hajnalos,47.998889,21.414167,2026-03-04 21:56:47.008698,6.82,5.56,6.82,6.82,1025,79,1.93,259,97,0.0,Clouds,overcast clouds,21
Kisfástanya,47.989167,21.47,2026-03-04 21:56:48.215626,6.73,5.38,6.73,6.73,1025,79,2.0,257,97,0.0,Clouds,overcast clouds,21
Tiszaeszlár,48.010556,21.491944,2026-03-04 21:56:49.420097,6.74,5.35,6.74,6.74,1025,79,2.05,258,94,0.0,Clouds,overcast clouds,21
Bashalom,48.026111,21.514722,2026-03-04 21:56:50.624593,6.79,5.42,6.79,6.79,1025,79,2.03,261,92,0.0,Clouds,overcast clouds,21
Sáránd,47.415556,21.625,2026-03-04 21:56:51.832606,5.54,4.07,5.54,5.54,1025,81,1.93,236,18,0.0,Clouds,few clouds,21
Derecske,47.365,21.584167,2026-03-04 21:56:53.033340,5.75,4.36,5.75,5.75,1025,80,1.88,237,17,0.0,Clouds,few clouds,21
Derecske-Vásártér,47.352222,21.58,2026-03-04 21:56:54.230005,5.75,4.36,5.75,5.75,1025,80,1.88,237,17,0.0,Clouds,few clouds,21
Konyár,47.323611,21.666111,2026-03-04 21:56:55.432835,5.85,4.59,5.85,5.85,1025,80,1.78,232,20,0.0,Clouds,few clouds,21
Konyári Sóstófürdő,47.324167,21.744444,2026-03-04 21:56:56.631758,5.85,4.6,5.85,5.85,1025,80,1.77,226,27,0.0,Clouds,scattered clouds,21
Pocsaj-Esztár,47.288333,21.793056,2026-03-04 21:56:57.831592,5.89,4.69,5.89,5.89,1025,79,1.73,220,34,0.0,Clouds,scattered clouds,21
Kismarja,47.243889,21.813889,2026-03-04 21:56:59.035323,5.96,4.8,5.96,5.96,1025,78,1.7,214,38,0.0,Clouds,scattered clouds,21
Nagykereki,47.191667,21.8,2026-03-04 21:57:00.236415,5.99,4.88,5.99,5.99,1025,78,1.66,206,40,0.0,Clouds,scattered clouds,21
Debrecen-Szabadságtelep,47.527778,21.658611,2026-03-04 21:57:01.438515,5.19,3.5,5.19,5.19,1025,82,2.09,233,28,0.0,Clouds,scattered clouds,21
Kondoroskert,47.525556,21.713889,2026-03-04 21:57:02.638722,5.35,3.69,5.35,5.35,1025,82,2.09,231,27,0.0,Clouds,scattered clouds,21
Nagycsere,47.523889,21.763056,2026-03-04 21:57:03.839567,5.41,3.75,5.41,5.41,1025,82,2.1,231,27,0.0,Clouds,scattered clouds,21
Haláp,47.521667,21.818333,2026-03-04 21:57:05.042771,5.44,3.76,5.44,5.44,1025,82,2.12,230,27,0.0,Clouds,scattered clouds,21
Vámospércs,47.518056,21.893889,2026-03-04 21:57:06.243488,5.5,3.76,5.5,5.5,1025,82,2.2,231,28,0.0,Clouds,scattered clouds,21
Szentannapuszta,47.52,21.965833,2026-03-04 21:57:07.445771,5.6,3.8,5.6,5.6,1025,82,2.28,232,31,0.0,Clouds,scattered clouds,21
Nyírábrány,47.523889,22.016944,2026-03-04 21:57:08.645550,5.62,3.77,5.62,5.62,1025,82,2.34,232,34,0.0,Clouds,scattered clouds,21
Dombostanya,47.602778,21.706389,2026-03-04 21:57:09.852383,5.42,3.62,5.42,5.42,1025,82,2.25,230,41,0.0,Clouds,scattered clouds,21
Hajdúsámson,47.608056,21.755278,2026-03-04 21:57:11.053160,5.48,3.64,5.48,5.48,1025,81,2.3,229,39,0.0,Clouds,scattered clouds,21
Tamásipuszta,47.632778,21.796111,2026-03-04 21:57:12.254297,5.52,3.6,5.52,5.52,1025,81,2.4,229,42,0.0,Clouds,scattered clouds,21
Aradványpuszta,47.662778,21.8425,2026-03-04 21:57:13.457825,5.6,3.62,5.6,5.6,1025,81,2.49,228,46,0.0,Clouds,scattered clouds,21
Nyíradony,47.699444,21.903333,2026-03-04 21:57:14.656616,5.68,3.55,5.68,5.68,1025,80,2.69,228,52,0.0,Clouds,broken clouds,21
Nyírmihálydi,47.7375,21.958889,2026-03-04 21:57:15.856832,5.72,3.55,5.72,5.72,1025,80,2.75,228,55,0.0,Clouds,broken clouds,21
Nyírgelse,47.750833,21.987778,2026-03-04 21:57:17.058533,5.71,3.52,5.71,5.71,1025,79,2.78,227,56,0.0,Clouds,broken clouds,21
Nyírbogát,47.793056,22.066389,2026-03-04 21:57:18.259970,5.81,3.66,5.81,5.81,1025,80,2.75,227,59,0.0,Clouds,broken clouds,21
Nagykálló,47.871111,21.825833,2026-03-04 21:57:19.462819,6.13,4.15,6.13,6.13,1025,79,2.61,232,51,0.0,Clouds,broken clouds,21
Kállósemjén,47.854722,21.935,2026-03-04 21:57:20.665811,6.02,3.97,6.02,6.02,1025,79,2.68,229,49,0.0,Clouds,scattered clouds,21
Nyírbátor,47.8425,22.131111,2026-03-04 21:57:21.871317,5.77,3.65,5.77,5.77,1025,80,2.7,227,57,0.0,Clouds,broken clouds,21
Nyírcsászári,47.865556,22.179167,2026-03-04 21:57:23.088780,5.8,3.76,5.8,5.8,1025,81,2.61,227,55,0.0,Clouds,broken clouds,21
Hodász,47.896111,22.213611,2026-03-04 21:57:24.299524,5.76,3.81,5.76,5.76,1025,81,2.49,227,50,0.0,Clouds,scattered clouds,21
Nyírmeggyes,47.9225,22.256667,2026-03-04 21:57:25.504019,5.83,4.05,5.83,5.83,1025,82,2.31,226,38,0.0,Clouds,scattered clouds,21
Mátészalka,47.951389,22.313333,2026-03-04 21:57:26.711356,5.89,4.23,5.89,5.89,1025,82,2.18,224,31,0.0,Clouds,scattered clouds,21
Kocsord,47.941944,22.375833,2026-03-04 21:57:27.910950,5.97,4.43,5.97,5.97,1025,82,2.07,224,35,0.0,Clouds,scattered clouds,21
Kocsord alsó,47.946389,22.400556,2026-03-04 21:57:29.113542,5.97,4.43,5.97,5.97,1025,82,2.07,224,35,0.0,Clouds,scattered clouds,21
Győrtelek,47.936667,22.424722,2026-03-04 21:57:30.317220,5.97,4.5,5.97,5.97,1025,82,2.0,223,35,0.0,Clouds,scattered clouds,21
Győrtelek alsó,47.921111,22.443333,2026-03-04 21:57:31.527034,5.93,4.39,5.93,5.93,1025,82,2.06,224,41,0.0,Clouds,scattered clouds,21
Ököritófülpös,47.911389,22.495,2026-03-04 21:57:32.741707,5.92,4.42,5.92,5.92,1025,82,2.02,224,43,0.0,Clouds,scattered clouds,21
Porcsalma-Tyukod,47.868056,22.568333,2026-03-04 21:57:33.942223,5.86,4.21,5.86,5.86,1025,82,2.17,226,64,0.0,Clouds,broken clouds,21
Csenger,47.826111,22.666389,2026-03-04 21:57:35.139831,5.77,4.06,5.77,5.77,1025,81,2.22,227,79,0.0,Clouds,broken clouds,21
Kisfái,46.888303,19.807366,2026-03-04 21:57:36.340906,6.36,4.17,6.36,6.36,1025,73,2.95,297,62,0.0,Clouds,broken clouds,21
Nyárlőrinci szőlők,46.8775,19.828333,2026-03-04 21:57:37.546852,6.33,4.15,6.33,6.33,1025,74,2.93,297,60,0.0,Clouds,broken clouds,21
Nyárlőrinc alsó,46.863889,19.878889,2026-03-04 21:57:38.750680,6.31,4.11,6.31,6.31,1025,74,2.95,295,59,0.0,Clouds,broken clouds,21
Tiszaug-Tiszahídfő,46.866106,20.052098,2026-03-04 21:57:39.949945,6.51,4.43,6.51,6.51,1025,72,2.84,281,54,0.0,Clouds,broken clouds,21
Csongrádi úti tanyák,46.690278,19.921667,2026-03-04 21:57:41.148535,6.22,4.56,6.22,6.22,1026,73,2.25,288,46,0.0,Clouds,scattered clouds,21
Kettőshalom,46.689167,20.0225,2026-03-04 21:57:42.353359,6.48,4.87,6.48,6.48,1026,72,2.24,275,41,0.0,Clouds,scattered clouds,21
Csongrád alsó,46.711389,20.126389,2026-03-04 21:57:43.566564,6.66,4.99,6.66,6.66,1025,71,2.35,267,35,0.0,Clouds,scattered clouds,21
Dónát,46.66988,20.368168,2026-03-04 21:57:44.772586,6.6,5.08,6.6,6.6,1025,72,2.16,237,13,0.0,Clouds,few clouds,21
Pusztatemplom,46.676667,20.407222,2026-03-04 21:57:45.974390,6.55,5.02,6.55,6.55,1025,71,2.17,232,13,0.0,Clouds,few clouds,21
Előhát,47.364722,20.653611,2026-03-04 21:57:47.182218,6.61,5.1,6.61,6.61,1025,78,2.15,251,23,0.0,Clouds,few clouds,21
Polgárdi-Tekerespuszta,47.017778,18.297778,2026-03-04 21:57:48.389547,6.39,5.66,6.39,6.39,1026,77,1.4,329,90,0.0,Clouds,overcast clouds,21
Szatina-Kishajmás,46.202778,18.083611,2026-03-04 21:57:49.592706,6.54,6.54,6.54,6.54,1026,79,0.89,288,39,0.0,Clouds,scattered clouds,21
Márok,45.886944,18.499167,2026-03-04 21:57:50.793387,7.36,6.73,7.36,7.36,1026,75,1.42,249,32,0.0,Clouds,scattered clouds,21
Nagynyárád,45.953333,18.564722,2026-03-04 21:57:51.993414,7.3,6.5,7.3,7.3,1026,73,1.56,249,36,0.0,Clouds,scattered clouds,21
Szászvár,46.2875,18.369722222222222,2026-03-04 21:57:53.189838,6.6,5.81,6.6,6.6,1026,76,1.47,280,72,0.0,Clouds,broken clouds,21
Cikó,46.263514,18.557605,2026-03-04 21:57:54.392581,6.89,5.95,6.89,6.89,1026,75,1.63,282,69,0.0,Clouds,broken clouds,21
Gyöngyfa-Magyarmecske,45.983889,17.958889,2026-03-04 21:57:55.606246,7.41,7.41,7.41,7.41,1026,75,0.29,311,12,0.0,Clouds,few clouds,21
Nagyhát,47.581389,21.445,2026-03-04 21:57:56.808244,5.7,3.97,5.7,5.7,1025,82,2.22,237,33,0.0,Clouds,scattered clouds,21
Balmazújváros,47.613889,21.348056,2026-03-04 21:57:58.019031,6.24,4.61,6.24,6.24,1025,82,2.22,238,24,0.0,Clouds,few clouds,21
Kónya,47.600833,21.2375,2026-03-04 21:57:59.227749,6.43,4.85,6.43,6.43,1025,81,2.2,240,17,0.0,Clouds,few clouds,21
Hortobágy,47.586111,21.154722,2026-03-04 21:58:00.423389,6.59,5.03,6.59,6.59,1025,81,2.21,241,12,0.0,Clouds,few clouds,21
Hortobágyi Halastó,47.604167,21.074167,2026-03-04 21:58:01.630261,6.7,5.16,6.7,6.7,1025,81,2.2,242,10,0.0,Clear,clear sky,21
Ohat-Pusztakócs,47.623333,20.951111,2026-03-04 21:58:02.845451,6.89,5.36,6.89,6.89,1025,81,2.23,240,14,0.0,Clouds,few clouds,21
Egyek,47.616944,20.883611,2026-03-04 21:58:04.047320,6.98,5.54,6.98,6.98,1025,81,2.15,240,22,0.0,Clouds,few clouds,21
Tiszafüred,47.627778,20.756111,2026-03-04 21:58:05.242078,7.05,5.72,7.05,7.05,1025,81,2.04,241,29,0.0,Clouds,scattered clouds,21
Poroszló,47.657778,20.654444,2026-03-04 21:58:06.445115,7.2,6.07,7.2,7.2,1025,80,1.86,243,34,0.0,Clouds,scattered clouds,21
Kétútköz,47.694167,20.565,2026-03-04 21:58:07.644616,7.31,6.34,7.31,7.31,1025,80,1.72,252,33,0.0,Clouds,scattered clouds,21
Egerfarmos,47.711667,20.5225,2026-03-04 21:58:08.857621,7.3,6.44,7.3,7.3,1025,80,1.61,257,29,0.0,Clouds,scattered clouds,21
Piliscsaba,47.638056,18.829722,2026-03-04 21:58:10.059663,5.19,4.09,5.19,5.19,1025,75,1.56,324,89,0.0,Clouds,overcast clouds,21
Pilisjászfalu,47.656111,18.797778,2026-03-04 21:58:11.260528,5.92,4.86,5.92,5.92,1025,75,1.61,326,88,0.0,Clouds,overcast clouds,21
Leányvár,47.687594,18.772553,2026-03-04 21:58:12.477779,5.9,4.96,5.9,5.9,1025,76,1.51,323,86,0.0,Clouds,overcast clouds,21
Dorog,47.723333,18.732778,2026-03-04 21:58:13.680796,6.21,6.21,6.21,6.21,1025,77,1.29,314,77,0.0,Clouds,broken clouds,21
Esztergom-Kertváros,47.743333,18.719167,2026-03-04 21:58:14.897396,6.28,6.28,6.28,6.28,1025,77,1.21,310,76,0.0,Clouds,broken clouds,21
Esztergom,47.7775,18.743611,2026-03-04 21:58:16.107102,5.99,5.99,5.99,5.99,1025,77,1.18,303,81,0.0,Clouds,broken clouds,21
