station_name,station_lat,station_lon,observation_time,temp,feels_like,temp_min,temp_max,pressure,humidity,wind_speed,wind_deg,clouds,precipitation_1h,weather_main,weather_description,collection_hour
Búcsúszentlászló,46.793056,16.932778,2026-03-05 15:58:00.579710,12.86,11.82,12.86,12.86,1024,62,0.25,102,1,0.0,Clear,clear sky,15
Angyalföld,47.549722,19.09,2026-03-05 15:58:01.817258,12.44,10.97,12.44,12.44,1024,47,0.48,318,4,0.0,Clear,clear sky,15
Felsőjánosfa,46.841389,16.544167,2026-03-05 15:58:03.056021,12.66,11.47,12.66,12.66,1024,57,1.53,166,1,0.0,Clear,clear sky,15
Pankasz,46.835833,16.496111,2026-03-05 15:58:04.300673,12.35,11.13,12.35,12.35,1024,57,1.69,165,0,0.0,Clear,clear sky,15
Nagyrákos,46.827222,16.455556,2026-03-05 15:58:05.542233,12.3,11.05,12.3,12.3,1024,56,1.77,164,0,0.0,Clear,clear sky,15
Őriszentpéter,46.828889,16.415278,2026-03-05 15:58:06.781773,12.39,11.15,12.39,12.39,1024,56,1.92,161,0,0.0,Clear,clear sky,15
Törökbálint,47.45,18.908611,2026-03-05 15:58:08.032316,12.09,10.5,12.09,12.09,1024,44,1.5,314,5,0.0,Clear,clear sky,15
Bicske alsó,47.486389,18.642778,2026-03-05 15:58:09.268786,11.64,10.11,11.64,11.64,1024,48,1.82,316,4,0.0,Clear,clear sky,15
Bajánsenye,46.818056,16.358056,2026-03-05 15:58:10.514269,12.47,11.23,12.47,12.47,1024,56,1.99,158,0,0.0,Clear,clear sky,15
Aquincum,47.566218,19.048273,2026-03-05 15:58:11.746833,11.91,10.46,11.91,11.91,1024,50,0.67,303,5,0.0,Clear,clear sky,15
Piliscsév,47.673889,18.791389,2026-03-05 15:58:12.995026,11.26,9.9,11.26,11.26,1024,56,0.95,295,5,0.0,Clear,clear sky,15
Tát,47.741201,18.64783,2026-03-05 15:58:14.240937,11.8,10.37,11.8,11.8,1024,51,0.8,274,6,0.0,Clear,clear sky,15
Süttő felső,47.756667,18.437222,2026-03-05 15:58:15.475056,11.95,10.38,11.95,11.95,1024,45,0.94,289,6,0.0,Clear,clear sky,15
Budatétény,47.405,19.016389,2026-03-05 15:58:16.718880,12.33,10.74,12.33,12.33,1024,43,1.13,319,4,0.0,Clear,clear sky,15
Seregélyes-Szőlőhegy,47.119444,18.612222,2026-03-05 15:58:17.958021,12.34,10.7,12.34,12.34,1024,41,2.39,331,4,0.0,Clear,clear sky,15
Gödöllő-Állami telepek,47.564444,19.375556,2026-03-05 15:58:19.197661,11.3,9.95,11.3,11.3,1024,56,0.79,59,9,0.0,Clear,clear sky,15
Dunakeszi alsó,47.607778,19.128889,2026-03-05 15:58:20.451951,12.19,10.8,12.19,12.19,1024,51,0.3,336,6,0.0,Clear,clear sky,15
Vác-Alsóváros,47.773056,19.149722,2026-03-05 15:58:21.687636,11.43,10.3,11.43,11.43,1024,64,0.33,81,7,0.0,Clear,clear sky,15
Szob alsó,47.816667,18.8725,2026-03-05 15:58:22.924877,11.62,10.46,11.62,11.62,1024,62,0.56,275,6,0.0,Clear,clear sky,15
Zalaszentmihály-Pacsa,46.7225,16.951944,2026-03-05 15:58:24.165075,12.87,11.83,12.87,12.87,1024,62,0.19,115,1,0.0,Clear,clear sky,15
Pötréte,46.682778,16.9575,2026-03-05 15:58:25.401552,12.88,11.84,12.88,12.88,1024,62,0.14,141,1,0.0,Clear,clear sky,15
Felsőrajk,46.667222,16.982778,2026-03-05 15:58:26.642775,12.87,11.83,12.87,12.87,1024,62,0.11,100,1,0.0,Clear,clear sky,15
Gelse,46.600556,16.982778,2026-03-05 15:58:27.879502,12.86,11.82,12.86,12.86,1024,62,0.04,166,1,0.0,Clear,clear sky,15
Őrtilos,46.297778,16.887778,2026-03-05 15:58:29.114134,13.06,11.94,13.06,13.06,1024,58,0.06,45,0,0.0,Clear,clear sky,15
Zákány,46.251944,16.9425,2026-03-05 15:58:30.355734,12.9,11.76,12.9,12.9,1024,58,0.39,339,0,0.0,Clear,clear sky,15
Berzence,46.201389,17.143611,2026-03-05 15:58:31.587511,13.4,12.28,13.4,13.4,1024,57,1.08,325,0,0.0,Clear,clear sky,15
Somogyudvarhely,46.163333,17.179722,2026-03-05 15:58:32.828996,13.4,12.28,13.4,13.4,1024,57,1.17,324,0,0.0,Clear,clear sky,15
Bélavár,46.122778,17.207778,2026-03-05 15:58:34.065469,13.44,12.35,13.44,13.44,1024,58,1.2,325,0,0.0,Clear,clear sky,15
Vízvár,46.101389,17.239444,2026-03-05 15:58:35.300877,13.34,12.24,13.34,13.34,1024,58,1.23,324,0,0.0,Clear,clear sky,15
Babócsa,46.028359,17.342276,2026-03-05 15:58:36.537735,13.33,12.26,13.33,13.33,1024,59,1.26,320,0,0.0,Clear,clear sky,15
Péterhida-Komlósd,46.006667,17.358056,2026-03-05 15:58:37.775282,13.37,12.33,13.37,13.37,1024,60,1.24,319,1,0.0,Clear,clear sky,15
Barcs,45.951944,17.446944,2026-03-05 15:58:39.010574,13.37,12.33,13.37,13.37,1024,60,1.17,318,1,0.0,Clear,clear sky,15
Barcs felső,45.958333,17.486389,2026-03-05 15:58:40.254383,13.3,12.25,13.3,13.3,1024,60,1.16,318,1,0.0,Clear,clear sky,15
Középrigóc,45.970556,17.525,2026-03-05 15:58:41.491340,13.23,12.18,13.23,13.23,1024,60,1.15,319,1,0.0,Clear,clear sky,15
Darány,45.992222,17.598611,2026-03-05 15:58:42.730572,13.27,12.22,13.27,13.27,1024,60,1.1,327,1,0.0,Clear,clear sky,15
Kisdobsza,46.012222,17.668056,2026-03-05 15:58:43.968614,13.32,12.3,13.32,13.32,1024,61,1.08,335,0,0.0,Clear,clear sky,15
Nemeske,46.023333,17.705278,2026-03-05 15:58:45.206510,13.34,12.32,13.34,13.34,1024,61,1.08,337,0,0.0,Clear,clear sky,15
Molvány,46.035278,17.748611,2026-03-05 15:58:46.448065,13.26,12.26,13.26,13.26,1024,62,1.11,342,0,0.0,Clear,clear sky,15
Szigetvár,46.043333,17.801944,2026-03-05 15:58:47.682287,13.23,12.25,13.23,13.23,1024,63,1.14,342,0,0.0,Clear,clear sky,15
Nagypeterd,46.039444,17.871667,2026-03-05 15:58:48.915855,13.22,12.24,13.22,13.22,1024,63,1.23,339,0,0.0,Clear,clear sky,15
Szentdénes,46.036667,17.926944,2026-03-05 15:58:50.153448,13.15,12.17,13.15,13.15,1024,63,1.29,337,0,0.0,Clear,clear sky,15
Háros,47.412222,19.035,2026-03-05 15:58:51.390167,12.33,10.74,12.33,12.33,1024,43,1.13,319,4,0.0,Clear,clear sky,15
Nagytétény-Diósd,47.398333,18.974444,2026-03-05 15:58:52.624719,12.63,11.07,12.63,12.63,1024,43,1.35,319,5,0.0,Clear,clear sky,15
Érdliget,47.390278,18.937778,2026-03-05 15:58:53.862275,12.52,10.95,12.52,12.52,1024,43,1.51,318,5,0.0,Clear,clear sky,15
Érd felső,47.381111,18.922222,2026-03-05 15:58:55.100995,12.15,10.54,12.15,12.15,1024,43,1.68,317,5,0.0,Clear,clear sky,15
Érd,47.369722,18.900833,2026-03-05 15:58:56.338500,12.32,10.73,12.32,12.32,1024,43,1.76,318,5,0.0,Clear,clear sky,15
Százhalombatta,47.322222,18.899167,2026-03-05 15:58:57.583036,12.35,10.79,12.35,12.35,1024,44,1.94,319,4,0.0,Clear,clear sky,15
Dunai Finomító,47.294444,18.878889,2026-03-05 15:58:58.823034,12.16,10.53,12.16,12.16,1024,42,2.3,317,4,0.0,Clear,clear sky,15
Ercsi,47.247222,18.875278,2026-03-05 15:59:00.061316,12.31,10.72,12.31,12.31,1024,43,2.35,317,4,0.0,Clear,clear sky,15
Iváncsa,47.177778,18.811944,2026-03-05 15:59:01.302975,12.29,10.65,12.29,12.29,1024,41,2.66,316,4,0.0,Clear,clear sky,15
Pusztaszabolcs,47.139722,18.761667,2026-03-05 15:59:02.535045,12.39,10.76,12.39,12.39,1024,41,2.75,317,4,0.0,Clear,clear sky,15
Szabadegyháza,47.082778,18.704167,2026-03-05 15:59:03.784948,12.37,10.76,12.37,12.37,1024,42,2.73,321,4,0.0,Clear,clear sky,15
Sárosd,47.039722,18.660278,2026-03-05 15:59:05.018648,12.41,10.83,12.41,12.41,1024,43,2.56,329,4,0.0,Clear,clear sky,15
Nagylók,46.979444,18.635833,2026-03-05 15:59:06.257430,12.35,10.82,12.35,12.35,1024,45,2.59,331,4,0.0,Clear,clear sky,15
Sárbogárd,46.896944,18.611944,2026-03-05 15:59:07.489910,12.65,11.22,12.65,12.65,1024,48,2.55,337,3,0.0,Clear,clear sky,15
Rétszilas,46.814167,18.601389,2026-03-05 15:59:08.728077,12.82,11.46,12.82,12.82,1024,50,2.53,339,3,0.0,Clear,clear sky,15
Nagyatád,46.228611,17.354167,2026-03-05 15:59:09.964067,13.51,12.38,13.51,13.51,1024,56,1.37,326,0,0.0,Clear,clear sky,15
Budapest-Keleti,47.500278,19.084167,2026-03-05 15:59:11.198262,12.52,11.0,12.52,12.52,1024,45,0.78,313,4,0.0,Clear,clear sky,15
Ferencváros,47.468611,19.088056,2026-03-05 15:59:12.442630,12.62,11.09,12.62,12.62,1024,44,0.85,316,4,0.0,Clear,clear sky,15
Budapest-Nyugati,47.510833,19.0575,2026-03-05 15:59:13.681592,12.5,11.01,12.5,12.5,1024,46,0.71,310,5,0.0,Clear,clear sky,15
Kőbánya felső,47.491944,19.133889,2026-03-05 15:59:14.918149,12.49,10.97,12.49,12.49,1024,45,0.58,329,4,0.0,Clear,clear sky,15
Rákos,47.488889,19.174722,2026-03-05 15:59:16.159979,12.41,10.91,12.41,12.41,1024,46,0.56,337,4,0.0,Clear,clear sky,15
Rákosrendező,47.525556,19.089444,2026-03-05 15:59:17.392909,12.51,11.02,12.51,12.51,1024,46,0.55,319,4,0.0,Clear,clear sky,15
Zugló,47.511389,19.101389,2026-03-05 15:59:18.633226,12.51,11.02,12.51,12.51,1024,46,0.55,319,4,0.0,Clear,clear sky,15
Mezőtárkány,47.725,20.480278,2026-03-05 15:59:19.870039,10.25,8.92,10.25,10.25,1024,61,1.18,232,3,0.0,Clear,clear sky,15
Istvántelek,47.550278,19.106389,2026-03-05 15:59:21.107588,12.44,10.97,12.44,12.44,1024,47,0.48,318,4,0.0,Clear,clear sky,15
Rákospalota-Újpest,47.565833,19.111944,2026-03-05 15:59:22.346977,12.32,10.89,12.32,12.32,1024,49,0.41,317,5,0.0,Clear,clear sky,15
Kőbánya alsó,47.483056,19.127222,2026-03-05 15:59:23.584670,12.49,10.97,12.49,12.49,1024,45,0.58,329,4,0.0,Clear,clear sky,15
Kőbánya-Kispest,47.463889,19.149444,2026-03-05 15:59:24.820183,12.52,11.0,12.52,12.52,1024,45,0.66,330,3,0.0,Clear,clear sky,15
Pestszentlőrinc,47.454722,19.182778,2026-03-05 15:59:26.053346,12.44,10.94,12.44,12.44,1024,46,0.74,339,3,0.0,Clear,clear sky,15
Kispest,47.448135,19.157552,2026-03-05 15:59:27.297746,12.57,11.06,12.57,12.57,1024,45,0.76,332,3,0.0,Clear,clear sky,15
Újpest,47.558889,19.079722,2026-03-05 15:59:28.534194,12.44,10.99,12.44,12.44,1024,48,0.63,308,5,0.0,Clear,clear sky,15
Pestszentimre felső,47.413611,19.173333,2026-03-05 15:59:29.765049,12.43,10.93,12.43,12.43,1024,46,0.84,340,3,0.0,Clear,clear sky,15
Dunakeszi,47.626111,19.136111,2026-03-05 15:59:30.996628,12.01,10.65,12.01,12.01,1024,53,0.23,345,6,0.0,Clear,clear sky,15
Dunakeszi-Gyártelep,47.643611,19.135,2026-03-05 15:59:32.230189,11.94,10.63,11.94,11.94,1024,55,0.18,3,7,0.0,Clear,clear sky,15
Alsógöd,47.676944,19.134444,2026-03-05 15:59:33.465203,11.83,10.58,11.83,11.83,1024,58,0.17,28,7,0.0,Clear,clear sky,15
Göd,47.687778,19.1375,2026-03-05 15:59:34.710552,11.83,10.58,11.83,11.83,1024,58,0.17,28,7,0.0,Clear,clear sky,15
Felsőgöd,47.705556,19.143333,2026-03-05 15:59:35.941982,11.78,10.58,11.78,11.78,1024,60,0.19,51,8,0.0,Clear,clear sky,15
Sződ-Sződliget,47.728056,19.154722,2026-03-05 15:59:37.177470,11.71,10.53,11.71,11.71,1024,61,0.23,67,8,0.0,Clear,clear sky,15
Vác,47.782778,19.133056,2026-03-05 15:59:38.418532,11.43,10.3,11.43,11.43,1024,64,0.33,81,7,0.0,Clear,clear sky,15
Verőce,47.823889,19.029444,2026-03-05 15:59:39.651539,10.72,9.54,10.72,10.72,1024,65,0.14,306,5,0.0,Clear,clear sky,15
Kismaros,47.8275,19.010278,2026-03-05 15:59:40.881047,9.98,9.98,9.98,9.98,1024,65,0.23,290,6,0.0,Clear,clear sky,15
Nagymaros-Visegrád,47.791389,18.959167,2026-03-05 15:59:42.114955,10.45,9.22,10.45,10.45,1024,64,0.41,283,6,0.0,Clear,clear sky,15
Nagymaros,47.780278,18.952222,2026-03-05 15:59:43.351601,10.45,9.22,10.45,10.45,1024,64,0.41,283,6,0.0,Clear,clear sky,15
Zebegény,47.801389,18.908889,2026-03-05 15:59:44.588029,11.16,10.0,11.16,11.16,1024,64,0.45,280,6,0.0,Clear,clear sky,15
Szob,47.821111,18.861944,2026-03-05 15:59:45.822183,11.05,9.8,11.05,11.05,1024,61,0.53,273,6,0.0,Clear,clear sky,15
Alagimajor,47.601944,19.153889,2026-03-05 15:59:47.060125,12.19,10.8,12.19,12.19,1024,51,0.3,336,6,0.0,Clear,clear sky,15
Fót,47.611389,19.181667,2026-03-05 15:59:48.294660,11.82,10.44,11.82,11.82,1024,53,0.25,16,7,0.0,Clear,clear sky,15
Fótújfalu,47.615,19.192778,2026-03-05 15:59:49.536810,11.82,10.44,11.82,11.82,1024,53,0.25,16,7,0.0,Clear,clear sky,15
Csomád,47.635556,19.222778,2026-03-05 15:59:50.777146,11.02,9.56,11.02,11.02,1024,53,0.31,37,7,0.0,Clear,clear sky,15
Veresegyház,47.649167,19.288611,2026-03-05 15:59:52.011986,11.42,10.11,11.42,11.42,1024,57,0.71,70,11,0.0,Clouds,few clouds,15
Erdőkertes,47.662222,19.295833,2026-03-05 15:59:53.246822,11.42,10.11,11.42,11.42,1024,57,0.71,70,11,0.0,Clouds,few clouds,15
Őrbottyán,47.685833,19.283611,2026-03-05 15:59:54.481672,11.16,9.85,11.16,11.16,1024,58,0.77,76,12,0.0,Clouds,few clouds,15
Váchartyán,47.725833,19.248889,2026-03-05 15:59:55.719431,11.11,9.84,11.11,11.11,1024,60,0.77,83,12,0.0,Clouds,few clouds,15
Magyarkút-Verőce,47.826111,19.044444,2026-03-05 15:59:56.955446,10.72,9.54,10.72,10.72,1024,65,0.14,306,5,0.0,Clear,clear sky,15
Szokolya,47.871111,19.030556,2026-03-05 15:59:58.193667,10.01,8.74,10.01,10.01,1024,64,0.06,329,5,0.0,Clear,clear sky,15
Berkenye,47.885278,19.071944,2026-03-05 15:59:59.441793,10.7,9.5,10.7,10.7,1024,64,0.1,73,4,0.0,Clear,clear sky,15
Nógrád,47.901944,19.0475,2026-03-05 16:00:00.697841,10.35,9.09,10.35,10.35,1024,63,0.02,360,5,0.0,Clear,clear sky,15
Diósjenő,47.94,19.049444,2026-03-05 16:00:01.941136,9.97,9.97,9.97,9.97,1024,62,0.04,146,5,0.0,Clear,clear sky,15
Borsosberény,47.971389,19.093056,2026-03-05 16:00:03.174098,10.6,9.33,10.6,10.6,1024,62,0.48,121,3,0.0,Clear,clear sky,15
Nagyoroszi,47.993611,19.101111,2026-03-05 16:00:04.413875,10.43,9.12,10.43,10.43,1024,61,0.51,132,4,0.0,Clear,clear sky,15
Drégelyvár,48.001944,19.079444,2026-03-05 16:00:05.646569,10.7,9.39,10.7,10.7,1024,60,0.33,160,6,0.0,Clear,clear sky,15
Drégely,48.042222,19.056111,2026-03-05 16:00:06.888621,11.04,9.77,11.04,11.04,1024,60,0.43,171,7,0.0,Clear,clear sky,15
Drégelypalánk,48.055,19.046111,2026-03-05 16:00:08.149925,11.18,9.89,11.18,11.18,1024,59,0.51,191,8,0.0,Clear,clear sky,15
Ipolyvece,48.056944,19.106389,2026-03-05 16:00:09.381502,11.09,9.85,11.09,11.09,1024,61,0.73,161,10,0.0,Clear,clear sky,15
Dejtár,48.045556,19.196389,2026-03-05 16:00:10.625877,10.97,9.74,10.97,10.97,1024,62,0.89,146,10,0.0,Clear,clear sky,15
Ipolyszög,48.054444,19.221944,2026-03-05 16:00:11.859795,10.93,9.72,10.93,10.93,1024,63,1.07,153,16,0.0,Clouds,few clouds,15
Iklad-Domony,47.658056,19.444444,2026-03-05 16:00:13.096987,11.39,10.2,11.39,11.39,1024,62,1.33,75,13,0.0,Clouds,few clouds,15
Iklad-Domony felső,47.667778,19.428056,2026-03-05 16:00:14.341080,11.36,10.17,11.36,11.36,1024,62,1.24,78,14,0.0,Clouds,few clouds,15
Galgamácsa,47.693889,19.3925,2026-03-05 16:00:15.577876,11.1,9.86,11.1,11.1,1024,61,1.06,81,14,0.0,Clouds,few clouds,15
Vácrátót,47.732778,19.217778,2026-03-05 16:00:16.810275,11.39,10.18,11.39,11.39,1024,61,0.51,80,10,0.0,Clear,clear sky,15
Csörög,47.735833,19.196389,2026-03-05 16:00:18.048862,11.64,10.45,11.64,11.64,1024,61,0.36,76,9,0.0,Clear,clear sky,15
Galgagyörk,47.735278,19.372222,2026-03-05 16:00:19.293291,11.11,9.9,11.11,11.11,1024,62,1.09,84,15,0.0,Clouds,few clouds,15
Püspökhatvan,47.768611,19.366944,2026-03-05 16:00:20.533958,11.0,9.8,11.0,11.0,1024,63,1.12,89,17,0.0,Clouds,few clouds,15
Acsa-Erdőkürt,47.801111,19.386111,2026-03-05 16:00:21.764247,10.79,9.57,10.79,10.79,1024,63,1.13,93,18,0.0,Clouds,few clouds,15
Galgaguta,47.848611,19.385556,2026-03-05 16:00:22.996633,10.4,9.17,10.4,10.4,1024,64,1.13,103,20,0.0,Clouds,few clouds,15
Nógrádkövesd,47.879444,19.371111,2026-03-05 16:00:24.236037,10.52,9.3,10.52,10.52,1024,64,1.13,109,21,0.0,Clouds,few clouds,15
Magyarnándor,47.970833,19.356667,2026-03-05 16:00:25.473385,10.33,9.09,10.33,10.33,1024,64,1.13,128,20,0.0,Clouds,few clouds,15
Mohora,47.995556,19.347778,2026-03-05 16:00:26.708198,10.43,9.2,10.43,10.43,1024,64,1.15,135,22,0.0,Clouds,few clouds,15
Szügy,48.036389,19.333056,2026-03-05 16:00:27.941582,10.61,9.4,10.61,10.61,1024,64,1.25,150,28,0.0,Clouds,scattered clouds,15
Balassagyarmat,48.071111,19.293611,2026-03-05 16:00:29.174153,10.73,9.53,10.73,10.73,1024,64,1.3,155,27,0.0,Clouds,scattered clouds,15
Őrhalom,48.078773,19.403936,2026-03-05 16:00:30.414514,10.34,9.1,10.34,10.34,1024,64,1.42,173,53,0.0,Clouds,broken clouds,15
Hugyag,48.083056,19.421111,2026-03-05 16:00:31.656789,10.34,9.1,10.34,10.34,1024,64,1.42,173,53,0.0,Clouds,broken clouds,15
Szécsény,48.093056,19.521111,2026-03-05 16:00:32.889520,10.46,9.26,10.46,10.46,1024,65,1.37,184,70,0.0,Clouds,broken clouds,15
Ludányhalászi,48.1325,19.529444,2026-03-05 16:00:34.122879,10.43,9.2,10.43,10.43,1024,64,1.63,191,69,0.0,Clouds,broken clouds,15
Nógrádszakál,48.178333,19.521667,2026-03-05 16:00:35.365378,10.39,9.13,10.39,10.39,1024,63,1.74,193,67,0.0,Clouds,broken clouds,15
Ráróspuszta,48.207222,19.541389,2026-03-05 16:00:36.598254,9.84,9.08,9.84,9.84,1024,63,1.91,196,64,0.0,Clouds,broken clouds,15
Litke,48.215833,19.598611,2026-03-05 16:00:37.838467,10.29,9.02,10.29,10.29,1024,63,1.85,201,67,0.0,Clouds,broken clouds,15
Nyíregyháza külső,47.943056,21.740278,2026-03-05 16:00:39.072716,10.17,8.5,10.17,10.17,1025,48,3.32,36,11,0.0,Clouds,few clouds,15
Oros,47.945833,21.806389,2026-03-05 16:00:40.304345,10.25,8.53,10.25,10.25,1025,46,3.45,26,11,0.0,Clouds,few clouds,15
Napkor,47.948889,21.873056,2026-03-05 16:00:41.542684,10.34,8.58,10.34,10.34,1025,44,3.69,12,13,0.0,Clouds,few clouds,15
Apagy,47.953775,21.939044,2026-03-05 16:00:42.777109,10.39,8.61,10.39,10.39,1025,43,3.77,7,13,0.0,Clouds,few clouds,15
Levelek-Magy,47.948056,21.993611,2026-03-05 16:00:44.006663,10.44,8.64,10.44,10.44,1025,42,3.93,359,14,0.0,Clouds,few clouds,15
Ófehértó,47.940556,22.041389,2026-03-05 16:00:45.249191,10.4,8.59,10.4,10.4,1025,42,4.0,356,13,0.0,Clouds,few clouds,15
Ligettanya,47.951667,22.071389,2026-03-05 16:00:46.489428,10.38,8.57,10.38,10.38,1025,42,4.12,349,14,0.0,Clouds,few clouds,15
Baktalórántháza,47.988611,22.083333,2026-03-05 16:00:47.723680,10.37,8.56,10.37,10.37,1025,42,4.12,349,15,0.0,Clouds,few clouds,15
Vaja-Rohod,48.006389,22.164167,2026-03-05 16:00:48.969388,10.4,8.59,10.4,10.4,1025,42,4.22,342,16,0.0,Clouds,few clouds,15
Rákóczitanya,48.022222,22.178333,2026-03-05 16:00:50.210620,10.39,8.58,10.39,10.39,1024,42,4.25,339,17,0.0,Clouds,few clouds,15
Nyírmada,48.059167,22.203056,2026-03-05 16:00:51.443458,10.35,8.56,10.35,10.35,1024,43,4.23,338,18,0.0,Clouds,few clouds,15
Tunyogmatolcs,47.960244,22.442247,2026-03-05 16:00:52.675510,10.76,9.01,10.76,10.76,1024,43,4.16,326,18,0.0,Clouds,few clouds,15
Tunyogmatolcs alsó,47.966025,22.464713,2026-03-05 16:00:53.917033,10.78,9.04,10.78,10.78,1024,43,4.13,324,19,0.0,Clouds,few clouds,15
Fehérgyarmat,47.979167,22.524444,2026-03-05 16:00:55.148819,10.83,9.12,10.83,10.83,1024,44,4.09,318,21,0.0,Clouds,few clouds,15
Penyige,47.995278,22.566944,2026-03-05 16:00:56.385745,10.89,9.18,10.89,10.89,1024,44,4.05,317,22,0.0,Clouds,few clouds,15
Nagyszekeres,47.976111,22.6125,2026-03-05 16:00:57.636929,10.93,9.23,10.93,10.93,1024,44,4.04,315,23,0.0,Clouds,few clouds,15
Kisszekeres,47.965833,22.629444,2026-03-05 16:00:58.878321,10.96,9.26,10.96,10.96,1024,44,4.0,315,21,0.0,Clouds,few clouds,15
Jánkmajtis,47.941944,22.657222,2026-03-05 16:01:00.119716,11.04,9.32,11.04,11.04,1024,43,3.95,314,21,0.0,Clouds,few clouds,15
Gacsály,47.926111,22.745,2026-03-05 16:01:01.355456,11.15,9.47,11.15,11.15,1024,44,3.93,309,23,0.0,Clouds,few clouds,15
Zajta,47.9025,22.796111,2026-03-05 16:01:02.601758,11.3,9.61,11.3,11.3,1024,43,3.94,307,23,0.0,Clouds,few clouds,15
Eperjeske alsó,48.360556,22.19,2026-03-05 16:01:03.835180,9.83,7.71,9.83,9.83,1025,50,4.18,329,41,0.0,Clouds,scattered clouds,15
Mándok,48.326944,22.196389,2026-03-05 16:01:05.074566,9.91,7.83,9.91,9.91,1025,49,4.14,330,35,0.0,Clouds,scattered clouds,15
Tornyospálca,48.268333,22.201944,2026-03-05 16:01:06.305035,10.04,8.35,10.04,10.04,1025,48,4.1,331,30,0.0,Clouds,scattered clouds,15
Aranyosapáti,48.211303,22.253534,2026-03-05 16:01:07.538495,10.25,8.56,10.25,10.25,1025,47,4.24,326,27,0.0,Clouds,scattered clouds,15
Gyüre,48.171389,22.269167,2026-03-05 16:01:08.771369,10.34,8.63,10.34,10.34,1025,46,4.27,327,23,0.0,Clouds,few clouds,15
Varsány,48.151722,22.290047,2026-03-05 16:01:10.008820,10.4,8.67,10.4,10.4,1024,45,4.31,326,22,0.0,Clouds,few clouds,15
Vásárosnamény,48.126667,22.306111,2026-03-05 16:01:11.253291,10.45,8.73,10.45,10.45,1024,45,4.31,327,21,0.0,Clouds,few clouds,15
Vitka,48.095556,22.308056,2026-03-05 16:01:12.488696,10.49,8.74,10.49,10.49,1024,44,4.31,328,20,0.0,Clouds,few clouds,15
Nagydobos,48.054167,22.311111,2026-03-05 16:01:13.723158,10.46,8.71,10.46,10.46,1024,44,4.31,329,19,0.0,Clouds,few clouds,15
Ópályi,47.997778,22.318333,2026-03-05 16:01:14.963906,10.53,8.76,10.53,10.53,1024,43,4.25,332,17,0.0,Clouds,few clouds,15
Nyírcsaholy,47.908056,22.348333,2026-03-05 16:01:16.200512,10.67,8.89,10.67,10.67,1024,42,4.11,332,16,0.0,Clouds,few clouds,15
Nagyecsed,47.864722,22.385556,2026-03-05 16:01:17.440791,10.76,8.99,10.76,10.76,1024,42,3.98,330,16,0.0,Clouds,few clouds,15
Tiborszállás,47.815278,22.402778,2026-03-05 16:01:18.677330,10.76,8.99,10.76,10.76,1024,42,3.86,331,15,0.0,Clouds,few clouds,15
Kiskunhalas,46.434444,19.493611,2026-03-05 16:01:19.913263,13.1,11.9,13.1,13.1,1024,55,1.92,323,3,0.0,Clear,clear sky,15
Kecskemét alsó,46.895833,19.692222,2026-03-05 16:01:21.146243,12.67,11.4,12.67,12.67,1024,54,1.95,319,3,0.0,Clear,clear sky,15
Putnok,48.286667,20.4375,2026-03-05 16:01:22.384963,9.78,9.51,9.78,9.78,1024,64,1.4,263,21,0.0,Clouds,few clouds,15
Bánréve,48.299722,20.351944,2026-03-05 16:01:23.614573,9.89,9.5,9.89,9.89,1024,64,1.52,257,18,0.0,Clouds,few clouds,15
Ipolytarnóc,48.236667,19.629167,2026-03-05 16:01:24.851722,10.21,8.93,10.21,10.21,1024,63,1.89,202,64,0.0,Clouds,broken clouds,15
Rákosliget,47.486111,19.257778,2026-03-05 16:01:26.084524,11.92,10.45,11.92,11.92,1024,49,0.58,2,4,0.0,Clear,clear sky,15
Ikrény,47.657778,17.524167,2026-03-05 16:01:27.320320,12.8,11.52,12.8,12.8,1024,53,0.21,185,0,0.0,Clear,clear sky,15
Rábapatona,47.648889,17.461944,2026-03-05 16:01:28.550635,12.87,11.62,12.87,12.87,1024,54,0.38,220,0,0.0,Clear,clear sky,15
Enese,47.644167,17.425278,2026-03-05 16:01:29.786997,12.89,11.64,12.89,12.89,1024,54,0.55,236,0,0.0,Clear,clear sky,15
Kóny,47.632222,17.357222,2026-03-05 16:01:31.025493,12.89,11.67,12.89,12.89,1024,55,0.72,241,0,0.0,Clear,clear sky,15
Farád,47.595278,17.195833,2026-03-05 16:01:32.265315,12.99,11.78,12.99,12.99,1024,55,0.82,272,1,0.0,Clear,clear sky,15
Rábatamási,47.592778,17.161389,2026-03-05 16:01:33.512326,12.99,11.78,12.99,12.99,1024,55,0.82,272,1,0.0,Clear,clear sky,15
Szárföld,47.589167,17.123889,2026-03-05 16:01:34.744874,13.0,11.79,13.0,13.0,1024,55,0.78,277,1,0.0,Clear,clear sky,15
Veszkény,47.586944,17.101389,2026-03-05 16:01:35.989088,13.02,11.81,13.02,13.02,1024,55,0.71,282,1,0.0,Clear,clear sky,15
Kapuvár,47.581944,17.046944,2026-03-05 16:01:37.223333,13.01,11.83,13.01,13.01,1024,56,0.36,308,1,0.0,Clear,clear sky,15
Vitnyéd-Csermajor,47.5825,16.987222,2026-03-05 16:01:38.467093,13.02,11.84,13.02,13.02,1024,56,0.25,18,0,0.0,Clear,clear sky,15
Petőháza,47.595278,16.893056,2026-03-05 16:01:39.708365,13.05,11.9,13.05,13.05,1024,57,0.6,78,0,0.0,Clear,clear sky,15
Fertőszentmiklós,47.6,16.858889,2026-03-05 16:01:40.951225,13.03,11.88,13.03,13.03,1024,57,0.84,87,0,0.0,Clear,clear sky,15
Pinnye,47.600278,16.768611,2026-03-05 16:01:42.195249,12.89,11.78,12.89,12.89,1024,59,1.74,102,0,0.0,Clear,clear sky,15
Fertőboz,47.625,16.691667,2026-03-05 16:01:43.428373,12.82,11.67,12.82,12.82,1024,58,2.05,106,0,0.0,Clear,clear sky,15
Sopron,47.677778,16.587222,2026-03-05 16:01:44.663943,12.52,11.34,12.52,12.52,1024,58,2.45,109,1,0.0,Clear,clear sky,15
Fertőszéplak-Fertőd,47.618889,16.850833,2026-03-05 16:01:45.910930,13.08,11.96,13.08,13.08,1024,58,0.95,92,0,0.0,Clear,clear sky,15
Nyúl,47.587778,17.698056,2026-03-05 16:01:47.148792,12.67,11.4,12.67,12.67,1024,54,0.16,288,2,0.0,Clear,clear sky,15
Pannonhalma,47.547778,17.740833,2026-03-05 16:01:48.394662,12.45,11.19,12.45,12.45,1024,55,0.53,298,2,0.0,Clear,clear sky,15
Tarjánpuszta,47.504722,17.789167,2026-03-05 16:01:49.637629,12.35,11.13,12.35,12.35,1024,57,0.77,295,2,0.0,Clear,clear sky,15
Győrasszonyfa,47.4925,17.799167,2026-03-05 16:01:50.875606,12.35,11.13,12.35,12.35,1024,57,0.77,295,2,0.0,Clear,clear sky,15
Veszprémvarsány,47.443333,17.818333,2026-03-05 16:01:52.112883,12.24,11.06,12.24,12.24,1024,59,1.01,302,2,0.0,Clear,clear sky,15
Bakonyszentlászló,47.395556,17.8175,2026-03-05 16:01:53.343752,11.87,10.73,11.87,11.87,1024,62,1.17,306,1,0.0,Clear,clear sky,15
Porva-Csesznek,47.326944,17.841111,2026-03-05 16:01:54.580020,10.52,9.3,10.52,10.52,1025,64,1.31,313,1,0.0,Clear,clear sky,15
Zirc,47.266667,17.878056,2026-03-05 16:01:55.824878,10.56,9.39,10.56,10.56,1025,66,1.55,324,1,0.0,Clear,clear sky,15
Eplény,47.192778,17.921667,2026-03-05 16:01:57.067440,11.03,9.91,11.03,11.03,1024,66,1.58,330,1,0.0,Clear,clear sky,15
Marcaltő,47.4275,17.348889,2026-03-05 16:01:58.300972,12.88,11.79,12.88,12.88,1024,60,0.38,243,2,0.0,Clear,clear sky,15
Szany-Rábaszentandrás,47.460833,17.315278,2026-03-05 16:01:59.534471,12.88,11.76,12.88,12.88,1024,59,0.6,239,1,0.0,Clear,clear sky,15
Egyed-Rábacsanak,47.521944,17.316389,2026-03-05 16:02:00.766547,12.87,11.73,12.87,12.87,1024,58,0.74,239,1,0.0,Clear,clear sky,15
Rábapordány,47.557222,17.315,2026-03-05 16:02:02.004666,12.9,11.73,12.9,12.9,1024,57,0.79,241,1,0.0,Clear,clear sky,15
Albertfalva,47.440784,19.033965,2026-03-05 16:02:03.246475,12.42,10.87,12.42,12.42,1024,44,1.04,317,4,0.0,Clear,clear sky,15
Budafok,47.425833,19.041389,2026-03-05 16:02:04.477166,12.33,10.74,12.33,12.33,1024,43,1.13,319,4,0.0,Clear,clear sky,15
Tétényliget,47.384722,18.955278,2026-03-05 16:02:05.745666,12.52,10.95,12.52,12.52,1024,43,1.51,318,5,0.0,Clear,clear sky,15
Érd alsó,47.379722,18.923056,2026-03-05 16:02:06.972230,12.15,10.54,12.15,12.15,1024,43,1.68,317,5,0.0,Clear,clear sky,15
Tárnok,47.365556,18.873889,2026-03-05 16:02:08.219998,12.34,10.75,12.34,12.34,1024,43,2.09,316,5,0.0,Clear,clear sky,15
Martonvásár,47.321389,18.781667,2026-03-05 16:02:09.460216,12.23,10.61,12.23,12.23,1024,42,2.44,316,4,0.0,Clear,clear sky,15
Baracska,47.297222,18.753333,2026-03-05 16:02:10.700785,12.29,10.65,12.29,12.29,1024,41,2.53,317,4,0.0,Clear,clear sky,15
Pettend,47.26,18.708889,2026-03-05 16:02:11.952841,12.14,10.45,12.14,12.14,1024,40,2.53,320,4,0.0,Clear,clear sky,15
Kápolnásnyék,47.245556,18.692222,2026-03-05 16:02:13.197467,12.23,10.55,12.23,12.23,1024,40,2.48,322,4,0.0,Clear,clear sky,15
Velence,47.226944,18.663889,2026-03-05 16:02:14.432276,12.3,10.63,12.3,12.3,1024,40,2.39,325,4,0.0,Clear,clear sky,15
Velencefürdő,47.218611,18.648056,2026-03-05 16:02:15.677349,12.32,10.65,12.32,12.32,1024,40,2.42,325,4,0.0,Clear,clear sky,15
Gárdony,47.205833,18.624722,2026-03-05 16:02:16.913122,12.35,10.68,12.35,12.35,1024,40,2.31,329,4,0.0,Clear,clear sky,15
Agárd,47.197666,18.604907,2026-03-05 16:02:18.151804,12.35,10.68,12.35,12.35,1024,40,2.31,329,4,0.0,Clear,clear sky,15
Dinnyés,47.179722,18.560833,2026-03-05 16:02:19.396039,12.37,10.73,12.37,12.37,1024,41,2.14,339,4,0.0,Clear,clear sky,15
Székesfehérvár,47.183611,18.424722,2026-03-05 16:02:20.638797,12.42,10.89,12.42,12.42,1024,45,1.94,357,4,0.0,Clear,clear sky,15
Szabadbattyán,47.105278,18.388333,2026-03-05 16:02:21.885731,12.49,11.02,12.49,12.49,1024,47,2.03,3,4,0.0,Clear,clear sky,15
Kiscséripuszta,47.048056,18.355,2026-03-05 16:02:23.128197,12.37,10.94,12.37,12.37,1024,49,2.05,6,4,0.0,Clear,clear sky,15
Lepsény,46.9875,18.248056,2026-03-05 16:02:24.365382,12.71,11.37,12.71,12.71,1024,51,1.93,8,3,0.0,Clear,clear sky,15
Balatonaliga,46.984444,18.171389,2026-03-05 16:02:25.604650,12.51,11.25,12.51,12.51,1024,55,1.58,7,3,0.0,Clear,clear sky,15
Balatonvilágos,46.964167,18.157222,2026-03-05 16:02:26.841480,12.86,11.66,12.86,12.86,1024,56,1.41,6,2,0.0,Clear,clear sky,15
Szabadifürdő,46.926111,18.103333,2026-03-05 16:02:28.085566,12.88,11.71,12.88,12.88,1024,57,1.18,2,2,0.0,Clear,clear sky,15
Ózd alsó,48.227778,20.306111,2026-03-05 16:02:29.316445,9.6,9.29,9.6,9.6,1024,64,1.41,261,35,0.0,Clouds,scattered clouds,15
Ózd,48.2225,20.294722,2026-03-05 16:02:30.554768,9.6,9.29,9.6,9.6,1024,64,1.41,261,35,0.0,Clouds,scattered clouds,15
Alsóboldva,48.212778,20.792222,2026-03-05 16:02:31.793037,9.65,9.65,9.65,9.65,1024,65,0.57,211,28,0.0,Clouds,scattered clouds,15
Boldva,48.223333,20.790278,2026-03-05 16:02:33.024699,9.65,9.65,9.65,9.65,1024,65,0.57,211,28,0.0,Clouds,scattered clouds,15
Borsodszirák,48.259167,20.770556,2026-03-05 16:02:34.262658,9.75,9.75,9.75,9.75,1024,64,0.67,242,23,0.0,Clouds,few clouds,15
Edelény alsó,48.279167,20.760833,2026-03-05 16:02:35.503664,9.75,9.75,9.75,9.75,1024,64,0.67,242,23,0.0,Clouds,few clouds,15
Edelény,48.299722,20.749444,2026-03-05 16:02:36.735722,9.77,9.77,9.77,9.77,1024,63,0.77,245,22,0.0,Clouds,few clouds,15
Szendrőlád,48.334444,20.731944,2026-03-05 16:02:37.971812,8.81,8.81,8.81,8.81,1024,62,1.08,249,21,0.0,Clouds,few clouds,15
Szendrő,48.400725,20.721346,2026-03-05 16:02:39.210230,9.8,9.8,9.8,9.8,1024,61,1.29,244,25,0.0,Clouds,scattered clouds,15
Szendrő felső,48.409907,20.720148,2026-03-05 16:02:40.454635,9.8,9.8,9.8,9.8,1024,61,1.29,244,25,0.0,Clouds,scattered clouds,15
Szalonna,48.449444,20.722222,2026-03-05 16:02:41.688854,9.91,9.68,9.91,9.91,1024,60,1.38,239,29,0.0,Clouds,scattered clouds,15
Perkupa,48.471389,20.691111,2026-03-05 16:02:42.936520,9.21,8.62,9.21,9.21,1024,60,1.62,244,31,0.0,Clouds,scattered clouds,15
Szemeretelep,47.443056,19.214167,2026-03-05 16:02:44.174784,12.34,10.86,12.34,12.34,1024,47,0.74,344,3,0.0,Clear,clear sky,15
Jósvafő-Aggtelek,48.489722,20.693889,2026-03-05 16:02:45.417613,9.53,9.06,9.53,9.53,1024,60,1.55,242,33,0.0,Clouds,scattered clouds,15
Bódvaszilas,48.5375,20.738056,2026-03-05 16:02:46.654321,9.15,9.15,9.15,9.15,1024,57,1.14,233,34,0.0,Clouds,scattered clouds,15
Komjáti,48.5475,20.759722,2026-03-05 16:02:47.893763,8.69,8.69,8.69,8.69,1024,55,0.76,221,35,0.0,Clouds,scattered clouds,15
Tornanádaska,48.558333,20.787222,2026-03-05 16:02:49.131289,9.84,9.84,9.84,9.84,1024,54,0.58,201,35,0.0,Clouds,scattered clouds,15
Onga,48.121111,20.906667,2026-03-05 16:02:50.362767,9.66,9.66,9.66,9.66,1024,66,1.1,144,26,0.0,Clouds,scattered clouds,15
Szikszó-Vásártér,48.193056,20.934722,2026-03-05 16:02:51.600582,9.74,9.74,9.74,9.74,1024,64,0.6,170,29,0.0,Clouds,scattered clouds,15
Szikszó,48.201667,20.941667,2026-03-05 16:02:52.853560,9.84,9.84,9.84,9.84,1024,64,0.58,164,28,0.0,Clouds,scattered clouds,15
Aszaló,48.219867,20.961466,2026-03-05 16:02:54.089105,9.73,9.73,9.73,9.73,1024,63,0.49,175,30,0.0,Clouds,scattered clouds,15
Halmaj,48.246667,20.991667,2026-03-05 16:02:55.323436,9.93,9.93,9.93,9.93,1024,62,0.43,172,31,0.0,Clouds,scattered clouds,15
Csobád,48.277222,21.033889,2026-03-05 16:02:56.557092,10.0,10.0,10.0,10.0,1024,60,0.44,157,33,0.0,Clouds,scattered clouds,15
Ináncs,48.291111,21.057778,2026-03-05 16:02:57.793810,9.96,9.96,9.96,9.96,1024,57,0.63,127,33,0.0,Clouds,scattered clouds,15
Forró-Encs,48.3275,21.117778,2026-03-05 16:02:59.035221,9.92,9.92,9.92,9.92,1024,55,0.85,114,33,0.0,Clouds,scattered clouds,15
Méra,48.363056,21.140278,2026-03-05 16:03:00.275973,9.67,9.67,9.67,9.67,1024,52,1.31,101,33,0.0,Clouds,scattered clouds,15
Novajidrány,48.404444,21.170556,2026-03-05 16:03:01.507102,9.84,9.43,9.84,9.84,1024,50,1.54,94,32,0.0,Clouds,scattered clouds,15
Hernádszurdok,48.487222,21.213889,2026-03-05 16:03:02.743172,9.63,8.85,9.63,9.63,1024,46,1.9,81,31,0.0,Clouds,scattered clouds,15
Hidasnémeti,48.508333,21.229722,2026-03-05 16:03:03.974856,9.45,8.58,9.45,9.45,1024,45,1.97,78,31,0.0,Clouds,scattered clouds,15
Mád,48.19,21.268889,2026-03-05 16:03:05.242735,9.73,9.73,9.73,9.73,1024,54,1.32,84,19,0.0,Clouds,few clouds,15
Rátka,48.215,21.230278,2026-03-05 16:03:06.480359,10.07,8.57,10.07,10.07,1024,55,1.09,89,21,0.0,Clouds,few clouds,15
Tállya,48.226944,21.225278,2026-03-05 16:03:07.730704,10.07,8.57,10.07,10.07,1024,55,1.09,89,21,0.0,Clouds,few clouds,15
Golop,48.242778,21.204167,2026-03-05 16:03:08.968205,10.1,8.63,10.1,10.1,1024,56,0.78,103,25,0.0,Clouds,scattered clouds,15
Abaújszántó,48.286944,21.181667,2026-03-05 16:03:10.205552,9.78,9.78,9.78,9.78,1024,54,0.89,103,28,0.0,Clouds,scattered clouds,15
Abaújszántói fürdő,48.268333,21.179722,2026-03-05 16:03:11.444020,10.05,8.55,10.05,10.05,1024,55,0.81,104,27,0.0,Clouds,scattered clouds,15
Abaújkér,48.309444,21.198333,2026-03-05 16:03:12.679884,9.76,9.76,9.76,9.76,1024,53,1.02,101,29,0.0,Clouds,scattered clouds,15
Boldogkőváralja,48.345,21.208889,2026-03-05 16:03:13.916639,9.68,9.68,9.68,9.68,1024,51,1.3,90,27,0.0,Clouds,scattered clouds,15
Korlát-Vizsoly,48.365,21.219167,2026-03-05 16:03:15.156822,9.76,9.46,9.76,9.76,1024,50,1.42,89,28,0.0,Clouds,scattered clouds,15
Fony,48.411389,21.242778,2026-03-05 16:03:16.401333,9.74,9.17,9.74,9.74,1024,48,1.68,85,29,0.0,Clouds,scattered clouds,15
Hejce-Vilmány,48.419444,21.245556,2026-03-05 16:03:17.645201,9.74,9.17,9.74,9.74,1024,48,1.68,85,29,0.0,Clouds,scattered clouds,15
Göncruszka,48.445,21.246944,2026-03-05 16:03:18.876877,9.68,9.0,9.68,9.68,1024,47,1.79,83,30,0.0,Clouds,scattered clouds,15
Gönc,48.470556,21.261389,2026-03-05 16:03:20.114777,9.59,8.86,9.59,9.59,1024,46,1.83,78,30,0.0,Clouds,scattered clouds,15
Zsujta,48.4925,21.265,2026-03-05 16:03:21.351826,9.54,8.75,9.54,9.54,1024,45,1.89,75,30,0.0,Clouds,scattered clouds,15
Bodrogkeresztúr,48.175556,21.354167,2026-03-05 16:03:22.583922,9.38,8.68,9.38,9.38,1024,53,1.76,78,18,0.0,Clouds,few clouds,15
Szegi,48.201944,21.387778,2026-03-05 16:03:23.821603,9.81,8.92,9.81,9.81,1024,52,2.06,73,19,0.0,Clouds,few clouds,15
Erdőbénye,48.218056,21.401944,2026-03-05 16:03:25.059616,10.13,8.53,10.13,10.13,1024,51,2.15,70,21,0.0,Clouds,few clouds,15
Olaszliszka-Tolcsva,48.258333,21.448056,2026-03-05 16:03:26.291807,10.02,8.38,10.02,10.02,1024,50,2.13,64,24,0.0,Clouds,few clouds,15
Bodrogolaszi,48.286944,21.512778,2026-03-05 16:03:27.524893,8.62,7.43,8.62,8.62,1025,49,2.18,59,25,0.0,Clouds,scattered clouds,15
Sárospatak,48.325833,21.566111,2026-03-05 16:03:28.766725,9.76,8.53,9.76,9.76,1025,50,2.52,47,27,0.0,Clouds,scattered clouds,15
Sátoraljaújhely,48.385833,21.657778,2026-03-05 16:03:30.001970,8.97,7.51,8.97,8.97,1025,56,2.64,33,29,0.0,Clouds,scattered clouds,15
Vecsés,47.40855,19.25652,2026-03-05 16:03:31.235890,12.15,10.75,12.15,12.15,1024,51,0.89,349,4,0.0,Clear,clear sky,15
Vecsés-Kertekalja,47.403333,19.271389,2026-03-05 16:03:32.475121,12.15,10.75,12.15,12.15,1024,51,0.89,349,4,0.0,Clear,clear sky,15
Üllő,47.390833,19.348889,2026-03-05 16:03:33.715280,12.07,10.77,12.07,12.07,1024,55,1.07,348,4,0.0,Clear,clear sky,15
Monor,47.34545,19.43701,2026-03-05 16:03:34.955941,11.89,10.65,11.89,11.89,1024,58,1.54,337,5,0.0,Clear,clear sky,15
Pilis,47.279722,19.536389,2026-03-05 16:03:36.200211,11.91,10.67,11.91,11.91,1024,58,1.84,329,4,0.0,Clear,clear sky,15
Albertirsa,47.240278,19.606389,2026-03-05 16:03:37.450134,12.12,10.85,12.12,12.12,1024,56,1.68,327,4,0.0,Clear,clear sky,15
Ceglédbercel-Cserő,47.210278,19.686944,2026-03-05 16:03:38.678046,12.26,11.0,12.26,12.26,1024,56,1.27,331,4,0.0,Clear,clear sky,15
Cegléd,47.182778,19.806111,2026-03-05 16:03:39.910862,12.37,11.12,12.37,12.37,1024,56,0.53,28,10,0.0,Clear,clear sky,15
Abony,47.173056,20.016389,2026-03-05 16:03:41.147096,12.19,10.95,12.19,12.19,1024,57,1.84,92,26,0.0,Clouds,scattered clouds,15
Szolnok,47.179167,20.175833,2026-03-05 16:03:42.387096,11.99,10.73,11.99,11.99,1024,57,2.41,86,30,0.0,Clouds,scattered clouds,15
Szajol,47.170556,20.295278,2026-03-05 16:03:43.619823,11.79,10.51,11.79,11.79,1024,57,2.58,79,25,0.0,Clouds,scattered clouds,15
Törökszentmiklós,47.170278,20.413611,2026-03-05 16:03:44.860465,11.58,10.26,11.58,11.58,1024,56,2.69,75,15,0.0,Clouds,few clouds,15
Rákoscsaba-Újtelep,47.4875,19.271944,2026-03-05 16:03:46.106324,11.83,10.4,11.83,11.83,1024,51,0.58,2,4,0.0,Clear,clear sky,15
Rákoscsaba,47.492222,19.284722,2026-03-05 16:03:47.337576,11.84,10.46,11.84,11.84,1024,53,0.6,11,5,0.0,Clear,clear sky,15
Pécel,47.493889,19.338889,2026-03-05 16:03:48.574697,11.65,10.28,11.65,11.65,1024,54,0.63,18,6,0.0,Clear,clear sky,15
Isaszeg,47.537719,19.388955,2026-03-05 16:03:49.810757,11.31,9.98,11.31,11.31,1024,57,0.73,50,8,0.0,Clear,clear sky,15
Gödöllő,47.592222,19.358611,2026-03-05 16:03:51.048919,11.05,9.75,11.05,11.05,1024,59,0.85,65,10,0.0,Clear,clear sky,15
Máriabesnyő,47.595556,19.389722,2026-03-05 16:03:52.289163,11.05,9.75,11.05,11.05,1024,59,0.85,65,10,0.0,Clear,clear sky,15
Bag,47.641111,19.471667,2026-03-05 16:03:53.530419,11.36,10.22,11.36,11.36,1024,64,1.33,75,13,0.0,Clouds,few clouds,15
Aszód,47.647467,19.492882,2026-03-05 16:03:54.761587,11.17,10.04,11.17,11.17,1024,65,1.44,73,12,0.0,Clouds,few clouds,15
Hévízgyörk,47.638611,19.526667,2026-03-05 16:03:55.998499,11.1,9.96,11.1,11.1,1024,65,1.54,72,11,0.0,Clouds,few clouds,15
Galgahévíz,47.6325,19.558333,2026-03-05 16:03:57.231599,11.26,10.16,11.26,11.26,1024,66,1.78,65,9,0.0,Clear,clear sky,15
Tura,47.626389,19.5975,2026-03-05 16:03:58.474236,11.13,10.02,11.13,11.13,1024,66,1.89,63,7,0.0,Clear,clear sky,15
Hatvan,47.663611,19.671389,2026-03-05 16:03:59.723173,11.05,9.93,11.05,11.05,1024,66,1.75,66,1,0.0,Clear,clear sky,15
Vámosgyörk,47.686111,19.927778,2026-03-05 16:04:00.960703,10.75,9.6,10.75,10.75,1024,66,1.17,51,0,0.0,Clear,clear sky,15
Adács,47.696389,19.975278,2026-03-05 16:04:02.197848,10.66,9.53,10.66,10.66,1024,67,0.61,50,0,0.0,Clear,clear sky,15
Karácsond,47.718056,20.048611,2026-03-05 16:04:03.436720,10.46,9.31,10.46,10.46,1024,67,0.23,45,4,0.0,Clear,clear sky,15
Ludas,47.723889,20.095556,2026-03-05 16:04:04.668817,10.55,9.41,10.55,10.55,1024,67,0.13,297,4,0.0,Clear,clear sky,15
Nagyút,47.72666666666667,20.161388888888887,2026-03-05 16:04:05.899337,10.47,9.32,10.47,10.47,1024,67,0.19,279,4,0.0,Clear,clear sky,15
Kál-Kápolna,47.734167,20.254167,2026-03-05 16:04:07.130799,10.35,9.19,10.35,10.35,1024,67,0.54,247,2,0.0,Clear,clear sky,15
Füzesabony,47.751389,20.415278,2026-03-05 16:04:08.366952,10.18,9.03,10.18,10.18,1024,68,1.23,238,7,0.0,Clear,clear sky,15
Szihalom,47.766944,20.491944,2026-03-05 16:04:09.600278,9.97,9.72,9.97,9.97,1024,68,1.4,237,14,0.0,Clouds,few clouds,15
Mezőkövesd,47.797222,20.5675,2026-03-05 16:04:10.838492,9.92,9.72,9.92,9.92,1023,69,1.35,232,23,0.0,Clouds,few clouds,15
Mezőkövesd felső,47.807222,20.591389,2026-03-05 16:04:12.076097,9.92,9.72,9.92,9.92,1023,69,1.35,232,23,0.0,Clouds,few clouds,15
Mezőkeresztes-Mezőnyárád,47.845556,20.670278,2026-03-05 16:04:13.311489,9.74,9.74,9.74,9.74,1023,70,1.1,212,38,0.0,Clouds,scattered clouds,15
Csincse,47.890833,20.764167,2026-03-05 16:04:14.554599,9.77,9.77,9.77,9.77,1023,71,0.92,174,38,0.0,Clouds,scattered clouds,15
Emőd,47.930556,20.822778,2026-03-05 16:04:15.789182,9.45,9.45,9.45,9.45,1023,71,1.25,158,42,0.0,Clouds,scattered clouds,15
Nyékládháza,47.9925,20.840556,2026-03-05 16:04:17.023109,9.63,9.23,9.63,9.63,1023,72,1.5,150,40,0.0,Clouds,scattered clouds,15
Miskolc-Tiszai,48.098611,20.811389,2026-03-05 16:04:18.259069,9.34,9.34,9.34,9.34,1023,73,1.28,165,43,0.0,Clouds,scattered clouds,15
Felsőzsolca,48.083611,20.866111,2026-03-05 16:04:19.490919,9.59,9.59,9.59,9.59,1023,72,1.31,152,34,0.0,Clouds,scattered clouds,15
Hernádnémeti-Bőcs,48.051389,20.985,2026-03-05 16:04:20.723985,9.79,9.52,9.79,9.79,1024,70,1.4,120,17,0.0,Clouds,few clouds,15
Tiszalúc,48.039722,21.0575,2026-03-05 16:04:21.958886,9.91,9.57,9.91,9.91,1024,68,1.48,96,10,0.0,Clear,clear sky,15
Taktaharkány,48.091667,21.128611,2026-03-05 16:04:23.189077,10.04,8.85,10.04,10.04,1024,67,1.21,99,13,0.0,Clouds,few clouds,15
Taktaszada,48.1125,21.149444,2026-03-05 16:04:24.428279,10.08,8.87,10.08,10.08,1024,66,1.11,97,15,0.0,Clouds,few clouds,15
Szerencs,48.155556,21.214444,2026-03-05 16:04:25.668783,10.19,8.91,10.19,10.19,1024,63,1.22,86,18,0.0,Clouds,few clouds,15
Mezőzombor,48.156944,21.267778,2026-03-05 16:04:26.906706,10.12,8.81,10.12,10.12,1024,62,1.39,83,18,0.0,Clouds,few clouds,15
Tarcal,48.125,21.34,2026-03-05 16:04:28.151126,10.27,8.95,10.27,10.27,1024,61,1.92,76,16,0.0,Clouds,few clouds,15
Tokaj,48.112778,21.406667,2026-03-05 16:04:29.388586,9.68,8.46,9.68,9.68,1024,59,2.47,71,16,0.0,Clouds,few clouds,15
Rakamaz,48.12,21.475,2026-03-05 16:04:30.629275,10.19,8.78,10.19,10.19,1024,58,2.62,69,16,0.0,Clouds,few clouds,15
Görögszállás,48.04,21.555,2026-03-05 16:04:31.868289,10.2,8.74,10.2,10.2,1024,56,2.99,65,13,0.0,Clouds,few clouds,15
Nyírtelek,48.005,21.615556,2026-03-05 16:04:33.103602,10.16,8.64,10.16,10.16,1025,54,3.18,56,13,0.0,Clouds,few clouds,15
Rákoshegy,47.468611,19.245556,2026-03-05 16:04:34.339676,11.98,10.57,11.98,11.98,1024,51,0.66,356,4,0.0,Clear,clear sky,15
Ecser,47.439444,19.318056,2026-03-05 16:04:35.578561,12.05,10.69,12.05,12.05,1024,53,0.78,355,4,0.0,Clear,clear sky,15
Maglód,47.438889,19.340833,2026-03-05 16:04:36.813613,11.78,10.42,11.78,11.78,1024,54,0.8,359,5,0.0,Clear,clear sky,15
Maglódi nyaraló,47.434167,19.363611,2026-03-05 16:04:38.056766,11.48,10.15,11.48,11.48,1024,56,0.82,2,6,0.0,Clear,clear sky,15
Gyömrő,47.429722,19.393333,2026-03-05 16:04:39.293689,11.48,10.15,11.48,11.48,1024,56,0.82,2,6,0.0,Clear,clear sky,15
Mende,47.426944,19.439722,2026-03-05 16:04:40.525176,11.32,10.07,11.32,11.32,1024,60,1.06,3,8,0.0,Clear,clear sky,15
Szőlősnyaraló,47.450278,19.561111,2026-03-05 16:04:41.759695,11.47,10.32,11.47,11.47,1024,63,1.47,30,14,0.0,Clouds,few clouds,15
Sülysáp,47.451944,19.5275,2026-03-05 16:04:43.007210,11.43,10.25,11.43,11.43,1024,62,1.18,23,12,0.0,Clouds,few clouds,15
Tápiószecső,47.443056,19.614722,2026-03-05 16:04:44.242625,11.5,10.35,11.5,11.5,1024,63,1.63,34,15,0.0,Clouds,few clouds,15
Szentmártonkáta,47.431944,19.680556,2026-03-05 16:04:45.475627,11.41,10.28,11.41,11.41,1024,64,1.98,39,17,0.0,Clouds,few clouds,15
Nagykáta,47.409722,19.737778,2026-03-05 16:04:46.709214,11.53,10.38,11.53,11.53,1024,63,1.99,38,17,0.0,Clouds,few clouds,15
Farmos,47.355278,19.8375,2026-03-05 16:04:47.948609,11.76,10.58,11.76,11.76,1024,61,2.04,51,18,0.0,Clouds,few clouds,15
Tápiószele,47.346313,19.873504,2026-03-05 16:04:49.188169,11.82,10.62,11.82,11.82,1024,60,1.93,58,18,0.0,Clouds,few clouds,15
Tápiógyörgye,47.325,19.95,2026-03-05 16:04:50.429188,11.77,10.57,11.77,11.77,1024,60,2.26,68,22,0.0,Clouds,few clouds,15
Újszász,47.285833,20.066944,2026-03-05 16:04:51.661895,11.88,10.64,11.88,11.88,1024,58,2.46,80,28,0.0,Clouds,scattered clouds,15
Szurdokpüspöki,47.851944,19.690278,2026-03-05 16:04:52.912442,10.65,9.52,10.65,10.65,1024,67,0.64,112,43,0.0,Clouds,scattered clouds,15
Lőrinci,47.739444,19.673611,2026-03-05 16:04:54.151361,10.91,9.78,10.91,10.91,1024,66,1.4,73,4,0.0,Clear,clear sky,15
Selyp,47.759167,19.670833,2026-03-05 16:04:55.387580,10.86,9.72,10.86,10.86,1024,66,1.23,78,8,0.0,Clear,clear sky,15
Apc-Zagyvaszántó,47.791328,19.66822,2026-03-05 16:04:56.619616,10.84,9.7,10.84,10.84,1024,66,1.07,84,14,0.0,Clouds,few clouds,15
Pásztó,47.918889,19.688889,2026-03-05 16:04:57.859168,10.43,9.28,10.43,10.43,1024,67,0.53,146,64,0.0,Clouds,broken clouds,15
Mátraszőlős-Hasznos,47.938506,19.706122,2026-03-05 16:04:59.089966,10.37,9.24,10.37,10.37,1024,68,0.51,177,76,0.0,Clouds,broken clouds,15
Tar,47.956111,19.746389,2026-03-05 16:05:00.327715,9.89,9.89,9.89,9.89,1024,68,0.62,216,88,0.0,Clouds,overcast clouds,15
Mátraverebély,47.968333,19.778611,2026-03-05 16:05:01.557508,9.89,9.89,9.89,9.89,1024,68,0.62,216,88,0.0,Clouds,overcast clouds,15
Nagybátony,47.981111,19.82,2026-03-05 16:05:02.795999,10.0,10.0,10.0,10.0,1024,68,0.79,230,97,0.0,Clouds,overcast clouds,15
Kisterenye,48.009444,19.831944,2026-03-05 16:05:04.039286,10.03,8.86,10.03,10.03,1024,68,0.97,238,100,0.0,Clouds,overcast clouds,15
Kisterenye-Bányatelep,48.021389,19.831944,2026-03-05 16:05:05.276951,10.03,8.86,10.03,10.03,1024,68,0.97,238,100,0.0,Clouds,overcast clouds,15
Salgótarján külső,48.089444,19.790833,2026-03-05 16:05:06.507942,9.49,9.49,9.49,9.49,1024,68,1.25,226,100,0.0,Clouds,overcast clouds,15
Balatonfenyves GV,46.7125,17.479167,2026-03-05 16:05:07.739026,13.03,12.01,13.03,13.03,1024,62,0.97,323,0,0.0,Clear,clear sky,15
Várhegyalja,47.737778,18.366667,2026-03-05 16:05:08.978302,12.13,10.55,12.13,12.13,1024,44,1.13,305,7,0.0,Clear,clear sky,15
Imremajor,46.680556,17.499722,2026-03-05 16:05:10.210176,13.1,12.08,13.1,13.1,1024,62,0.97,326,0,0.0,Clear,clear sky,15
Rákospalota-Kertváros,47.578333,19.122778,2026-03-05 16:05:11.441205,12.24,10.85,12.24,12.24,1024,51,0.41,317,5,0.0,Clear,clear sky,15
Vicziántelep,47.675833,19.286111,2026-03-05 16:05:12.672845,11.12,9.85,11.12,11.12,1024,60,0.77,76,12,0.0,Clouds,few clouds,15
Pálmajor,46.662831,17.457526,2026-03-05 16:05:13.908180,13.14,12.1,13.14,13.14,1024,61,0.95,335,0,0.0,Clear,clear sky,15
Somogyszentpál felső,46.649758,17.471404,2026-03-05 16:05:15.143206,13.12,12.08,13.12,13.12,1024,61,0.99,330,0,0.0,Clear,clear sky,15
Somogyszentpál,46.638611,17.478611,2026-03-05 16:05:16.387660,13.09,12.02,13.09,13.09,1024,60,1.02,334,0,0.0,Clear,clear sky,15
Rudnaykert,47.7175,19.257778,2026-03-05 16:05:17.623356,11.09,9.87,11.09,11.09,1024,62,0.77,83,12,0.0,Clouds,few clouds,15
Maroshegy,47.158333,18.406667,2026-03-05 16:05:18.862703,12.5,11.01,12.5,12.5,1024,46,1.98,359,4,0.0,Clear,clear sky,15
Bánhida,47.573703,18.371737,2026-03-05 16:05:20.186174,11.92,10.34,11.92,11.92,1024,45,1.2,326,6,0.0,Clear,clear sky,15
Magyarkút,47.850278,19.045,2026-03-05 16:05:21.421355,10.76,9.56,10.76,10.76,1024,64,0.09,319,5,0.0,Clear,clear sky,15
Becske alsó,47.897222,19.364722,2026-03-05 16:05:22.655798,9.98,9.98,9.98,9.98,1024,66,1.12,115,22,0.0,Clouds,few clouds,15
Hosszúberek-Péteri,47.370556,19.389722,2026-03-05 16:05:23.889833,12.0,10.72,12.0,12.0,1024,56,1.26,343,4,0.0,Clear,clear sky,15
Monorierdő,47.308889,19.499167,2026-03-05 16:05:25.128136,11.87,10.63,11.87,11.87,1024,58,1.72,333,5,0.0,Clear,clear sky,15
Ceglédbercel,47.215833,19.658611,2026-03-05 16:05:26.357872,12.2,10.94,12.2,12.2,1024,56,1.52,325,4,0.0,Clear,clear sky,15
Budai út,47.208333,19.731389,2026-03-05 16:05:27.588676,12.16,10.89,12.16,12.16,1024,56,1.02,339,6,0.0,Clear,clear sky,15
Büdöskútpuszta,48.373056,20.726111,2026-03-05 16:05:28.821918,9.88,9.88,9.88,9.88,1023,67,1.2,246,23,0.0,Clouds,few clouds,15
Bánrévei Vízmű,48.282778,20.368333,2026-03-05 16:05:30.056053,9.82,9.48,9.82,9.82,1023,68,1.47,259,19,0.0,Clouds,few clouds,15
Rákoskert,47.456389,19.296111,2026-03-05 16:05:31.292906,11.83,10.43,11.83,11.83,1024,52,0.68,2,5,0.0,Clear,clear sky,15
Szirmabesenyő,48.146944,20.783056,2026-03-05 16:05:32.525939,8.82,8.82,8.82,8.82,1023,72,0.88,179,39,0.0,Clouds,scattered clouds,15
Kitérőgyár,47.766944,19.935278,2026-03-05 16:05:33.770540,10.37,9.21,10.37,10.37,1024,67,0.14,102,15,0.0,Clouds,few clouds,15
Tápiószentmárton,47.373333,19.797778,2026-03-05 16:05:35.005532,11.69,10.51,11.69,11.69,1024,61,1.95,47,17,0.0,Clouds,few clouds,15
Zagyvarékas,47.244229,20.097435,2026-03-05 16:05:36.242864,11.97,10.74,11.97,11.97,1024,58,2.41,85,30,0.0,Clouds,scattered clouds,15
Abonyi út,47.206401,20.125204,2026-03-05 16:05:37.484872,12.04,10.79,12.04,12.04,1024,57,2.33,88,30,0.0,Clouds,scattered clouds,15
Jászkisér felső,47.438056,20.202222,2026-03-05 16:05:38.715694,11.26,10.03,11.26,11.26,1024,61,2.5,64,12,0.0,Clouds,few clouds,15
Szellőhát,47.425556,20.188889,2026-03-05 16:05:39.949271,11.34,10.1,11.34,11.34,1024,60,2.59,66,15,0.0,Clouds,few clouds,15
Szilvásvárad-Szalajkavölgy,48.0956,20.38272,2026-03-05 16:05:41.185832,8.05,8.05,8.05,8.05,1023,70,1.15,271,72,0.0,Clouds,broken clouds,15
Vásárosnamény külső,48.084444,22.255556,2026-03-05 16:05:42.421266,10.39,8.61,10.39,10.39,1024,43,4.29,330,19,0.0,Clouds,few clouds,15
Újváros,46.660556,20.536111,2026-03-05 16:05:43.665279,12.3,11.1,12.3,12.3,1024,58,1.46,50,9,0.0,Clear,clear sky,15
Városi park,46.697778,19.864722,2026-03-05 16:05:44.905667,12.91,11.69,12.91,12.91,1024,55,1.56,332,5,0.0,Clear,clear sky,15
Belsőkamaráspuszta,46.341944,20.848889,2026-03-05 16:05:46.144968,12.41,11.25,12.41,12.41,1024,59,1.82,8,10,0.0,Clear,clear sky,15
Sajószöged,47.945278,20.981667,2026-03-05 16:05:47.386860,9.98,9.6,9.98,9.98,1024,69,1.53,90,12,0.0,Clouds,few clouds,15
Kazincbarcika alsó,48.255278,20.649167,2026-03-05 16:05:48.624952,9.47,9.47,9.47,9.47,1023,70,0.78,260,27,0.0,Clouds,scattered clouds,15
Nyárjas,46.857778,19.923611,2026-03-05 16:05:49.861649,12.61,11.34,12.61,12.61,1024,54,0.88,343,4,0.0,Clear,clear sky,15
Pogonyipuszta,48.296389,20.381667,2026-03-05 16:05:51.096685,9.82,9.48,9.82,9.82,1023,68,1.47,259,19,0.0,Clouds,few clouds,15
Sióvölgy,46.911103,18.076964,2026-03-05 16:05:52.338582,12.95,11.84,12.95,12.95,1024,59,0.92,351,1,0.0,Clear,clear sky,15
Répáspuszta,46.430278,17.847222,2026-03-05 16:05:53.578766,12.7,11.67,12.7,12.7,1024,63,1.37,329,0,0.0,Clear,clear sky,15
Virányos,48.066667,21.527222,2026-03-05 16:05:54.827173,10.19,8.75,10.19,10.19,1024,57,2.96,66,14,0.0,Clouds,few clouds,15
Füzesbokor,47.988611,21.6475,2026-03-05 16:05:56.068094,10.2,8.66,10.2,10.2,1025,53,3.21,51,12,0.0,Clouds,few clouds,15
Kunfehértó,46.355833,19.417222,2026-03-05 16:05:57.302227,13.08,11.91,13.08,13.08,1024,56,1.94,317,3,0.0,Clear,clear sky,15
Erdőszél,46.329444,19.395,2026-03-05 16:05:58.548244,12.97,11.81,12.97,12.97,1024,57,1.98,314,3,0.0,Clear,clear sky,15
Jánoshalma,46.293056,19.330278,2026-03-05 16:05:59.786181,13.09,11.94,13.09,13.09,1024,57,2.05,313,3,0.0,Clear,clear sky,15
Mélykút,46.213056,19.370556,2026-03-05 16:06:01.035215,13.17,12.06,13.17,13.17,1024,58,2.09,313,3,0.0,Clear,clear sky,15
Bácsalmás,46.118056,19.346389,2026-03-05 16:06:02.281736,13.25,12.15,13.25,13.25,1024,58,2.12,318,3,0.0,Clear,clear sky,15
Almás,46.116216,19.328803,2026-03-05 16:06:03.517031,13.25,12.15,13.25,13.25,1024,58,2.12,318,3,0.0,Clear,clear sky,15
Bácsbokod-Bácsborsód,46.115833,19.16,2026-03-05 16:06:04.747600,13.23,12.15,13.23,13.23,1024,59,2.05,329,1,0.0,Clear,clear sky,15
Baja,46.187014,18.957602,2026-03-05 16:06:05.983482,13.43,12.37,13.43,13.43,1024,59,2.0,339,1,0.0,Clear,clear sky,15
Harkakötöny,46.458333,19.601944,2026-03-05 16:06:07.220440,13.1,11.9,13.1,13.1,1024,55,1.96,326,3,0.0,Clear,clear sky,15
Tajó,46.473056,19.650556,2026-03-05 16:06:08.461505,13.11,11.91,13.11,13.11,1024,55,1.95,327,3,0.0,Clear,clear sky,15
Kiskunmajsa,46.501667,19.728056,2026-03-05 16:06:09.692573,13.12,11.92,13.12,13.12,1024,55,1.93,328,3,0.0,Clear,clear sky,15
Jászszentlászló,46.565833,19.753611,2026-03-05 16:06:10.932378,13.06,11.86,13.06,13.06,1024,55,1.88,328,4,0.0,Clear,clear sky,15
Galambos,46.625,19.801111,2026-03-05 16:06:12.178106,12.99,11.78,12.99,12.99,1024,55,1.82,329,4,0.0,Clear,clear sky,15
Pestszentimre,47.402222,19.188611,2026-03-05 16:06:13.415643,12.4,10.98,12.4,12.4,1024,49,0.94,341,3,0.0,Clear,clear sky,15
Gyál felső,47.390278,19.204722,2026-03-05 16:06:14.659362,12.3,10.89,12.3,12.3,1024,50,0.96,344,3,0.0,Clear,clear sky,15
Gyál,47.376667,19.219444,2026-03-05 16:06:15.893462,12.3,10.89,12.3,12.3,1024,50,0.96,344,3,0.0,Clear,clear sky,15
Ócsa,47.301389,19.232222,2026-03-05 16:06:17.133310,12.27,10.94,12.27,12.27,1024,53,1.28,347,4,0.0,Clear,clear sky,15
Inárcs-Kakucs,47.247222,19.317778,2026-03-05 16:06:18.373304,12.17,10.9,12.17,12.17,1024,56,1.65,342,3,0.0,Clear,clear sky,15
Dabas,47.194722,19.328889,2026-03-05 16:06:19.603606,12.13,10.89,12.13,12.13,1024,57,1.88,338,3,0.0,Clear,clear sky,15
Gyón,47.178333,19.355556,2026-03-05 16:06:20.843140,12.18,10.94,12.18,12.18,1024,57,1.95,338,3,0.0,Clear,clear sky,15
Hernád,47.161389,19.4025,2026-03-05 16:06:22.072983,12.2,10.94,12.2,12.2,1024,56,2.22,328,3,0.0,Clear,clear sky,15
Bakonygyirót,47.416389,17.811944,2026-03-05 16:06:23.310383,12.48,11.35,12.48,12.48,1024,60,1.01,297,1,0.0,Clear,clear sky,15
Vinye,47.360317,17.819635,2026-03-05 16:06:24.546034,11.97,10.84,11.97,11.97,1025,62,1.24,310,1,0.0,Clear,clear sky,15
Nemesgörzsöny,47.402924,17.376385,2026-03-05 16:06:25.789600,13.05,11.93,13.05,13.05,1024,58,0.44,242,2,0.0,Clear,clear sky,15
Rábahíd,47.438618,17.337525,2026-03-05 16:06:27.021736,13.08,11.96,13.08,13.08,1024,58,0.49,239,2,0.0,Clear,clear sky,15
Öskü,47.162222,18.076389,2026-03-05 16:06:28.260431,12.32,11.17,12.32,12.32,1024,60,1.68,344,2,0.0,Clear,clear sky,15
Márkó,47.1275,17.813889,2026-03-05 16:06:29.498476,11.53,10.46,11.53,11.53,1024,66,1.36,328,1,0.0,Clear,clear sky,15
Nemeskocs,47.203333,17.188889,2026-03-05 16:06:30.737021,13.03,11.96,13.03,13.03,1024,60,0.63,50,1,0.0,Clear,clear sky,15
Zalagyömörő,47.011111,17.220833,2026-03-05 16:06:31.978638,12.94,11.88,12.94,12.94,1024,61,0.6,32,0,0.0,Clear,clear sky,15
Rigács,47.061667,17.199167,2026-03-05 16:06:33.253708,12.89,11.83,12.89,12.89,1024,61,0.63,34,0,0.0,Clear,clear sky,15
Kemenespálfa,47.139722,17.183056,2026-03-05 16:06:34.488864,12.99,11.91,12.99,12.99,1024,60,0.66,46,0,0.0,Clear,clear sky,15
Lentiszombathely,46.611389,16.5725,2026-03-05 16:06:35.724053,12.89,11.72,12.89,12.89,1024,57,1.38,164,0,0.0,Clear,clear sky,15
Ortaháza,46.626667,16.685833,2026-03-05 16:06:36.964126,12.71,11.58,12.71,12.71,1024,59,0.99,174,0,0.0,Clear,clear sky,15
Rádiháza,46.654722,16.765833,2026-03-05 16:06:38.197016,12.66,11.55,12.66,12.66,1024,60,0.8,175,1,0.0,Clear,clear sky,15
Baktüttös,46.690833,16.826389,2026-03-05 16:06:39.439523,12.75,11.7,12.75,12.75,1024,62,0.53,171,1,0.0,Clear,clear sky,15
Budafa,46.851667,16.624722,2026-03-05 16:06:40.675015,12.8,11.65,12.8,12.8,1024,58,1.22,165,1,0.0,Clear,clear sky,15
Zalapatakalja,46.845556,16.603889,2026-03-05 16:06:41.914219,12.81,11.66,12.81,12.81,1024,58,1.43,166,1,0.0,Clear,clear sky,15
Tormásliget,47.430556,16.781667,2026-03-05 16:06:43.143851,12.93,11.77,12.93,12.93,1024,57,1.66,104,0,0.0,Clear,clear sky,15
Belecska,46.64,18.411389,2026-03-05 16:06:44.382462,13.06,11.86,13.06,13.06,1024,55,1.97,358,1,0.0,Clear,clear sky,15
Almár,47.956111,20.356944,2026-03-05 16:06:45.620514,8.71,8.71,8.71,8.71,1023,70,1.2,259,74,0.0,Clouds,broken clouds,15
Vasútmúzeum,47.543889,19.099444,2026-03-05 16:06:46.860177,12.35,10.92,12.35,12.35,1024,49,0.48,318,4,0.0,Clear,clear sky,15
Abda,47.690833,17.540556,2026-03-05 16:06:48.097303,13.02,11.74,13.02,13.02,1024,52,0.32,90,0,0.0,Clear,clear sky,15
Vadaspark,47.526111,18.949167,2026-03-05 16:06:49.346458,10.79,9.18,10.79,10.79,1024,48,1.07,310,5,0.0,Clear,clear sky,15
Barosstelep,47.398889,18.989167,2026-03-05 16:06:50.577864,12.57,11.06,12.57,12.57,1024,45,1.35,319,5,0.0,Clear,clear sky,15
Fegyvernek-Örményes,47.194444,20.5575,2026-03-05 16:06:51.828032,11.24,9.88,11.24,11.24,1024,56,2.62,72,5,0.0,Clear,clear sky,15
Zagyvapálfalva,48.068889,19.785,2026-03-05 16:06:53.067891,9.72,9.72,9.72,9.72,1024,68,1.14,228,100,0.0,Clouds,overcast clouds,15
Salgótarján,48.105556,19.807222,2026-03-05 16:06:54.311504,9.04,8.7,9.04,9.04,1024,68,1.37,224,97,0.0,Clouds,overcast clouds,15
Szabadisóstó,46.933889,18.118056,2026-03-05 16:06:55.558140,12.94,11.78,12.94,12.94,1024,57,1.22,3,2,0.0,Clear,clear sky,15
Siófok,46.907778,18.053889,2026-03-05 16:06:56.799030,12.95,11.84,12.95,12.95,1024,59,0.92,351,1,0.0,Clear,clear sky,15
Balatonszéplak felső,46.898056,18.018056,2026-03-05 16:06:58.034830,12.88,11.76,12.88,12.88,1024,59,0.82,338,1,0.0,Clear,clear sky,15
Balatonszéplak alsó,46.891944,17.993333,2026-03-05 16:06:59.267675,12.97,11.89,12.97,12.97,1024,60,0.8,327,1,0.0,Clear,clear sky,15
Zamárdi felső,46.886111,17.969444,2026-03-05 16:07:00.504381,12.97,11.92,12.97,12.97,1024,61,0.83,316,1,0.0,Clear,clear sky,15
Zamárdi,46.88,17.944722,2026-03-05 16:07:01.745351,12.97,11.92,12.97,12.97,1024,61,0.83,316,1,0.0,Clear,clear sky,15
Szántód,46.861944,17.899167,2026-03-05 16:07:02.979190,12.98,11.93,12.98,12.98,1024,61,1.02,298,1,0.0,Clear,clear sky,15
Szőny-Déli,47.735278,18.141944,2026-03-05 16:07:04.214436,12.46,10.91,12.46,12.46,1024,44,1.41,334,7,0.0,Clear,clear sky,15
Várpalota,47.194444,18.149167,2026-03-05 16:07:05.444934,12.01,10.73,12.01,12.01,1024,56,1.86,348,3,0.0,Clear,clear sky,15
Pétfürdő,47.1675,18.121389,2026-03-05 16:07:06.679012,12.47,11.26,12.47,12.47,1024,57,1.8,348,2,0.0,Clear,clear sky,15
Hajmáskér,47.141111,18.009444,2026-03-05 16:07:07.914736,12.08,10.94,12.08,12.08,1024,61,1.66,341,1,0.0,Clear,clear sky,15
Veszprém,47.118889,17.91,2026-03-05 16:07:09.157594,12.03,10.99,12.03,12.03,1024,65,1.45,331,1,0.0,Clear,clear sky,15
Herend,47.136944,17.760278,2026-03-05 16:07:10.397792,11.46,10.38,11.46,11.46,1024,66,1.33,328,2,0.0,Clear,clear sky,15
Városlőd,47.144167,17.652778,2026-03-05 16:07:11.633923,11.32,10.2,11.32,11.32,1025,65,1.19,333,1,0.0,Clear,clear sky,15
Városlőd-Kislőd,47.133889,17.631111,2026-03-05 16:07:12.869567,11.76,10.69,11.76,11.76,1024,65,1.27,332,1,0.0,Clear,clear sky,15
Ajka,47.105902,17.572938,2026-03-05 16:07:14.100696,12.24,11.19,12.24,12.24,1024,64,1.27,338,1,0.0,Clear,clear sky,15
Ajka-Gyártelep,47.096806,17.555219,2026-03-05 16:07:15.332122,12.24,11.19,12.24,12.24,1024,64,1.27,338,1,0.0,Clear,clear sky,15
Devecser,47.1125,17.435278,2026-03-05 16:07:16.565865,12.64,11.6,12.64,12.64,1024,63,1.13,348,1,0.0,Clear,clear sky,15
Somlóvásárhely,47.124444,17.369167,2026-03-05 16:07:17.803475,12.74,11.69,12.74,12.74,1024,62,0.83,5,1,0.0,Clear,clear sky,15
Tüskevár,47.128611,17.331389,2026-03-05 16:07:19.039646,12.85,11.78,12.85,12.85,1024,61,0.76,11,1,0.0,Clear,clear sky,15
Karakószörcsök,47.133611,17.287778,2026-03-05 16:07:20.276849,12.91,11.85,12.91,12.91,1024,61,0.71,18,0,0.0,Clear,clear sky,15
Kerta,47.151944,17.237222,2026-03-05 16:07:21.520253,13.02,11.94,13.02,13.02,1024,60,0.66,41,0,0.0,Clear,clear sky,15
Boba,47.183333,17.191389,2026-03-05 16:07:22.765349,13.0,11.92,13.0,13.0,1024,60,0.65,49,0,0.0,Clear,clear sky,15
Börgönd,47.140278,18.515,2026-03-05 16:07:23.999173,12.35,10.76,12.35,12.35,1024,43,2.15,346,4,0.0,Clear,clear sky,15
Belsőbáránd,47.102778,18.499722,2026-03-05 16:07:25.239750,12.35,10.79,12.35,12.35,1024,44,2.14,352,4,0.0,Clear,clear sky,15
Zichyújfalu,47.124444,18.6725,2026-03-05 16:07:26.477837,12.3,10.66,12.3,12.3,1024,41,2.6,323,4,0.0,Clear,clear sky,15
Seregélyes,47.121111,18.580556,2026-03-05 16:07:27.715819,12.47,10.9,12.47,12.47,1024,43,2.21,341,4,0.0,Clear,clear sky,15
Polgárdi-Ipartelepek,47.079167,18.314444,2026-03-05 16:07:28.947838,12.29,10.88,12.29,12.29,1024,50,1.97,6,4,0.0,Clear,clear sky,15
Polgárdi,47.07,18.284167,2026-03-05 16:07:30.180622,12.29,10.88,12.29,12.29,1024,50,1.97,6,4,0.0,Clear,clear sky,15
Füle,47.05,18.255278,2026-03-05 16:07:31.421221,12.31,10.93,12.31,12.31,1024,51,1.92,7,4,0.0,Clear,clear sky,15
Zánka-Erzsébettábor,46.8775,17.709167,2026-03-05 16:07:32.662736,12.99,11.99,12.99,12.99,1024,63,1.46,298,1,0.0,Clear,clear sky,15
Csajág,47.033889,18.186389,2026-03-05 16:07:33.900874,12.5,11.24,12.5,12.5,1024,55,1.61,6,3,0.0,Clear,clear sky,15
Balatonakarattya,47.017222,18.167778,2026-03-05 16:07:35.140086,12.5,11.24,12.5,12.5,1024,55,1.61,6,3,0.0,Clear,clear sky,15
Csittényhegy,47.025278,18.1375,2026-03-05 16:07:36.382897,12.76,11.55,12.76,12.76,1024,56,1.49,4,2,0.0,Clear,clear sky,15
Balatonkenese,47.0325,18.105556,2026-03-05 16:07:37.623664,12.88,11.71,12.88,12.88,1024,57,1.37,2,2,0.0,Clear,clear sky,15
Balatonfűzfő,47.060278,18.0425,2026-03-05 16:07:38.858217,12.61,11.52,12.61,12.61,1024,61,1.23,347,1,0.0,Clear,clear sky,15
Balatonalmádi,47.028333,18.015,2026-03-05 16:07:40.095756,12.82,11.75,12.82,12.82,1024,61,1.12,348,1,0.0,Clear,clear sky,15
Káptalanfüred,47.008889,18.003889,2026-03-05 16:07:41.328514,11.97,10.82,11.97,11.97,1024,61,0.99,341,1,0.0,Clear,clear sky,15
Alsóörs,46.985278,17.974722,2026-03-05 16:07:42.565861,11.97,10.82,11.97,11.97,1024,61,0.99,341,1,0.0,Clear,clear sky,15
Csopak,46.974722,17.931111,2026-03-05 16:07:43.801614,12.36,11.3,12.36,12.36,1024,63,0.98,320,1,0.0,Clear,clear sky,15
Balatonarács,46.9625,17.8975,2026-03-05 16:07:45.032720,12.36,11.3,12.36,12.36,1024,63,0.98,320,1,0.0,Clear,clear sky,15
Balatonfüred,46.955833,17.883056,2026-03-05 16:07:46.274728,12.79,11.77,12.79,12.79,1024,63,1.02,311,1,0.0,Clear,clear sky,15
Aszófő,46.925556,17.8325,2026-03-05 16:07:47.517559,12.78,11.76,12.78,12.78,1024,63,1.11,303,1,0.0,Clear,clear sky,15
Örvényes,46.9125,17.818056,2026-03-05 16:07:48.756385,12.78,11.76,12.78,12.78,1024,63,1.11,303,1,0.0,Clear,clear sky,15
Balatonudvari,46.904722,17.808056,2026-03-05 16:07:49.992005,12.27,11.2,12.27,12.27,1024,63,1.21,303,1,0.0,Clear,clear sky,15
Fövenyes,46.893611,17.789444,2026-03-05 16:07:51.234608,12.91,11.9,12.91,12.91,1024,63,1.24,298,1,0.0,Clear,clear sky,15
Balatonakali-Dörgicse,46.88,17.747778,2026-03-05 16:07:52.475727,12.56,11.52,12.56,12.56,1024,63,1.32,299,1,0.0,Clear,clear sky,15
Zánka-Köveskál,46.872778,17.687778,2026-03-05 16:07:53.715488,12.6,11.56,12.6,12.6,1024,63,1.48,301,1,0.0,Clear,clear sky,15
Balatonszepezd,46.851111,17.663056,2026-03-05 16:07:54.948628,12.98,11.98,12.98,12.98,1024,63,1.49,297,0,0.0,Clear,clear sky,15
Szepezdfürdő,46.839722,17.649444,2026-03-05 16:07:56.191487,11.95,10.85,11.95,11.95,1024,63,1.47,300,0,0.0,Clear,clear sky,15
Révfülöp,46.829167,17.632222,2026-03-05 16:07:57.431171,11.95,10.85,11.95,11.95,1024,63,1.47,300,0,0.0,Clear,clear sky,15
Balatonrendes,46.824722,17.582778,2026-03-05 16:07:58.683919,12.61,11.6,12.61,12.61,1024,64,1.26,310,0,0.0,Clear,clear sky,15
Ábrahámhegy,46.815,17.572222,2026-03-05 16:07:59.923375,12.61,11.6,12.61,12.61,1024,64,1.26,310,0,0.0,Clear,clear sky,15
Badacsonyörs,46.805556,17.531667,2026-03-05 16:08:01.160740,12.87,11.88,12.87,12.87,1024,64,1.18,315,0,0.0,Clear,clear sky,15
Kisújszállás,47.223889,20.751111,2026-03-05 16:08:02.398849,10.95,9.56,10.95,10.95,1024,56,2.33,65,6,0.0,Clear,clear sky,15
Karcag,47.303333,20.928056,2026-03-05 16:08:03.634067,10.7,9.37,10.7,10.7,1024,59,1.66,54,6,0.0,Clear,clear sky,15
Püspökladány,47.3275,21.128889,2026-03-05 16:08:04.873141,10.58,9.26,10.58,10.58,1024,60,1.49,37,6,0.0,Clear,clear sky,15
Kaba,47.368889,21.259444,2026-03-05 16:08:06.105170,10.5,9.15,10.5,10.5,1025,59,1.56,28,7,0.0,Clear,clear sky,15
Hajdúszoboszló,47.429444,21.406944,2026-03-05 16:08:07.341109,10.45,9.07,10.45,10.45,1024,58,1.67,27,9,0.0,Clear,clear sky,15
Ebes,47.462778,21.488889,2026-03-05 16:08:08.589975,10.41,8.99,10.41,10.41,1025,57,1.85,29,10,0.0,Clear,clear sky,15
Debrecen,47.520278,21.628611,2026-03-05 16:08:09.831646,10.3,8.77,10.3,10.3,1025,53,2.31,33,9,0.0,Clear,clear sky,15
Debrecen-Csapókert,47.540556,21.648056,2026-03-05 16:08:11.071525,10.19,8.62,10.19,10.19,1025,52,2.44,33,9,0.0,Clear,clear sky,15
Apafa,47.584045,21.655858,2026-03-05 16:08:12.310755,10.17,8.6,10.17,10.17,1025,52,2.49,34,9,0.0,Clear,clear sky,15
Bocskaikert,47.6425,21.666389,2026-03-05 16:08:13.543673,10.02,8.44,10.02,10.02,1025,52,2.65,37,8,0.0,Clear,clear sky,15
Hajdúhadház,47.686944,21.679167,2026-03-05 16:08:14.790304,10.1,8.5,10.1,10.1,1025,51,2.81,36,8,0.0,Clear,clear sky,15
Téglás,47.714722,21.684722,2026-03-05 16:08:16.026737,10.13,8.53,10.13,10.13,1025,51,2.88,37,8,0.0,Clear,clear sky,15
Újfehértó,47.814444,21.706389,2026-03-05 16:08:17.261221,10.24,8.65,10.24,10.24,1025,51,3.1,41,8,0.0,Clear,clear sky,15
Nyíregyháza,47.946667,21.705556,2026-03-05 16:08:18.490703,10.21,8.64,10.21,10.21,1025,52,3.23,46,11,0.0,Clouds,few clouds,15
Sóstó,47.998051,21.729047,2026-03-05 16:08:19.738935,10.17,8.57,10.17,10.17,1025,51,3.31,36,13,0.0,Clouds,few clouds,15
Sóstóhegy,48.012222,21.742778,2026-03-05 16:08:20.974221,10.23,8.64,10.23,10.23,1025,51,3.31,36,14,0.0,Clouds,few clouds,15
Kemecse,48.065556,21.801667,2026-03-05 16:08:22.211504,10.26,8.65,10.26,10.26,1025,50,3.37,26,17,0.0,Clouds,few clouds,15
Nyírbogdány,48.082222,21.855278,2026-03-05 16:08:23.444036,10.22,8.6,10.22,10.22,1025,50,3.4,20,19,0.0,Clouds,few clouds,15
Kék,48.093333,21.883889,2026-03-05 16:08:24.682017,10.3,8.64,10.3,10.3,1025,48,3.55,10,19,0.0,Clouds,few clouds,15
Demecser,48.111667,21.926667,2026-03-05 16:08:25.919344,10.3,8.64,10.3,10.3,1025,48,3.58,5,21,0.0,Clouds,few clouds,15
Gégény,48.128333,21.951944,2026-03-05 16:08:27.157317,10.26,8.59,10.26,10.26,1025,48,3.61,359,23,0.0,Clouds,few clouds,15
Pátroha,48.158611,21.996667,2026-03-05 16:08:28.397754,10.26,8.59,10.26,10.26,1025,48,3.64,354,24,0.0,Clouds,few clouds,15
Ajak,48.1865,22.048972,2026-03-05 16:08:29.628861,10.23,8.56,10.23,10.23,1025,48,3.68,349,26,0.0,Clouds,scattered clouds,15
Kisvárda,48.208333,22.078333,2026-03-05 16:08:30.866248,10.22,8.55,10.22,10.22,1025,48,3.84,341,27,0.0,Clouds,scattered clouds,15
Kisvárda-Hármasút,48.228333,22.091944,2026-03-05 16:08:32.103364,10.22,8.55,10.22,10.22,1025,48,3.84,341,27,0.0,Clouds,scattered clouds,15
Fényeslitke,48.267222,22.107222,2026-03-05 16:08:33.349076,10.09,8.43,10.09,10.09,1025,49,3.93,336,31,0.0,Clouds,scattered clouds,15
Komoró,48.305278,22.118056,2026-03-05 16:08:34.580712,10.06,8.43,10.06,10.06,1025,50,3.95,335,33,0.0,Clouds,scattered clouds,15
Tuzsér,48.342222,22.131667,2026-03-05 16:08:35.818966,9.92,7.9,9.92,9.92,1025,51,4.0,334,38,0.0,Clouds,scattered clouds,15
Tiszabezdéd,48.371389,22.145,2026-03-05 16:08:37.061480,9.91,7.84,9.91,9.91,1025,51,4.11,332,41,0.0,Clouds,scattered clouds,15
Záhony,48.402222,22.183611,2026-03-05 16:08:38.304468,9.86,7.74,9.86,9.86,1025,52,4.19,329,44,0.0,Clouds,scattered clouds,15
Karcag-Vásártér,47.3225,20.9075,2026-03-05 16:08:39.551002,10.7,9.37,10.7,10.7,1024,59,1.66,54,6,0.0,Clear,clear sky,15
Berekfürdő,47.374722,20.827222,2026-03-05 16:08:40.782037,10.75,9.45,10.75,10.75,1024,60,1.34,65,7,0.0,Clear,clear sky,15
Kunmadaras,47.415278,20.793056,2026-03-05 16:08:42.014498,10.73,9.45,10.73,10.73,1024,61,0.99,72,7,0.0,Clear,clear sky,15
Tiszaszentimre,47.490833,20.733056,2026-03-05 16:08:43.254516,10.72,9.49,10.72,10.72,1024,63,0.57,83,7,0.0,Clear,clear sky,15
Tiszaszőlős,47.555556,20.728056,2026-03-05 16:08:44.501114,10.63,9.42,10.63,10.63,1024,64,0.24,92,7,0.0,Clear,clear sky,15
Hosszúhát,47.235556,21.101944,2026-03-05 16:08:45.735612,10.56,9.13,10.56,10.56,1025,56,2.13,39,6,0.0,Clear,clear sky,15
Szerep,47.234444,21.145833,2026-03-05 16:08:46.967022,10.53,9.1,10.53,10.53,1025,56,2.15,36,6,0.0,Clear,clear sky,15
Sárrétudvari,47.231667,21.180833,2026-03-05 16:08:48.208667,10.49,9.03,10.49,10.49,1025,55,2.17,34,6,0.0,Clear,clear sky,15
Biharnagybajom,47.208889,21.221944,2026-03-05 16:08:49.445461,10.44,8.98,10.44,10.44,1025,55,2.31,32,5,0.0,Clear,clear sky,15
Füzesgyarmat,47.113056,21.194444,2026-03-05 16:08:50.682557,10.48,8.94,10.48,10.48,1025,52,2.48,40,4,0.0,Clear,clear sky,15
Füzesgyarmatfürdő,47.093787,21.201582,2026-03-05 16:08:51.922607,10.48,8.94,10.48,10.48,1025,52,2.48,40,4,0.0,Clear,clear sky,15
Báránd,47.299722,21.235278,2026-03-05 16:08:53.161701,10.51,9.13,10.51,10.51,1025,58,1.84,29,7,0.0,Clear,clear sky,15
Sáp,47.259722,21.360556,2026-03-05 16:08:54.402250,10.39,8.92,10.39,10.39,1025,55,2.22,28,6,0.0,Clear,clear sky,15
Berettyóújfalu,47.211944,21.535556,2026-03-05 16:08:55.639808,10.19,8.65,10.19,10.19,1025,53,2.6,29,7,0.0,Clear,clear sky,15
Mezőpeterd,47.176111,21.625278,2026-03-05 16:08:56.876781,10.1,8.55,10.1,10.1,1025,53,2.76,28,7,0.0,Clear,clear sky,15
Biharkeresztes,47.135556,21.721389,2026-03-05 16:08:58.109109,9.92,8.42,9.92,9.92,1025,52,2.99,25,7,0.0,Clear,clear sky,15
Tócóvölgy,47.529444,21.588889,2026-03-05 16:08:59.350886,10.34,8.84,10.34,10.34,1025,54,2.19,33,9,0.0,Clear,clear sky,15
Sáregres,46.7825,18.588889,2026-03-05 16:09:00.591276,12.84,11.51,12.84,12.84,1024,51,2.5,340,3,0.0,Clear,clear sky,15
Simontornya,46.756582,18.540674,2026-03-05 16:09:01.824371,12.79,11.48,12.79,12.79,1024,52,2.37,350,2,0.0,Clear,clear sky,15
Tolnanémedi,46.727778,18.475833,2026-03-05 16:09:03.071739,12.89,11.62,12.89,12.89,1024,53,2.31,353,2,0.0,Clear,clear sky,15
Pincehely,46.681389,18.43,2026-03-05 16:09:04.302237,12.86,11.61,12.86,12.86,1024,54,2.1,358,1,0.0,Clear,clear sky,15
Keszőhidegkút-Gyönk,46.597778,18.426111,2026-03-05 16:09:05.545493,13.0,11.79,13.0,13.0,1024,55,1.9,358,1,0.0,Clear,clear sky,15
Szárazd,46.575556,18.420833,2026-03-05 16:09:06.785318,13.05,11.87,13.05,13.05,1024,56,1.83,358,1,0.0,Clear,clear sky,15
Regöly,46.568889,18.396111,2026-03-05 16:09:08.018734,13.05,11.87,13.05,13.05,1024,56,1.83,358,1,0.0,Clear,clear sky,15
Szakály-Hőgyész,46.523611,18.389444,2026-03-05 16:09:09.256447,13.02,11.87,13.02,13.02,1024,57,1.65,357,1,0.0,Clear,clear sky,15
Dúzs,46.493889,18.377222,2026-03-05 16:09:10.496830,13.06,11.94,13.06,13.06,1024,58,1.59,356,1,0.0,Clear,clear sky,15
Csibrák,46.466667,18.336389,2026-03-05 16:09:11.737591,13.13,12.01,13.13,13.13,1024,58,1.5,353,0,0.0,Clear,clear sky,15
Kurd,46.449167,18.319167,2026-03-05 16:09:12.987598,12.77,11.64,12.77,12.77,1024,59,1.45,351,0,0.0,Clear,clear sky,15
Döbrököz,46.418889,18.255,2026-03-05 16:09:14.222698,13.07,12.0,13.07,13.07,1024,60,1.34,344,0,0.0,Clear,clear sky,15
Dombóvár,46.37,18.149722,2026-03-05 16:09:15.468933,12.99,11.99,12.99,12.99,1024,63,1.26,327,0,0.0,Clear,clear sky,15
Dombóvár alsó,46.363889,18.134167,2026-03-05 16:09:16.705906,12.99,11.99,12.99,12.99,1024,63,1.26,327,0,0.0,Clear,clear sky,15
Somoskőújfalu,48.154722,19.815556,2026-03-05 16:09:17.944476,7.92,7.22,7.92,7.92,1024,67,1.55,219,85,0.0,Clouds,overcast clouds,15
Jászfényszaru,47.593056,19.754444,2026-03-05 16:09:19.185667,11.07,9.96,11.07,11.07,1024,66,2.3,50,3,0.0,Clear,clear sky,15
Pusztamonostor,47.564444,19.794167,2026-03-05 16:09:20.423189,11.07,9.96,11.07,11.07,1024,66,2.45,47,5,0.0,Clear,clear sky,15
Jászberény,47.494444,19.893333,2026-03-05 16:09:21.660901,11.24,10.12,11.24,11.24,1024,65,2.69,45,13,0.0,Clouds,few clouds,15
Meggyespele,47.441944,19.938889,2026-03-05 16:09:22.898729,11.37,10.21,11.37,11.37,1024,63,2.63,51,15,0.0,Clouds,few clouds,15
Portelek,47.418056,19.958889,2026-03-05 16:09:24.144515,11.47,10.29,11.47,11.47,1024,62,2.57,55,17,0.0,Clouds,few clouds,15
Jászboldogháza-Jánoshida,47.366944,20.001389,2026-03-05 16:09:25.381931,11.64,10.45,11.64,11.64,1024,61,2.44,65,21,0.0,Clouds,few clouds,15
Jászárokszállás,47.635556,19.971111,2026-03-05 16:09:26.615474,10.9,9.77,10.9,10.9,1024,66,1.68,45,0,0.0,Clear,clear sky,15
Jászdózsa,47.563056,20.028056,2026-03-05 16:09:27.852855,10.96,9.81,10.96,10.96,1024,65,2.0,44,0,0.0,Clear,clear sky,15
Jászapáti,47.513611,20.155,2026-03-05 16:09:29.088164,11.03,9.83,11.03,11.03,1024,63,2.1,55,2,0.0,Clear,clear sky,15
Jászkisér,47.456111,20.203333,2026-03-05 16:09:30.333636,11.18,9.95,11.18,11.18,1024,61,2.38,62,9,0.0,Clear,clear sky,15
Jászladány,47.373333,20.159167,2026-03-05 16:09:31.564790,11.54,10.29,11.54,11.54,1024,59,2.67,71,21,0.0,Clouds,few clouds,15
Szászberek,47.320556,20.090833,2026-03-05 16:09:32.801641,11.74,10.51,11.74,11.74,1024,59,2.59,77,26,0.0,Clouds,scattered clouds,15
Gyöngyöshalász,47.743056,19.932222,2026-03-05 16:09:34.034316,10.58,9.44,10.58,10.58,1024,67,0.35,72,7,0.0,Clear,clear sky,15
Gyöngyös,47.783056,19.937222,2026-03-05 16:09:35.277006,10.15,8.97,10.15,10.15,1024,67,0.06,171,16,0.0,Clouds,few clouds,15
Erdőtelek,47.683333,20.3025,2026-03-05 16:09:36.509261,10.45,9.27,10.45,10.45,1024,66,0.16,225,0,0.0,Clear,clear sky,15
Heves,47.609444,20.306111,2026-03-05 16:09:37.747864,10.72,9.52,10.72,10.72,1024,64,0.82,72,0,0.0,Clear,clear sky,15
Hevesvezekény,47.562222,20.365833,2026-03-05 16:09:38.992515,10.78,9.58,10.78,10.78,1024,64,0.92,82,0,0.0,Clear,clear sky,15
Tarnaszentmiklós,47.546944,20.390833,2026-03-05 16:09:40.233913,10.84,9.62,10.84,10.84,1024,63,1.22,78,2,0.0,Clear,clear sky,15
Kisköre,47.495556,20.481667,2026-03-05 16:09:41.463463,10.85,9.61,10.85,10.85,1024,62,1.34,82,6,0.0,Clear,clear sky,15
Abádszalók,47.455278,20.553056,2026-03-05 16:09:42.696512,10.86,9.62,10.86,10.86,1024,62,1.46,80,7,0.0,Clear,clear sky,15
Kunhegyes,47.376667,20.641111,2026-03-05 16:09:43.932808,10.87,9.58,10.87,10.87,1024,60,1.6,75,5,0.0,Clear,clear sky,15
Kenderes,47.254444,20.686111,2026-03-05 16:09:45.168695,11.03,9.65,11.03,11.03,1024,56,2.33,69,4,0.0,Clear,clear sky,15
Maklár,47.808056,20.404722,2026-03-05 16:09:46.405284,9.94,9.68,9.94,9.94,1023,69,1.41,243,21,0.0,Clouds,few clouds,15
Andornaktálya,47.852203,20.402295,2026-03-05 16:09:47.640997,9.6,9.27,9.6,9.6,1023,69,1.43,247,41,0.0,Clouds,scattered clouds,15
Eger,47.891667,20.381667,2026-03-05 16:09:48.877670,9.48,9.23,9.48,9.48,1023,70,1.34,252,51,0.0,Clouds,broken clouds,15
Egervár,47.908056,20.380556,2026-03-05 16:09:50.117072,9.53,9.53,9.53,9.53,1023,70,1.31,254,60,0.0,Clouds,broken clouds,15
Eger-Felnémet,47.936667,20.370556,2026-03-05 16:09:51.351612,9.39,9.39,9.39,9.39,1023,70,1.27,256,68,0.0,Clouds,broken clouds,15
Szarvaskő,47.988611,20.3325,2026-03-05 16:09:52.585464,8.76,8.76,8.76,8.76,1023,70,1.16,261,79,0.0,Clouds,broken clouds,15
Mónosbél,48.031944,20.33,2026-03-05 16:09:53.831749,8.79,8.79,8.79,8.79,1023,70,1.14,266,80,0.0,Clouds,broken clouds,15
Bélapátfalva,48.055556,20.340556,2026-03-05 16:09:55.069791,8.52,8.52,8.52,8.52,1023,70,1.15,268,77,0.0,Clouds,broken clouds,15
Bélapátfalvi Cementgyár,48.058056,20.355,2026-03-05 16:09:56.305367,8.52,8.52,8.52,8.52,1023,70,1.15,268,77,0.0,Clouds,broken clouds,15
Szilvásvárad,48.11345,20.37919,2026-03-05 16:09:57.545934,8.13,8.13,8.13,8.13,1023,70,1.18,271,66,0.0,Clouds,broken clouds,15
Hejőkeresztúr,47.960278,20.869444,2026-03-05 16:09:58.788647,9.78,9.49,9.78,9.78,1023,71,1.41,138,33,0.0,Clouds,scattered clouds,15
Tiszaújváros,47.926111,21.030556,2026-03-05 16:10:00.026511,10.04,8.9,10.04,10.04,1024,69,1.58,83,10,0.0,Clear,clear sky,15
Miskolc-Gömöri,48.106667,20.800278,2026-03-05 16:10:01.271332,9.4,9.4,9.4,9.4,1023,72,1.11,169,40,0.0,Clouds,scattered clouds,15
Sajókeresztúr,48.168008,20.774014,2026-03-05 16:10:02.508056,9.43,9.43,9.43,9.43,1023,72,0.72,189,35,0.0,Clouds,scattered clouds,15
Sajóecseg,48.186111,20.766667,2026-03-05 16:10:03.738921,9.58,9.58,9.58,9.58,1023,71,0.6,201,31,0.0,Clouds,scattered clouds,15
Sajószentpéter,48.222222,20.708056,2026-03-05 16:10:04.979325,9.61,9.61,9.61,9.61,1023,71,0.56,227,28,0.0,Clouds,scattered clouds,15
Kazincbarcika,48.264444,20.6275,2026-03-05 16:10:06.221368,9.72,9.72,9.72,9.72,1023,69,0.98,265,25,0.0,Clouds,scattered clouds,15
Sajókaza,48.272778,20.581944,2026-03-05 16:10:07.456453,9.73,9.73,9.73,9.73,1023,69,1.05,267,26,0.0,Clouds,scattered clouds,15
Vadna,48.276389,20.555278,2026-03-05 16:10:08.690902,9.73,9.73,9.73,9.73,1023,69,1.05,267,26,0.0,Clouds,scattered clouds,15
Dubicsány,48.280833,20.504722,2026-03-05 16:10:09.932732,9.76,9.76,9.76,9.76,1023,69,1.23,269,27,0.0,Clouds,scattered clouds,15
Raposka,46.851389,17.412778,2026-03-05 16:10:11.167640,13.01,12.01,13.01,13.01,1024,63,0.85,338,0,0.0,Clear,clear sky,15
Ivacs,47.641944,19.273889,2026-03-05 16:10:12.408123,11.22,9.89,11.22,11.22,1024,57,0.58,67,10,0.0,Clear,clear sky,15
Kisköre-Tiszahíd,47.480835,20.507698,2026-03-05 16:10:13.639128,10.9,9.66,10.9,10.9,1024,62,1.57,79,7,0.0,Clear,clear sky,15
Rozsály,47.912778,22.7825,2026-03-05 16:10:14.877584,11.21,9.38,11.21,11.21,1023,38,3.93,309,22,0.0,Clouds,few clouds,15
Pusztakettős,47.453611,20.749722,2026-03-05 16:10:16.112948,10.74,9.49,10.74,10.74,1024,62,0.87,76,7,0.0,Clear,clear sky,15
Kisvác,47.795278,19.113611,2026-03-05 16:10:17.349611,11.36,10.25,11.36,11.36,1024,65,0.25,78,6,0.0,Clear,clear sky,15
Tiszafüred-Gyártelep,47.6075,20.736111,2026-03-05 16:10:18.586637,10.54,9.37,10.54,10.54,1024,66,0.06,225,6,0.0,Clear,clear sky,15
Újkenéz,48.251111,22.221667,2026-03-05 16:10:19.825433,10.17,8.47,10.17,10.17,1024,47,4.2,327,28,0.0,Clouds,scattered clouds,15
Püspökladány-Vásártér,47.319167,21.096111,2026-03-05 16:10:21.072818,10.58,9.23,10.58,10.58,1025,59,1.68,37,6,0.0,Clear,clear sky,15
Végegyháza alsó,46.3675,20.866944,2026-03-05 16:10:22.310779,12.31,11.14,12.31,12.31,1024,59,1.78,11,10,0.0,Clear,clear sky,15
Orosháza felső,46.553611,20.655278,2026-03-05 16:10:23.552145,12.32,11.15,12.32,12.32,1024,59,1.59,29,8,0.0,Clear,clear sky,15
Ambrózfalva,46.353056,20.740556,2026-03-05 16:10:24.795279,12.54,11.36,12.54,12.54,1024,58,1.79,10,8,0.0,Clear,clear sky,15
Alsónyék,46.199444,18.738056,2026-03-05 16:10:26.038095,13.42,12.36,13.42,13.42,1024,59,1.93,350,1,0.0,Clear,clear sky,15
Tompapuszta,46.321389,20.966389,2026-03-05 16:10:27.276449,12.25,11.1,12.25,12.25,1024,60,1.91,10,12,0.0,Clouds,few clouds,15
Halászlak,46.911879,20.56228,2026-03-05 16:10:28.512517,11.77,10.49,11.77,11.77,1024,57,2.37,71,20,0.0,Clouds,few clouds,15
Sirató,46.840556,20.61,2026-03-05 16:10:29.764263,11.85,10.61,11.85,11.85,1024,58,2.19,69,17,0.0,Clouds,few clouds,15
Csabacsűd felső,46.829167,20.649167,2026-03-05 16:10:31.003674,11.77,10.52,11.77,11.77,1024,58,2.27,67,17,0.0,Clouds,few clouds,15
Orosháza-Üveggyár,46.579979,20.683644,2026-03-05 16:10:32.236113,12.18,10.99,12.18,12.18,1024,59,1.62,33,9,0.0,Clear,clear sky,15
Gyulai városerdő,46.69482,21.32281,2026-03-05 16:10:33.482444,10.6,9.07,10.6,10.6,1024,52,2.99,43,6,0.0,Clear,clear sky,15
Kórógyszentgyörgy,46.564377,20.224998,2026-03-05 16:10:34.712191,12.98,11.74,12.98,12.98,1024,54,1.28,24,10,0.0,Clear,clear sky,15
Kunszállás,46.784444,19.767222,2026-03-05 16:10:35.945273,12.76,11.53,12.76,12.76,1024,55,1.79,323,3,0.0,Clear,clear sky,15
Selymes,46.655321,19.8534,2026-03-05 16:10:37.181747,12.96,11.75,12.96,12.96,1024,55,1.72,330,5,0.0,Clear,clear sky,15
Petőfiszállási tanyák,46.587805,19.874509,2026-03-05 16:10:38.416869,13.06,11.83,13.06,13.06,1024,54,1.67,333,5,0.0,Clear,clear sky,15
Kisteleki szőlők,46.514199,19.92868,2026-03-05 16:10:39.666314,13.15,11.93,13.15,13.15,1024,54,1.57,338,7,0.0,Clear,clear sky,15
Kapitányság,46.435336,19.987564,2026-03-05 16:10:40.902166,13.32,12.09,13.32,13.32,1024,53,1.54,342,8,0.0,Clear,clear sky,15
Őszeszék,46.39025,20.016017,2026-03-05 16:10:42.132309,13.41,12.19,13.41,13.41,1024,53,1.59,341,9,0.0,Clear,clear sky,15
Vilmaszállás,46.366389,20.030833,2026-03-05 16:10:43.371314,13.44,12.22,13.44,13.44,1024,53,1.65,339,10,0.0,Clear,clear sky,15
Jánosszállás,46.334359,20.051199,2026-03-05 16:10:44.604462,13.49,12.25,13.49,13.49,1024,52,1.71,337,10,0.0,Clear,clear sky,15
Felsőpakony,47.343056,19.230556,2026-03-05 16:10:45.834518,12.3,10.94,12.3,12.3,1024,52,1.18,346,3,0.0,Clear,clear sky,15
Felsőméntelek,46.987074,19.557745,2026-03-05 16:10:47.074699,12.4,11.13,12.4,12.4,1024,55,2.13,319,2,0.0,Clear,clear sky,15
Alsóméntelek,46.961558,19.579121,2026-03-05 16:10:48.309101,12.42,11.15,12.42,12.42,1024,55,2.13,320,2,0.0,Clear,clear sky,15
Nagynyír,46.943319,19.585447,2026-03-05 16:10:49.539498,12.45,11.19,12.45,12.45,1024,55,2.13,320,3,0.0,Clear,clear sky,15
Úrihegy,46.917778,19.621389,2026-03-05 16:10:50.777267,12.54,11.29,12.54,12.54,1024,55,2.09,320,3,0.0,Clear,clear sky,15
Miklóstelep,46.913412,19.630913,2026-03-05 16:10:52.012066,12.56,11.31,12.56,12.56,1024,55,2.01,319,3,0.0,Clear,clear sky,15
Tiszajenő alsó,47.016944,20.134444,2026-03-05 16:10:53.248639,12.33,11.08,12.33,12.33,1024,56,1.64,87,19,0.0,Clouds,few clouds,15
Óbög,46.987222,20.111111,2026-03-05 16:10:54.485230,12.41,11.17,12.41,12.41,1024,56,1.37,85,16,0.0,Clouds,few clouds,15
Árpádszállás,46.866456,19.989163,2026-03-05 16:10:55.725507,12.65,11.41,12.65,12.65,1024,55,0.71,9,6,0.0,Clear,clear sky,15
Tőserdő,46.851111,19.980278,2026-03-05 16:10:56.962288,12.72,11.46,12.72,12.72,1024,54,0.79,2,6,0.0,Clear,clear sky,15
Tiszaalpár felső,46.836256,19.976753,2026-03-05 16:10:58.199752,12.72,11.46,12.72,12.72,1024,54,0.79,2,6,0.0,Clear,clear sky,15
Borsihalom,46.773056,19.92,2026-03-05 16:10:59.443941,12.83,11.58,12.83,12.83,1024,54,1.15,340,5,0.0,Clear,clear sky,15
Petőfiváros,46.725556,19.848611,2026-03-05 16:11:00.674810,12.87,11.65,12.87,12.87,1024,55,1.63,329,4,0.0,Clear,clear sky,15
Csorna,47.601944,17.248889,2026-03-05 16:11:01.911180,13.13,11.93,13.13,13.13,1024,55,0.84,261,1,0.0,Clear,clear sky,15
Szorgalmatos,47.986667,21.366389,2026-03-05 16:11:03.140697,10.25,8.9,10.25,10.25,1024,60,2.46,66,11,0.0,Clouds,few clouds,15
Fótfürdő,47.6225,19.200556,2026-03-05 16:11:04.379103,11.75,10.42,11.75,11.75,1024,55,0.25,16,7,0.0,Clear,clear sky,15
Fenyveshegy,47.818333,19.068056,2026-03-05 16:11:05.612554,11.58,10.49,11.58,11.58,1024,65,0.09,333,6,0.0,Clear,clear sky,15
Hűvösvölgy,47.541202,18.96351,2026-03-05 16:11:06.854588,11.01,9.47,11.01,11.01,1024,50,0.98,308,5,0.0,Clear,clear sky,15
Hárshegy,47.535318,18.961433,2026-03-05 16:11:08.079117,11.01,9.47,11.01,11.01,1024,50,0.98,308,5,0.0,Clear,clear sky,15
Szépjuhászné,47.528277,18.955246,2026-03-05 16:11:09.317957,10.79,9.18,10.79,10.79,1024,48,1.07,310,5,0.0,Clear,clear sky,15
Jánoshegy,47.51433,18.95047,2026-03-05 16:11:10.565546,10.79,9.18,10.79,10.79,1024,48,1.07,310,5,0.0,Clear,clear sky,15
Virágvölgy,47.505965,18.95876,2026-03-05 16:11:11.802506,11.02,9.4,11.02,11.02,1024,47,1.15,311,5,0.0,Clear,clear sky,15
Csillebérc,47.498196,18.961694,2026-03-05 16:11:13.037326,11.02,9.4,11.02,11.02,1024,47,1.15,311,5,0.0,Clear,clear sky,15
Normafa,47.5,18.970558,2026-03-05 16:11:14.279713,11.02,9.4,11.02,11.02,1024,47,1.15,311,5,0.0,Clear,clear sky,15
Széchenyihegy,47.49413,18.977049,2026-03-05 16:11:15.522166,10.24,8.52,10.24,10.24,1024,46,1.01,311,5,0.0,Clear,clear sky,15
Balatonfőkajár felső,47.031389,18.215278,2026-03-05 16:11:16.754113,12.62,11.32,12.62,12.62,1024,53,1.72,7,3,0.0,Clear,clear sky,15
Piroska,47.148333,20.129722,2026-03-05 16:11:17.992648,12.1,10.85,12.1,12.1,1024,57,2.25,88,29,0.0,Clouds,scattered clouds,15
Somodor,46.4725,17.836667,2026-03-05 16:11:19.231498,12.81,11.77,12.81,12.81,1024,62,1.39,325,0,0.0,Clear,clear sky,15
Középmező,45.995833,18.668889,2026-03-05 16:11:20.463436,13.67,12.63,13.67,13.67,1024,59,1.89,351,3,0.0,Clear,clear sky,15
Jobbágyi,47.828889,19.6875,2026-03-05 16:11:21.701959,10.68,9.55,10.68,10.68,1024,67,0.76,100,32,0.0,Clouds,scattered clouds,15
Ferihegy,47.437222,19.223889,2026-03-05 16:11:22.942847,12.24,10.8,12.24,12.24,1024,49,0.74,344,3,0.0,Clear,clear sky,15
Máriapócs,47.852778,22.019167,2026-03-05 16:11:24.183032,10.37,8.56,10.37,10.37,1024,42,3.93,357,9,0.0,Clear,clear sky,15
Máriaudvar,47.751944,19.165,2026-03-05 16:11:25.424063,11.66,10.53,11.66,11.66,1024,63,0.28,75,8,0.0,Clear,clear sky,15
Nagyberki,46.353333,18.004167,2026-03-05 16:11:26.660600,12.79,11.8,12.79,12.79,1024,64,1.28,325,0,0.0,Clear,clear sky,15
Badacsonytomaj,46.804722,17.518056,2026-03-05 16:11:27.906664,12.87,11.88,12.87,12.87,1024,64,1.18,315,0,0.0,Clear,clear sky,15
Badacsony,46.788611,17.506389,2026-03-05 16:11:29.147894,12.95,11.95,12.95,12.95,1024,63,1.06,320,0,0.0,Clear,clear sky,15
Badacsonylábdihegy,46.793889,17.470833,2026-03-05 16:11:30.390821,12.95,11.95,12.95,12.95,1024,63,1.06,320,0,0.0,Clear,clear sky,15
Badacsonytördemic-Szigliget,46.809722,17.469167,2026-03-05 16:11:31.626225,12.94,11.96,12.94,12.94,1024,64,1.1,321,0,0.0,Clear,clear sky,15
Nemesgulács-Kisapáti,46.836944,17.476389,2026-03-05 16:11:32.866934,12.96,11.98,12.96,12.96,1024,64,1.15,322,0,0.0,Clear,clear sky,15
Tapolca,46.877778,17.428611,2026-03-05 16:11:34.099523,12.96,11.96,12.96,12.96,1024,63,0.89,338,0,0.0,Clear,clear sky,15
Uzsabánya alsó,46.898333,17.345278,2026-03-05 16:11:35.330879,11.94,10.83,11.94,11.94,1024,63,0.7,353,0,0.0,Clear,clear sky,15
Uzsa,46.920278,17.331667,2026-03-05 16:11:36.564002,12.72,11.69,12.72,12.72,1024,63,0.74,353,0,0.0,Clear,clear sky,15
Sümegi Bazaltbánya,46.9525,17.2925,2026-03-05 16:11:37.800286,12.75,11.7,12.75,12.75,1024,62,0.66,3,0,0.0,Clear,clear sky,15
Sümeg,46.981111,17.270833,2026-03-05 16:11:39.045115,12.94,11.91,12.94,12.94,1024,62,0.57,22,0,0.0,Clear,clear sky,15
Gógánfa,47.021111,17.207778,2026-03-05 16:11:40.278285,12.94,11.88,12.94,12.94,1024,61,0.6,32,0,0.0,Clear,clear sky,15
Ukk,47.041944,17.195833,2026-03-05 16:11:41.516753,12.99,11.94,12.99,12.99,1024,61,0.62,41,0,0.0,Clear,clear sky,15
Nemeskeresztúr,47.093611,17.183611,2026-03-05 16:11:42.754895,12.92,11.86,12.92,12.92,1024,61,0.66,44,0,0.0,Clear,clear sky,15
Jánosháza,47.115833,17.171667,2026-03-05 16:11:43.986598,12.99,11.91,12.99,12.99,1024,60,0.66,46,0,0.0,Clear,clear sky,15
Keszthely,46.758333,17.248056,2026-03-05 16:11:45.224708,13.09,12.07,13.09,13.09,1024,62,0.46,15,0,0.0,Clear,clear sky,15
Alsógyenes,46.765844,17.276435,2026-03-05 16:11:46.464138,13.11,12.1,13.11,13.11,1024,62,0.54,360,0,0.0,Clear,clear sky,15
Gyenesdiás,46.763333,17.292778,2026-03-05 16:11:47.704973,13.11,12.1,13.11,13.11,1024,62,0.54,360,0,0.0,Clear,clear sky,15
Vonyarcvashegy,46.755278,17.318333,2026-03-05 16:11:48.941371,12.52,11.45,12.52,12.52,1024,62,0.61,351,0,0.0,Clear,clear sky,15
Balatongyörök,46.751944,17.354444,2026-03-05 16:11:50.177915,13.07,12.05,13.07,13.07,1024,62,0.68,345,0,0.0,Clear,clear sky,15
Becehegy,46.776111,17.372778,2026-03-05 16:11:51.409560,11.9,10.79,11.9,11.9,1024,63,0.68,345,0,0.0,Clear,clear sky,15
Balatonederics,46.8025,17.385,2026-03-05 16:11:52.646041,11.83,10.71,11.83,11.83,1024,63,0.71,344,0,0.0,Clear,clear sky,15
Dabronc,47.025766,17.167006,2026-03-05 16:11:53.885759,12.99,11.94,12.99,12.99,1024,61,0.6,40,0,0.0,Clear,clear sky,15
Türje,46.994444,17.093611,2026-03-05 16:11:55.123296,12.99,11.91,12.99,12.99,1024,60,0.56,53,0,0.0,Clear,clear sky,15
Zalabér-Batyk,46.983056,17.040833,2026-03-05 16:11:56.374666,13.11,12.04,13.11,13.11,1024,60,0.52,73,0,0.0,Clear,clear sky,15
Pakod,46.959167,16.996667,2026-03-05 16:11:57.610910,13.01,11.93,13.01,13.01,1024,60,0.53,81,0,0.0,Clear,clear sky,15
Pókaszepetk,46.924444,16.972222,2026-03-05 16:11:58.848174,13.12,12.05,13.12,13.12,1024,60,0.45,80,1,0.0,Clear,clear sky,15
Kemendollár,46.905833,16.946667,2026-03-05 16:12:00.081536,12.82,11.72,12.82,12.82,1024,60,0.45,91,1,0.0,Clear,clear sky,15
Zalaegerszeg,46.833056,16.848333,2026-03-05 16:12:01.317754,12.88,11.79,12.88,12.88,1024,60,0.59,145,2,0.0,Clear,clear sky,15
Bocfölde,46.780278,16.853611,2026-03-05 16:12:02.551720,12.96,11.9,12.96,12.96,1024,61,0.43,146,2,0.0,Clear,clear sky,15
Sárhida,46.755833,16.851389,2026-03-05 16:12:03.792156,12.15,11.01,12.15,12.15,1024,61,0.52,157,2,0.0,Clear,clear sky,15
Bak,46.7325,16.849167,2026-03-05 16:12:05.029257,12.57,11.48,12.57,12.57,1024,61,0.52,162,2,0.0,Clear,clear sky,15
Tófej,46.670833,16.801944,2026-03-05 16:12:06.260093,12.4,11.29,12.4,12.4,1024,61,0.63,172,1,0.0,Clear,clear sky,15
Gutorfölde,46.646944,16.739722,2026-03-05 16:12:07.500598,12.66,11.55,12.66,12.66,1024,60,0.8,175,1,0.0,Clear,clear sky,15
Csömödér-Páka,46.608056,16.641111,2026-03-05 16:12:08.738368,12.88,11.76,12.88,12.88,1024,59,1.09,171,0,0.0,Clear,clear sky,15
Iklódbördőce,46.603056,16.604722,2026-03-05 16:12:09.970442,12.71,11.52,12.71,12.71,1024,57,1.29,166,0,0.0,Clear,clear sky,15
Lenti,46.621389,16.528611,2026-03-05 16:12:11.216814,12.88,11.71,12.88,12.88,1024,57,1.46,163,0,0.0,Clear,clear sky,15
Rédics,46.618056,16.471111,2026-03-05 16:12:12.454792,12.87,11.7,12.87,12.87,1024,57,1.57,161,0,0.0,Clear,clear sky,15
Zalalövő,46.845556,16.576389,2026-03-05 16:12:13.693761,12.76,11.58,12.76,12.76,1024,57,1.53,166,1,0.0,Clear,clear sky,15
Zalaegerszeg-Ola,46.849167,16.844722,2026-03-05 16:12:14.926145,12.88,11.79,12.88,12.88,1024,60,0.59,145,2,0.0,Clear,clear sky,15
Andráshida,46.863116,16.7792,2026-03-05 16:12:16.164282,12.85,11.76,12.85,12.85,1024,60,0.74,147,2,0.0,Clear,clear sky,15
Bagod,46.875,16.746111,2026-03-05 16:12:17.407218,12.96,11.85,12.96,12.96,1024,59,0.95,156,2,0.0,Clear,clear sky,15
Zalaszentgyörgy,46.872222,16.7125,2026-03-05 16:12:18.639636,12.91,11.8,12.91,12.91,1024,59,1.06,159,2,0.0,Clear,clear sky,15
Zalacséb-Salomvár,46.858056,16.662222,2026-03-05 16:12:19.876341,12.68,11.54,12.68,12.68,1024,59,1.18,161,1,0.0,Clear,clear sky,15
Kópháza,47.631389,16.6375,2026-03-05 16:12:21.129283,12.78,11.58,12.78,12.78,1024,56,2.19,108,0,0.0,Clear,clear sky,15
Nagycenk,47.601111,16.690278,2026-03-05 16:12:22.381879,12.95,11.76,12.95,12.95,1024,56,2.07,106,0,0.0,Clear,clear sky,15
Sopronkövesd,47.548333,16.748056,2026-03-05 16:12:23.614697,12.77,11.59,12.77,12.77,1024,57,1.84,103,0,0.0,Clear,clear sky,15
Lövő,47.509444,16.7775,2026-03-05 16:12:24.862448,12.73,11.55,12.73,12.73,1024,57,1.57,98,0,0.0,Clear,clear sky,15
Újkér,47.457778,16.786667,2026-03-05 16:12:26.109349,12.82,11.65,12.82,12.82,1024,57,1.65,102,0,0.0,Clear,clear sky,15
Bük,47.388611,16.752222,2026-03-05 16:12:27.344575,12.91,11.74,12.91,12.91,1024,57,1.83,116,0,0.0,Clear,clear sky,15
Acsád,47.308333,16.734722,2026-03-05 16:12:28.580775,12.64,11.45,12.64,12.64,1024,57,1.82,130,0,0.0,Clear,clear sky,15
Salköveskút-Vassurány,47.291389,16.704167,2026-03-05 16:12:29.826523,12.69,11.5,12.69,12.69,1024,57,1.8,133,0,0.0,Clear,clear sky,15
Zalaszentiván,46.8875,16.909444,2026-03-05 16:12:31.064961,12.99,11.91,12.99,12.99,1024,60,0.49,119,1,0.0,Clear,clear sky,15
Alsónemesapáti,46.854167,16.936389,2026-03-05 16:12:32.304385,13.07,12.0,13.07,13.07,1024,60,0.36,93,1,0.0,Clear,clear sky,15
Józsa,47.600833,21.584444,2026-03-05 16:12:33.537726,10.19,8.67,10.19,10.19,1025,54,2.3,37,9,0.0,Clear,clear sky,15
Hajdúszentgyörgy,47.608056,21.578333,2026-03-05 16:12:34.788701,10.19,8.67,10.19,10.19,1025,54,2.3,37,9,0.0,Clear,clear sky,15
Zelemér,47.627778,21.578333,2026-03-05 16:12:36.024675,10.16,8.64,10.16,10.16,1025,54,2.36,39,9,0.0,Clear,clear sky,15
Hajdúböszörmény,47.668056,21.524167,2026-03-05 16:12:37.264636,10.27,8.81,10.27,10.27,1024,56,2.26,42,9,0.0,Clear,clear sky,15
Hajdúvid,47.749444,21.508056,2026-03-05 16:12:38.503960,10.37,8.92,10.37,10.37,1024,56,2.39,47,9,0.0,Clear,clear sky,15
Hajdúdorog,47.805556,21.493056,2026-03-05 16:12:39.741288,10.33,8.88,10.33,10.33,1024,56,2.56,52,8,0.0,Clear,clear sky,15
Hajdúnánás,47.831944,21.426667,2026-03-05 16:12:40.989246,10.4,9.04,10.4,10.4,1024,59,2.37,50,8,0.0,Clear,clear sky,15
Hajdúnánás-Vásártér,47.843056,21.407222,2026-03-05 16:12:42.242014,10.4,9.04,10.4,10.4,1024,59,2.37,50,8,0.0,Clear,clear sky,15
Tedej,47.903611,21.404444,2026-03-05 16:12:43.516453,10.32,8.95,10.32,10.32,1024,59,2.55,59,9,0.0,Clear,clear sky,15
Tiszavasvári,47.945278,21.374722,2026-03-05 16:12:44.760285,10.29,8.94,10.29,10.29,1024,60,2.42,61,10,0.0,Clear,clear sky,15
Egyházerdő,47.9725,21.365,2026-03-05 16:12:45.993727,10.29,8.94,10.29,10.29,1024,60,2.45,63,11,0.0,Clouds,few clouds,15
Tiszalök,48.013056,21.369167,2026-03-05 16:12:47.233697,10.22,8.86,10.22,10.22,1024,60,2.46,68,12,0.0,Clouds,few clouds,15
Hajnalos,47.998889,21.414167,2026-03-05 16:12:48.471660,10.27,8.89,10.27,10.27,1024,59,2.62,66,11,0.0,Clouds,few clouds,15
Kisfástanya,47.989167,21.47,2026-03-05 16:12:49.710236,10.23,8.82,10.23,10.23,1024,58,2.77,66,11,0.0,Clouds,few clouds,15
Tiszaeszlár,48.010556,21.491944,2026-03-05 16:12:50.950330,10.24,8.81,10.24,10.24,1024,57,2.89,67,12,0.0,Clouds,few clouds,15
Bashalom,48.026111,21.514722,2026-03-05 16:12:52.190788,10.25,8.82,10.25,10.25,1024,57,2.88,67,13,0.0,Clouds,few clouds,15
Sáránd,47.415556,21.625,2026-03-05 16:12:53.427634,10.34,8.81,10.34,10.34,1025,53,2.34,29,9,0.0,Clear,clear sky,15
Derecske,47.365,21.584167,2026-03-05 16:12:54.664685,10.31,8.81,10.31,10.31,1025,54,2.34,28,8,0.0,Clear,clear sky,15
Derecske-Vásártér,47.352222,21.58,2026-03-05 16:12:55.902657,10.31,8.81,10.31,10.31,1025,54,2.34,28,8,0.0,Clear,clear sky,15
Konyár,47.323611,21.666111,2026-03-05 16:12:57.138719,10.23,8.67,10.23,10.23,1025,52,2.57,28,8,0.0,Clear,clear sky,15
Konyári Sóstófürdő,47.324167,21.744444,2026-03-05 16:12:58.366579,10.21,8.59,10.21,10.21,1025,50,2.73,26,8,0.0,Clear,clear sky,15
Pocsaj-Esztár,47.288333,21.793056,2026-03-05 16:12:59.600957,10.14,8.49,10.14,10.14,1025,49,2.85,24,8,0.0,Clear,clear sky,15
Kismarja,47.243889,21.813889,2026-03-05 16:13:00.845225,10.07,8.44,10.07,10.07,1025,50,2.92,24,8,0.0,Clear,clear sky,15
Nagykereki,47.191667,21.8,2026-03-05 16:13:02.084463,9.96,8.46,9.96,9.96,1025,50,3.0,23,8,0.0,Clear,clear sky,15
Debrecen-Szabadságtelep,47.527778,21.658611,2026-03-05 16:13:03.323298,10.25,8.69,10.25,10.25,1025,52,2.42,32,9,0.0,Clear,clear sky,15
Kondoroskert,47.525556,21.713889,2026-03-05 16:13:04.557058,10.23,8.61,10.23,10.23,1025,50,2.68,28,8,0.0,Clear,clear sky,15
Nagycsere,47.523889,21.763056,2026-03-05 16:13:05.793959,10.22,8.58,10.22,10.22,1025,49,2.75,27,8,0.0,Clear,clear sky,15
Haláp,47.521667,21.818333,2026-03-05 16:13:07.034471,10.19,8.52,10.19,10.19,1025,48,2.82,24,7,0.0,Clear,clear sky,15
Vámospércs,47.518056,21.893889,2026-03-05 16:13:08.268218,10.16,8.43,10.16,10.16,1025,46,2.99,16,7,0.0,Clear,clear sky,15
Szentannapuszta,47.52,21.965833,2026-03-05 16:13:09.509976,10.23,8.48,10.23,10.23,1025,45,3.08,10,7,0.0,Clear,clear sky,15
Nyírábrány,47.523889,22.016944,2026-03-05 16:13:10.745312,10.24,8.47,10.24,10.24,1025,44,3.11,7,6,0.0,Clear,clear sky,15
Dombostanya,47.602778,21.706389,2026-03-05 16:13:11.983065,10.19,8.6,10.19,10.19,1025,51,2.63,33,8,0.0,Clear,clear sky,15
Hajdúsámson,47.608056,21.755278,2026-03-05 16:13:13.221679,10.17,8.52,10.17,10.17,1025,49,2.89,27,7,0.0,Clear,clear sky,15
Tamásipuszta,47.632778,21.796111,2026-03-05 16:13:14.456155,10.13,8.45,10.13,10.13,1025,48,3.01,24,7,0.0,Clear,clear sky,15
Aradványpuszta,47.662778,21.8425,2026-03-05 16:13:15.692342,10.14,8.44,10.14,10.14,1025,47,3.14,21,6,0.0,Clear,clear sky,15
Nyíradony,47.699444,21.903333,2026-03-05 16:13:16.935611,10.15,8.4,10.15,10.15,1025,45,3.44,9,6,0.0,Clear,clear sky,15
Nyírmihálydi,47.7375,21.958889,2026-03-05 16:13:18.166999,10.18,8.4,10.18,10.18,1025,44,3.56,5,6,0.0,Clear,clear sky,15
Nyírgelse,47.750833,21.987778,2026-03-05 16:13:19.417905,10.17,8.39,10.17,10.17,1024,44,3.67,1,7,0.0,Clear,clear sky,15
Nyírbogát,47.793056,22.066389,2026-03-05 16:13:20.659759,10.33,8.52,10.33,10.33,1024,42,3.91,352,8,0.0,Clear,clear sky,15
Nagykálló,47.871111,21.825833,2026-03-05 16:13:21.905358,10.29,8.6,10.29,10.29,1025,47,3.51,21,10,0.0,Clear,clear sky,15
Kállósemjén,47.854722,21.935,2026-03-05 16:13:23.146684,10.34,8.6,10.34,10.34,1025,45,3.73,8,9,0.0,Clear,clear sky,15
Nyírbátor,47.8425,22.131111,2026-03-05 16:13:24.374164,10.33,8.52,10.33,10.33,1024,42,4.0,349,10,0.0,Clear,clear sky,15
Nyírcsászári,47.865556,22.179167,2026-03-05 16:13:25.618739,10.43,8.6,10.43,10.43,1024,41,4.06,343,12,0.0,Clouds,few clouds,15
Hodász,47.896111,22.213611,2026-03-05 16:13:26.860934,10.41,8.58,10.41,10.41,1024,41,4.1,338,13,0.0,Clouds,few clouds,15
Nyírmeggyes,47.9225,22.256667,2026-03-05 16:13:28.102241,10.48,8.65,10.48,10.48,1024,41,4.17,335,15,0.0,Clouds,few clouds,15
Mátészalka,47.951389,22.313333,2026-03-05 16:13:29.338748,10.55,8.73,10.55,10.55,1024,41,4.21,333,16,0.0,Clouds,few clouds,15
Kocsord,47.941944,22.375833,2026-03-05 16:13:30.568211,10.74,8.91,10.74,10.74,1024,40,4.14,328,17,0.0,Clouds,few clouds,15
Kocsord alsó,47.946389,22.400556,2026-03-05 16:13:31.805750,10.74,8.91,10.74,10.74,1024,40,4.14,328,17,0.0,Clouds,few clouds,15
Győrtelek,47.936667,22.424722,2026-03-05 16:13:33.037361,10.8,8.98,10.8,10.8,1024,40,4.12,327,18,0.0,Clouds,few clouds,15
Győrtelek alsó,47.921111,22.443333,2026-03-05 16:13:34.273597,10.86,9.05,10.86,10.86,1024,40,4.05,326,18,0.0,Clouds,few clouds,15
Ököritófülpös,47.911389,22.495,2026-03-05 16:13:35.507298,10.9,9.06,10.9,10.9,1024,39,4.03,324,18,0.0,Clouds,few clouds,15
Porcsalma-Tyukod,47.868056,22.568333,2026-03-05 16:13:36.743269,11.04,9.22,11.04,11.04,1024,39,3.89,320,18,0.0,Clouds,few clouds,15
Csenger,47.826111,22.666389,2026-03-05 16:13:37.979316,11.14,9.3,11.14,11.14,1023,38,3.85,317,17,0.0,Clouds,few clouds,15
Kisfái,46.888303,19.807366,2026-03-05 16:13:39.212735,12.64,11.37,12.64,12.64,1024,54,1.42,321,3,0.0,Clear,clear sky,15
Nyárlőrinci szőlők,46.8775,19.828333,2026-03-05 16:13:40.443606,12.68,11.41,12.68,12.68,1024,54,1.34,324,3,0.0,Clear,clear sky,15
Nyárlőrinc alsó,46.863889,19.878889,2026-03-05 16:13:41.679682,12.65,11.38,12.65,12.65,1024,54,1.19,328,3,0.0,Clear,clear sky,15
Tiszaug-Tiszahídfő,46.866106,20.052098,2026-03-05 16:13:42.916950,12.72,11.48,12.72,12.72,1024,55,0.7,24,7,0.0,Clear,clear sky,15
Csongrádi úti tanyák,46.690278,19.921667,2026-03-05 16:13:44.167813,12.97,11.73,12.97,12.97,1024,54,1.39,341,6,0.0,Clear,clear sky,15
Kettőshalom,46.689167,20.0225,2026-03-05 16:13:45.410869,12.97,11.73,12.97,12.97,1024,54,1.15,358,8,0.0,Clear,clear sky,15
Csongrád alsó,46.711389,20.126389,2026-03-05 16:13:46.642097,12.89,11.64,12.89,12.89,1024,54,1.03,22,10,0.0,Clear,clear sky,15
Dónát,46.66988,20.368168,2026-03-05 16:13:47.873762,12.53,11.3,12.53,12.53,1024,56,1.32,51,10,0.0,Clear,clear sky,15
Pusztatemplom,46.676667,20.407222,2026-03-05 16:13:49.116464,12.45,11.24,12.45,12.45,1024,57,1.4,55,9,0.0,Clear,clear sky,15
Előhát,47.364722,20.653611,2026-03-05 16:13:50.354935,10.9,9.59,10.9,10.9,1024,59,1.79,74,4,0.0,Clear,clear sky,15
Polgárdi-Tekerespuszta,47.017778,18.297778,2026-03-05 16:13:51.594717,12.59,11.21,12.59,12.59,1024,50,2.01,7,4,0.0,Clear,clear sky,15
Szatina-Kishajmás,46.202778,18.083611,2026-03-05 16:13:52.832798,12.44,11.44,12.44,12.44,1024,65,1.3,326,0,0.0,Clear,clear sky,15
Márok,45.886944,18.499167,2026-03-05 16:13:54.069798,13.37,12.36,13.37,13.37,1024,61,1.71,321,3,0.0,Clear,clear sky,15
Nagynyárád,45.953333,18.564722,2026-03-05 16:13:55.313453,13.42,12.41,13.42,13.42,1024,61,1.78,341,3,0.0,Clear,clear sky,15
Szászvár,46.2875,18.369722222222222,2026-03-05 16:13:56.561125,12.51,11.49,12.51,12.51,1024,64,1.38,338,1,0.0,Clear,clear sky,15
Cikó,46.263514,18.557605,2026-03-05 16:13:57.797654,12.94,11.91,12.94,12.94,1024,62,1.71,348,2,0.0,Clear,clear sky,15
Gyöngyfa-Magyarmecske,45.983889,17.958889,2026-03-05 16:13:59.035007,13.35,12.39,13.35,13.35,1024,63,1.43,328,0,0.0,Clear,clear sky,15
Nagyhát,47.581389,21.445,2026-03-05 16:14:00.270276,10.35,8.96,10.35,10.35,1024,58,1.74,32,10,0.0,Clear,clear sky,15
Balmazújváros,47.613889,21.348056,2026-03-05 16:14:01.510248,10.55,9.25,10.55,10.55,1024,61,1.44,22,9,0.0,Clear,clear sky,15
Kónya,47.600833,21.2375,2026-03-05 16:14:02.747318,10.54,9.32,10.54,10.54,1024,64,1.17,14,9,0.0,Clear,clear sky,15
Hortobágy,47.586111,21.154722,2026-03-05 16:14:03.991693,10.55,9.36,10.55,10.55,1024,65,1.05,13,9,0.0,Clear,clear sky,15
Hortobágyi Halastó,47.604167,21.074167,2026-03-05 16:14:05.233791,10.54,9.35,10.54,10.54,1024,65,0.93,16,9,0.0,Clear,clear sky,15
Ohat-Pusztakócs,47.623333,20.951111,2026-03-05 16:14:06.492047,10.49,9.32,10.49,10.49,1024,66,0.78,17,10,0.0,Clear,clear sky,15
Egyek,47.616944,20.883611,2026-03-05 16:14:07.730679,10.49,9.32,10.49,10.49,1024,66,0.41,7,8,0.0,Clear,clear sky,15
Tiszafüred,47.627778,20.756111,2026-03-05 16:14:08.969255,10.47,9.3,10.47,10.47,1024,66,0.13,297,6,0.0,Clear,clear sky,15
Poroszló,47.657778,20.654444,2026-03-05 16:14:10.200729,10.48,9.31,10.48,10.48,1024,66,0.53,224,2,0.0,Clear,clear sky,15
Kétútköz,47.694167,20.565,2026-03-05 16:14:11.440809,10.33,9.17,10.33,10.33,1024,67,0.98,229,2,0.0,Clear,clear sky,15
Egerfarmos,47.711667,20.5225,2026-03-05 16:14:12.676061,10.34,9.18,10.34,10.34,1024,67,1.03,228,1,0.0,Clear,clear sky,15
Piliscsaba,47.638056,18.829722,2026-03-05 16:14:13.912368,10.74,9.33,10.74,10.74,1024,56,1.01,300,5,0.0,Clear,clear sky,15
Pilisjászfalu,47.656111,18.797778,2026-03-05 16:14:15.145593,11.47,10.13,11.47,11.47,1024,56,1.07,300,5,0.0,Clear,clear sky,15
Leányvár,47.687594,18.772553,2026-03-05 16:14:16.380983,11.45,10.11,11.45,11.45,1024,56,0.97,295,6,0.0,Clear,clear sky,15
Dorog,47.723333,18.732778,2026-03-05 16:14:17.618907,11.78,10.42,11.78,11.78,1024,54,0.82,281,6,0.0,Clear,clear sky,15
Esztergom-Kertváros,47.743333,18.719167,2026-03-05 16:14:18.870233,11.85,10.53,11.85,11.85,1024,55,0.76,275,6,0.0,Clear,clear sky,15
Esztergom,47.7775,18.743611,2026-03-05 16:14:20.104110,11.52,10.22,11.52,11.52,1024,57,0.69,273,6,0.0,Clear,clear sky,15
Dunaalmás,47.733056,18.326389,2026-03-05 16:14:21.339263,12.27,10.7,12.27,12.27,1024,44,1.18,309,7,0.0,Clear,clear sky,15
Neszmély,47.734444,18.345278,2026-03-05 16:14:22.573857,12.27,10.7,12.27,12.27,1024,44,1.18,309,7,0.0,Clear,clear sky,15
Süttő,47.761111,18.455,2026-03-05 16:14:23.811195,12.13,10.6,12.13,12.13,1024,46,0.94,289,6,0.0,Clear,clear sky,15
Piszke,47.75307,18.478017,2026-03-05 16:14:25.042386,12.13,10.63,12.13,12.13,1024,47,0.9,285,6,0.0,Clear,clear sky,15
Lábatlan,47.751944,18.513333,2026-03-05 16:14:26.279512,12.07,10.56,12.07,12.07,1024,47,0.88,281,6,0.0,Clear,clear sky,15
Eternitgyár,47.755544,18.530014,2026-03-05 16:14:27.517847,12.07,10.56,12.07,12.07,1024,47,0.88,281,6,0.0,Clear,clear sky,15
Nyergesújfalu felső,47.762222,18.540556,2026-03-05 16:14:28.760878,12.07,10.56,12.07,12.07,1024,47,0.88,281,6,0.0,Clear,clear sky,15
Nyergesújfalu,47.761111,18.561667,2026-03-05 16:14:29.998594,11.99,10.5,11.99,11.99,1024,48,0.85,279,6,0.0,Clear,clear sky,15
Tokod,47.735,18.675,2026-03-05 16:14:31.339068,11.85,10.47,11.85,11.85,1024,53,0.83,280,6,0.0,Clear,clear sky,15
Környe,47.541667,18.330278,2026-03-05 16:14:32.570538,11.99,10.42,11.99,11.99,1024,45,1.27,333,6,0.0,Clear,clear sky,15
Kecskéd alsó,47.519722,18.316667,2026-03-05 16:14:33.806097,12.04,10.5,12.04,12.04,1024,46,1.33,338,6,0.0,Clear,clear sky,15
Oroszlány,47.486944,18.308611,2026-03-05 16:14:35.041551,11.96,10.41,11.96,11.96,1024,46,1.37,341,6,0.0,Clear,clear sky,15
Győrszabadhegy,47.663056,17.648056,2026-03-05 16:14:36.271886,12.89,11.57,12.89,12.89,1024,51,0.52,54,2,0.0,Clear,clear sky,15
Ménfőcsanak felső,47.638333,17.615,2026-03-05 16:14:37.510830,12.97,11.68,12.97,12.97,1024,52,0.2,75,1,0.0,Clear,clear sky,15
Gyömöre-Tét,47.501672,17.559596,2026-03-05 16:14:38.741237,12.81,11.66,12.81,12.81,1024,58,0.78,237,1,0.0,Clear,clear sky,15
