station_name,station_lat,station_lon,observation_time,temp,feels_like,temp_min,temp_max,pressure,humidity,wind_speed,wind_deg,clouds,precipitation_1h,weather_main,weather_description,collection_hour
Búcsúszentlászló,46.793056,16.932778,2026-03-05 02:35:35.887429,2.84,0.6,2.84,2.84,1026,91,2.24,332,0,0.0,Clear,clear sky,2
Angyalföld,47.549722,19.09,2026-03-05 02:35:37.063950,8.12,6.17,7.76,8.84,1024,81,3.13,257,6,0.0,Clear,clear sky,2
Felsőjánosfa,46.841389,16.544167,2026-03-05 02:35:38.241433,2.68,1.29,2.68,2.68,1026,85,1.51,325,0,0.0,Clear,clear sky,2
Pankasz,46.835833,16.496111,2026-03-05 02:35:39.417367,2.34,0.84,2.34,2.34,1026,85,1.55,321,0,0.0,Clear,clear sky,2
Nagyrákos,46.827222,16.455556,2026-03-05 02:35:40.596032,2.28,0.77,2.28,2.28,1026,85,1.55,319,0,0.0,Clear,clear sky,2
Őriszentpéter,46.828889,16.415278,2026-03-05 02:35:41.770205,2.36,0.85,2.36,2.36,1026,85,1.56,315,0,0.0,Clear,clear sky,2
Törökbálint,47.45,18.908611,2026-03-05 02:35:42.942416,8.47,8.09,7.53,8.61,1024,76,1.34,285,7,0.0,Clear,clear sky,2
Bicske alsó,47.486389,18.642778,2026-03-05 02:35:44.123247,8.05,6.25,7.83,9.67,1025,84,2.87,319,4,0.0,Clear,clear sky,2
Bajánsenye,46.818056,16.358056,2026-03-05 02:35:45.300158,2.44,0.94,2.44,2.44,1026,85,1.56,316,0,0.0,Clear,clear sky,2
Aquincum,47.566218,19.048273,2026-03-05 02:35:46.478688,8.16,6.22,7.79,8.86,1024,81,3.13,257,4,0.0,Clear,clear sky,2
Piliscsév,47.673889,18.791389,2026-03-05 02:35:47.661471,7.88,6.59,7.37,9.62,1025,85,2.15,314,5,0.0,Clear,clear sky,2
Tát,47.741201,18.64783,2026-03-05 02:35:48.837398,8.18,7.53,8.18,8.18,1025,85,1.54,289,6,0.0,Clear,clear sky,2
Süttő felső,47.756667,18.437222,2026-03-05 02:35:50.008139,3.53,2.2,3.53,3.53,1025,86,1.55,270,6,0.0,Clear,clear sky,2
Budatétény,47.405,19.016389,2026-03-05 02:35:51.180467,8.78,8.44,7.83,8.9,1024,76,1.34,285,12,0.0,Clouds,few clouds,2
Seregélyes-Szőlőhegy,47.119444,18.612222,2026-03-05 02:35:52.350138,3.62,1.1,3.62,3.62,1025,84,2.69,322,17,0.0,Clouds,few clouds,2
Gödöllő-Állami telepek,47.564444,19.375556,2026-03-05 02:35:53.526431,7.92,6.71,7.27,8.35,1024,83,2.07,324,7,0.0,Clear,clear sky,2
Dunakeszi alsó,47.607778,19.128889,2026-03-05 02:35:54.700475,7.96,5.98,7.75,8.83,1024,83,3.13,257,4,0.0,Clear,clear sky,2
Vác-Alsóváros,47.773056,19.149722,2026-03-05 02:35:55.876158,7.73,6.71,7.73,8.14,1024,82,1.83,312,5,0.0,Clear,clear sky,2
Szob alsó,47.816667,18.8725,2026-03-05 02:35:57.050439,8.17,7.54,8.17,8.17,1025,84,1.52,293,6,0.0,Clear,clear sky,2
Zalaszentmihály-Pacsa,46.7225,16.951944,2026-03-05 02:35:58.221570,2.75,-0.27,2.75,2.75,1026,100,3.09,320,100,0.0,Mist,mist,2
Pötréte,46.682778,16.9575,2026-03-05 02:35:59.391957,2.75,-0.27,2.75,2.75,1026,100,3.09,320,100,0.0,Mist,mist,2
Felsőrajk,46.667222,16.982778,2026-03-05 02:36:00.566426,2.81,-0.2,2.81,2.81,1026,100,3.09,320,100,0.0,Mist,mist,2
Gelse,46.600556,16.982778,2026-03-05 02:36:01.737810,2.81,-0.2,2.81,2.81,1026,100,3.09,320,100,0.0,Mist,mist,2
Őrtilos,46.297778,16.887778,2026-03-05 02:36:02.910648,3.31,0.77,3.31,3.31,1026,85,2.64,318,0,0.0,Clear,clear sky,2
Zákány,46.251944,16.9425,2026-03-05 02:36:04.088524,3.16,0.47,3.16,3.16,1026,85,2.79,323,0,0.0,Clear,clear sky,2
Berzence,46.201389,17.143611,2026-03-05 02:36:05.266777,3.58,0.95,3.58,3.58,1026,87,2.81,328,0,0.0,Clear,clear sky,2
Somogyudvarhely,46.163333,17.179722,2026-03-05 02:36:06.439340,3.59,1.0,3.59,3.59,1026,87,2.77,326,1,0.0,Clear,clear sky,2
Bélavár,46.122778,17.207778,2026-03-05 02:36:07.610651,3.7,1.25,3.7,3.7,1026,87,2.63,321,2,0.0,Clear,clear sky,2
Vízvár,46.101389,17.239444,2026-03-05 02:36:08.783124,3.64,1.22,3.64,3.64,1026,87,2.58,318,3,0.0,Clear,clear sky,2
Babócsa,46.028359,17.342276,2026-03-05 02:36:09.953912,3.74,1.44,3.74,3.74,1026,88,2.47,312,4,0.0,Clear,clear sky,2
Péterhida-Komlósd,46.006667,17.358056,2026-03-05 02:36:11.125612,3.84,1.63,3.84,3.84,1026,88,2.39,309,3,0.0,Clear,clear sky,2
Barcs,45.951944,17.446944,2026-03-05 02:36:12.297741,3.93,1.8,3.93,3.93,1026,88,2.32,299,0,0.0,Clear,clear sky,2
Barcs felső,45.958333,17.486389,2026-03-05 02:36:13.469030,3.86,1.66,3.86,3.86,1026,88,2.38,299,0,0.0,Clear,clear sky,2
Középrigóc,45.970556,17.525,2026-03-05 02:36:14.649844,3.79,1.53,3.79,3.79,1026,87,2.43,299,1,0.0,Clear,clear sky,2
Darány,45.992222,17.598611,2026-03-05 02:36:15.825453,3.81,1.33,3.81,3.81,1026,87,2.68,306,2,0.0,Clear,clear sky,2
Kisdobsza,46.012222,17.668056,2026-03-05 02:36:16.995314,3.86,1.29,3.86,3.86,1026,87,2.81,311,3,0.0,Clear,clear sky,2
Nemeske,46.023333,17.705278,2026-03-05 02:36:18.168862,3.89,1.29,3.89,3.89,1026,87,2.85,312,3,0.0,Clear,clear sky,2
Molvány,46.035278,17.748611,2026-03-05 02:36:19.350770,3.86,1.25,3.86,3.86,1026,87,2.85,317,4,0.0,Clear,clear sky,2
Szigetvár,46.043333,17.801944,2026-03-05 02:36:20.521071,3.84,1.24,3.84,3.84,1025,87,2.84,317,4,0.0,Clear,clear sky,2
Nagypeterd,46.039444,17.871667,2026-03-05 02:36:21.701609,5.53,3.29,5.53,5.53,1025,86,2.8,319,5,0.0,Clear,clear sky,2
Szentdénes,46.036667,17.926944,2026-03-05 02:36:22.871640,5.48,3.26,5.48,5.48,1025,86,2.76,319,5,0.0,Clear,clear sky,2
Háros,47.412222,19.035,2026-03-05 02:36:24.042710,8.75,8.41,7.79,8.86,1024,76,1.34,285,12,0.0,Clouds,few clouds,2
Nagytétény-Diósd,47.398333,18.974444,2026-03-05 02:36:25.224308,8.73,8.39,7.82,8.9,1024,76,1.34,285,13,0.0,Clouds,few clouds,2
Érdliget,47.390278,18.937778,2026-03-05 02:36:26.397914,8.61,8.25,7.73,8.81,1024,74,1.34,285,12,0.0,Clouds,few clouds,2
Érd felső,47.381111,18.922222,2026-03-05 02:36:27.570441,8.69,8.34,7.7,8.78,1024,74,1.34,285,10,0.0,Clear,clear sky,2
Érd,47.369722,18.900833,2026-03-05 02:36:28.740870,8.65,7.05,7.66,8.74,1024,74,2.75,317,12,0.0,Clouds,few clouds,2
Százhalombatta,47.322222,18.899167,2026-03-05 02:36:29.913707,8.64,6.96,7.65,8.73,1024,74,2.87,315,17,0.0,Clouds,few clouds,2
Dunai Finomító,47.294444,18.878889,2026-03-05 02:36:31.086924,8.47,6.74,8.46,9.73,1024,74,2.89,315,14,0.0,Clouds,few clouds,2
Ercsi,47.247222,18.875278,2026-03-05 02:36:32.263975,8.69,7.01,8.69,9.96,1024,81,2.89,315,17,0.0,Clouds,few clouds,2
Iváncsa,47.177778,18.811944,2026-03-05 02:36:33.437528,3.6,1.0,3.6,3.6,1024,82,2.78,315,20,0.0,Clouds,few clouds,2
Pusztaszabolcs,47.139722,18.761667,2026-03-05 02:36:34.610441,3.68,1.08,3.68,3.68,1025,82,2.8,318,25,0.0,Clouds,scattered clouds,2
Szabadegyháza,47.082778,18.704167,2026-03-05 02:36:35.777890,3.67,1.0,3.67,3.67,1025,83,2.88,323,28,0.0,Clouds,scattered clouds,2
Sárosd,47.039722,18.660278,2026-03-05 02:36:36.948764,3.69,0.96,3.69,3.69,1025,84,2.96,326,27,0.0,Clouds,scattered clouds,2
Nagylók,46.979444,18.635833,2026-03-05 02:36:38.130920,3.58,0.72,3.58,3.58,1025,84,3.1,329,38,0.0,Clouds,scattered clouds,2
Sárbogárd,46.896944,18.611944,2026-03-05 02:36:39.300292,3.78,0.96,3.78,3.78,1025,84,3.1,332,46,0.0,Clouds,scattered clouds,2
Rétszilas,46.814167,18.601389,2026-03-05 02:36:40.472646,3.87,1.17,3.87,3.87,1025,84,2.97,333,54,0.0,Clouds,broken clouds,2
Nagyatád,46.228611,17.354167,2026-03-05 02:36:41.648445,3.59,0.98,3.59,3.59,1026,88,2.79,331,0,0.0,Clear,clear sky,2
Budapest-Keleti,47.500278,19.084167,2026-03-05 02:36:42.819915,8.49,6.62,7.73,8.81,1024,78,3.13,257,7,0.0,Clear,clear sky,2
Ferencváros,47.468611,19.088056,2026-03-05 02:36:43.991814,8.63,8.27,7.75,8.83,1024,77,1.34,285,9,0.0,Clear,clear sky,2
Budapest-Nyugati,47.510833,19.0575,2026-03-05 02:36:45.177735,8.43,6.55,7.75,8.83,1024,79,3.13,257,6,0.0,Clear,clear sky,2
Kőbánya felső,47.491944,19.133889,2026-03-05 02:36:46.348238,8.4,6.51,7.68,8.75,1024,79,3.13,257,9,0.0,Clear,clear sky,2
Rákos,47.488889,19.174722,2026-03-05 02:36:47.519843,8.33,7.43,7.64,8.71,1024,80,1.8,322,9,0.0,Clear,clear sky,2
Rákosrendező,47.525556,19.089444,2026-03-05 02:36:48.691054,8.32,6.41,7.78,8.86,1024,80,3.13,257,7,0.0,Clear,clear sky,2
Zugló,47.511389,19.101389,2026-03-05 02:36:49.865235,8.39,6.5,7.74,8.82,1024,79,3.13,257,7,0.0,Clear,clear sky,2
Mezőtárkány,47.725,20.480278,2026-03-05 02:36:51.044969,5.46,3.84,5.46,5.46,1024,84,2.06,39,8,0.0,Clear,clear sky,2
Istvántelek,47.550278,19.106389,2026-03-05 02:36:52.221132,8.1,6.15,7.77,8.84,1024,81,3.13,257,6,0.0,Clear,clear sky,2
Rákospalota-Újpest,47.565833,19.111944,2026-03-05 02:36:53.391271,8.03,6.06,7.76,8.84,1024,82,3.13,257,5,0.0,Clear,clear sky,2
Kőbánya alsó,47.483056,19.127222,2026-03-05 02:36:54.570633,8.46,6.58,7.69,8.77,1024,79,3.13,257,9,0.0,Clear,clear sky,2
Kőbánya-Kispest,47.463889,19.149444,2026-03-05 02:36:55.744138,8.47,7.54,7.69,8.77,1024,79,1.86,320,11,0.0,Clouds,few clouds,2
Pestszentlőrinc,47.454722,19.182778,2026-03-05 02:36:56.915718,8.39,7.37,7.63,8.71,1024,79,1.94,320,13,0.0,Clouds,few clouds,2
Kispest,47.448135,19.157552,2026-03-05 02:36:58.089275,8.49,7.48,7.7,8.77,1024,79,1.95,319,13,0.0,Clouds,few clouds,2
Újpest,47.558889,19.079722,2026-03-05 02:36:59.258841,8.09,6.14,7.77,8.84,1024,82,3.13,257,5,0.0,Clear,clear sky,2
Pestszentimre felső,47.413611,19.173333,2026-03-05 02:37:00.451222,8.53,7.45,7.72,8.8,1024,79,2.03,319,16,0.0,Clouds,few clouds,2
Dunakeszi,47.626111,19.136111,2026-03-05 02:37:01.623943,7.87,5.87,7.66,8.74,1024,83,3.13,257,4,0.0,Clear,clear sky,2
Dunakeszi-Gyártelep,47.643611,19.135,2026-03-05 02:37:02.795950,7.92,6.97,7.71,8.79,1024,83,1.79,319,4,0.0,Clear,clear sky,2
Alsógöd,47.676944,19.134444,2026-03-05 02:37:03.971057,7.93,6.96,7.7,8.78,1024,87,1.81,318,4,0.0,Clear,clear sky,2
Göd,47.687778,19.1375,2026-03-05 02:37:05.142381,7.95,6.98,7.72,8.8,1024,87,1.81,318,4,0.0,Clear,clear sky,2
Felsőgöd,47.705556,19.143333,2026-03-05 02:37:06.322594,7.9,6.9,7.77,8.84,1024,87,1.84,317,4,0.0,Clear,clear sky,2
Sződ-Sződliget,47.728056,19.154722,2026-03-05 02:37:07.492674,7.78,6.75,7.76,10.0,1024,87,1.85,315,5,0.0,Clear,clear sky,2
Vác,47.782778,19.133056,2026-03-05 02:37:08.665512,7.73,6.71,7.73,8.14,1024,82,1.83,312,5,0.0,Clear,clear sky,2
Verőce,47.823889,19.029444,2026-03-05 02:37:09.836880,7.57,6.69,7.57,7.97,1025,83,1.67,295,5,0.0,Clear,clear sky,2
Kismaros,47.8275,19.010278,2026-03-05 02:37:11.016806,8.1,7.33,8.1,8.1,1025,83,1.64,293,5,0.0,Clear,clear sky,2
Nagymaros-Visegrád,47.791389,18.959167,2026-03-05 02:37:12.194734,8.12,7.29,7.72,8.12,1025,83,1.7,298,5,0.0,Clear,clear sky,2
Nagymaros,47.780278,18.952222,2026-03-05 02:37:13.365756,8.2,7.38,7.79,8.2,1025,83,1.7,298,5,0.0,Clear,clear sky,2
Zebegény,47.801389,18.908889,2026-03-05 02:37:14.546088,8.17,7.43,7.77,8.17,1025,83,1.62,294,5,0.0,Clear,clear sky,2
Szob,47.821111,18.861944,2026-03-05 02:37:15.719682,8.13,7.6,8.13,8.13,1025,84,1.43,288,6,0.0,Clear,clear sky,2
Alagimajor,47.601944,19.153889,2026-03-05 02:37:16.892624,7.93,5.94,7.71,8.79,1024,83,3.13,257,4,0.0,Clear,clear sky,2
Fót,47.611389,19.181667,2026-03-05 02:37:18.064419,7.87,6.89,7.6,8.68,1024,83,1.81,322,4,0.0,Clear,clear sky,2
Fótújfalu,47.615,19.192778,2026-03-05 02:37:19.239991,7.78,6.79,7.5,8.58,1024,83,1.81,322,4,0.0,Clear,clear sky,2
Csomád,47.635556,19.222778,2026-03-05 02:37:20.412665,7.55,6.45,7.23,8.31,1024,85,1.88,324,5,0.0,Clear,clear sky,2
Veresegyház,47.649167,19.288611,2026-03-05 02:37:21.583849,7.68,6.36,7.38,8.46,1024,85,2.15,327,5,0.0,Clear,clear sky,2
Erdőkertes,47.662222,19.295833,2026-03-05 02:37:22.764911,7.62,6.29,7.33,8.41,1024,81,2.15,327,5,0.0,Clear,clear sky,2
Őrbottyán,47.685833,19.283611,2026-03-05 02:37:23.938691,7.43,6.02,7.25,8.33,1024,81,2.2,327,5,0.0,Clear,clear sky,2
Váchartyán,47.725833,19.248889,2026-03-05 02:37:25.120374,7.61,6.28,7.61,8.28,1024,81,2.14,325,6,0.0,Clear,clear sky,2
Magyarkút-Verőce,47.826111,19.044444,2026-03-05 02:37:26.292245,7.73,6.87,7.73,7.73,1025,83,1.67,295,5,0.0,Clear,clear sky,2
Szokolya,47.871111,19.030556,2026-03-05 02:37:27.464999,2.19,0.64,2.19,2.19,1025,83,1.57,290,5,0.0,Clear,clear sky,2
Berkenye,47.885278,19.071944,2026-03-05 02:37:28.639801,2.94,1.46,2.94,2.94,1025,83,1.6,292,5,0.0,Clear,clear sky,2
Nógrád,47.901944,19.0475,2026-03-05 02:37:29.812040,2.57,1.16,2.57,2.57,1025,83,1.51,288,6,0.0,Clear,clear sky,2
Diósjenő,47.94,19.049444,2026-03-05 02:37:30.986744,2.21,0.84,2.21,2.21,1025,82,1.45,287,6,0.0,Clear,clear sky,2
Borsosberény,47.971389,19.093056,2026-03-05 02:37:32.159619,2.99,1.71,2.99,2.99,1025,82,1.46,299,5,0.0,Clear,clear sky,2
Nagyoroszi,47.993611,19.101111,2026-03-05 02:37:33.342815,2.85,1.6,2.85,2.85,1025,82,1.43,301,5,0.0,Clear,clear sky,2
Drégelyvár,48.001944,19.079444,2026-03-05 02:37:34.514891,3.09,3.09,3.09,3.09,1025,82,1.3,298,6,0.0,Clear,clear sky,2
Drégely,48.042222,19.056111,2026-03-05 02:37:35.692303,3.48,3.48,3.48,3.48,1025,82,1.26,304,7,0.0,Clear,clear sky,2
Drégelypalánk,48.055,19.046111,2026-03-05 02:37:36.866784,3.61,3.61,3.61,3.61,1025,82,1.12,309,8,0.0,Clear,clear sky,2
Ipolyvece,48.056944,19.106389,2026-03-05 02:37:38.045989,3.64,2.48,3.64,3.64,1025,82,1.44,317,7,0.0,Clear,clear sky,2
Dejtár,48.045556,19.196389,2026-03-05 02:37:39.219593,3.6,2.36,3.6,3.6,1025,82,1.49,317,6,0.0,Clear,clear sky,2
Ipolyszög,48.054444,19.221944,2026-03-05 02:37:40.392663,3.67,2.34,3.67,3.67,1025,82,1.57,324,7,0.0,Clear,clear sky,2
Iklad-Domony,47.658056,19.444444,2026-03-05 02:37:41.563270,8.31,6.81,6.1,8.31,1024,81,2.51,326,5,0.0,Clear,clear sky,2
Iklad-Domony felső,47.667778,19.428056,2026-03-05 02:37:42.745833,8.26,6.77,6.09,8.73,1024,81,2.49,328,5,0.0,Clear,clear sky,2
Galgamácsa,47.693889,19.3925,2026-03-05 02:37:43.918898,8.28,6.87,8.28,8.72,1024,81,2.39,328,5,0.0,Clear,clear sky,2
Vácrátót,47.732778,19.217778,2026-03-05 02:37:45.095237,8.64,7.63,8.2,8.64,1024,82,1.98,321,5,0.0,Clear,clear sky,2
Csörög,47.735833,19.196389,2026-03-05 02:37:46.265033,8.64,7.69,7.94,8.64,1024,82,1.91,319,5,0.0,Clear,clear sky,2
Galgagyörk,47.735278,19.372222,2026-03-05 02:37:47.437473,8.18,6.75,8.18,8.62,1024,82,2.39,328,6,0.0,Clear,clear sky,2
Püspökhatvan,47.768611,19.366944,2026-03-05 02:37:48.610376,3.41,1.23,3.41,3.41,1024,82,2.28,327,7,0.0,Clear,clear sky,2
Acsa-Erdőkürt,47.801111,19.386111,2026-03-05 02:37:49.782668,3.28,1.17,3.28,3.28,1024,82,2.18,327,8,0.0,Clear,clear sky,2
Galgaguta,47.848611,19.385556,2026-03-05 02:37:50.955606,3.04,1.19,3.04,3.04,1025,83,1.91,326,9,0.0,Clear,clear sky,2
Nógrádkövesd,47.879444,19.371111,2026-03-05 02:37:52.135571,3.22,1.57,3.22,3.22,1025,83,1.76,325,10,0.0,Clear,clear sky,2
Magyarnándor,47.970833,19.356667,2026-03-05 02:37:53.306286,3.13,1.95,3.13,3.13,1025,83,1.41,322,10,0.0,Clear,clear sky,2
Mohora,47.995556,19.347778,2026-03-05 02:37:54.484677,3.26,2.17,3.26,3.26,1025,83,1.36,324,10,0.0,Clear,clear sky,2
Szügy,48.036389,19.333056,2026-03-05 02:37:55.653128,3.53,2.44,3.53,3.53,1025,83,1.38,329,10,0.0,Clear,clear sky,2
Balassagyarmat,48.071111,19.293611,2026-03-05 02:37:56.824246,3.63,2.37,3.63,3.63,1025,83,1.51,330,9,0.0,Clear,clear sky,2
Őrhalom,48.078773,19.403936,2026-03-05 02:37:57.994352,3.47,3.47,3.47,3.47,1025,83,1.19,343,15,0.0,Clouds,few clouds,2
Hugyag,48.083056,19.421111,2026-03-05 02:37:59.171625,3.47,3.47,3.47,3.47,1025,83,1.19,343,15,0.0,Clouds,few clouds,2
Szécsény,48.093056,19.521111,2026-03-05 02:38:00.341632,3.79,3.79,3.79,3.79,1025,84,0.77,359,20,0.0,Clouds,few clouds,2
Ludányhalászi,48.1325,19.529444,2026-03-05 02:38:01.521653,3.79,3.79,3.79,3.79,1025,84,0.84,3,18,0.0,Clouds,few clouds,2
Nógrádszakál,48.178333,19.521667,2026-03-05 02:38:02.696221,3.76,3.76,3.76,3.76,1025,83,0.92,4,16,0.0,Clouds,few clouds,2
Ráróspuszta,48.207222,19.541389,2026-03-05 02:38:03.877090,3.22,3.22,3.22,3.22,1025,83,1.12,2,13,0.0,Clouds,few clouds,2
Litke,48.215833,19.598611,2026-03-05 02:38:05.066463,3.79,3.79,3.79,3.79,1025,84,0.5,30,20,0.0,Clouds,few clouds,2
Nyíregyháza külső,47.943056,21.740278,2026-03-05 02:38:06.237760,4.32,1.64,4.32,4.32,1024,88,3.06,18,84,0.0,Clouds,broken clouds,2
Oros,47.945833,21.806389,2026-03-05 02:38:07.406665,4.26,1.56,4.26,4.26,1024,87,3.07,13,92,0.0,Clouds,overcast clouds,2
Napkor,47.948889,21.873056,2026-03-05 02:38:08.578789,4.22,1.5,4.22,4.22,1025,87,3.09,9,96,0.0,Clouds,overcast clouds,2
Apagy,47.953775,21.939044,2026-03-05 02:38:09.750168,4.19,1.47,4.19,4.19,1025,86,3.09,7,96,0.0,Clouds,overcast clouds,2
Levelek-Magy,47.948056,21.993611,2026-03-05 02:38:10.929807,4.09,1.34,4.09,4.09,1024,86,3.1,3,95,0.0,Clouds,overcast clouds,2
Ófehértó,47.940556,22.041389,2026-03-05 02:38:12.105434,3.97,1.18,3.97,3.97,1024,85,3.12,359,97,0.0,Clouds,overcast clouds,2
Ligettanya,47.951667,22.071389,2026-03-05 02:38:13.272878,3.92,1.08,3.92,3.92,1024,85,3.17,358,92,0.0,Clouds,overcast clouds,2
Baktalórántháza,47.988611,22.083333,2026-03-05 02:38:14.442507,3.94,1.12,3.94,3.94,1024,86,3.15,359,92,0.0,Clouds,overcast clouds,2
Vaja-Rohod,48.006389,22.164167,2026-03-05 02:38:15.614743,3.93,1.12,3.93,3.93,1024,86,3.13,357,95,0.0,Clouds,overcast clouds,2
Rákóczitanya,48.022222,22.178333,2026-03-05 02:38:16.784479,3.88,1.06,3.88,3.88,1024,86,3.13,356,97,0.0,Clouds,overcast clouds,2
Nyírmada,48.059167,22.203056,2026-03-05 02:38:17.954945,3.94,1.23,3.94,3.94,1024,86,3.0,357,100,0.0,Clouds,overcast clouds,2
Tunyogmatolcs,47.960244,22.442247,2026-03-05 02:38:19.126738,3.89,1.73,3.89,3.89,1024,84,2.34,358,88,0.0,Clouds,overcast clouds,2
Tunyogmatolcs alsó,47.966025,22.464713,2026-03-05 02:38:20.298626,3.84,1.87,3.84,3.84,1024,84,2.14,359,89,0.0,Clouds,overcast clouds,2
Fehérgyarmat,47.979167,22.524444,2026-03-05 02:38:21.471430,3.84,2.5,3.84,3.84,1024,84,1.59,13,98,0.0,Clouds,overcast clouds,2
Penyige,47.995278,22.566944,2026-03-05 02:38:22.643768,3.83,2.8,3.83,3.83,1024,84,1.37,19,99,0.0,Clouds,overcast clouds,2
Nagyszekeres,47.976111,22.6125,2026-03-05 02:38:23.815469,3.81,3.81,3.81,3.81,1024,84,1.18,27,99,0.0,Clouds,overcast clouds,2
Kisszekeres,47.965833,22.629444,2026-03-05 02:38:24.992531,3.75,3.75,3.75,3.75,1024,84,1.02,24,93,0.0,Clouds,overcast clouds,2
Jánkmajtis,47.941944,22.657222,2026-03-05 02:38:26.162492,3.65,3.65,3.65,3.65,1024,85,0.63,33,86,0.0,Clouds,overcast clouds,2
Gacsály,47.926111,22.745,2026-03-05 02:38:27.334684,3.93,3.93,3.93,5.03,1024,85,0.55,106,81,0.0,Clouds,broken clouds,2
Zajta,47.9025,22.796111,2026-03-05 02:38:28.508736,3.92,3.92,3.92,5.03,1024,85,0.73,151,69,0.0,Clouds,broken clouds,2
Eperjeske alsó,48.360556,22.19,2026-03-05 02:38:29.693929,4.09,1.41,4.09,4.09,1025,90,3.0,340,90,0.0,Clouds,overcast clouds,2
Mándok,48.326944,22.196389,2026-03-05 02:38:30.864547,4.07,1.56,4.07,4.07,1025,90,2.78,342,92,0.0,Clouds,overcast clouds,2
Tornyospálca,48.268333,22.201944,2026-03-05 02:38:32.039812,4.1,1.72,4.1,4.1,1025,89,2.63,345,95,0.0,Clouds,overcast clouds,2
Aranyosapáti,48.211303,22.253534,2026-03-05 02:38:33.214134,4.11,1.96,4.11,4.11,1025,88,2.37,349,100,0.0,Clouds,overcast clouds,2
Gyüre,48.171389,22.269167,2026-03-05 02:38:34.388202,4.09,1.8,4.09,4.09,1024,87,2.52,353,100,0.0,Clouds,overcast clouds,2
Varsány,48.151722,22.290047,2026-03-05 02:38:35.560782,4.07,1.75,4.07,4.07,1024,86,2.55,355,100,0.0,Clouds,overcast clouds,2
Vásárosnamény,48.126667,22.306111,2026-03-05 02:38:36.734386,4.06,1.65,4.06,4.06,1024,86,2.66,356,100,0.0,Clouds,overcast clouds,2
Vitka,48.095556,22.308056,2026-03-05 02:38:37.909477,4.04,1.55,4.04,4.04,1024,85,2.75,357,100,0.0,Clouds,overcast clouds,2
Nagydobos,48.054167,22.311111,2026-03-05 02:38:39.088504,3.96,1.38,3.96,3.96,1024,85,2.84,357,100,0.0,Clouds,overcast clouds,2
Ópályi,47.997778,22.318333,2026-03-05 02:38:40.263584,3.88,1.18,3.88,3.88,1024,85,2.98,355,96,0.0,Clouds,overcast clouds,2
Nyírcsaholy,47.908056,22.348333,2026-03-05 02:38:41.437271,3.83,1.34,3.83,3.83,1024,85,2.7,349,69,0.0,Clouds,broken clouds,2
Nagyecsed,47.864722,22.385556,2026-03-05 02:38:42.612178,3.75,1.83,3.75,3.75,1024,85,2.08,338,50,0.0,Clouds,scattered clouds,2
Tiborszállás,47.815278,22.402778,2026-03-05 02:38:43.784479,3.69,2.01,3.69,3.69,1024,86,1.85,322,31,0.0,Clouds,scattered clouds,2
Kiskunhalas,46.434444,19.493611,2026-03-05 02:38:44.953731,4.18,2.06,4.18,4.18,1024,83,2.36,304,100,0.0,Clouds,overcast clouds,2
Kecskemét alsó,46.895833,19.692222,2026-03-05 02:38:46.115528,6.55,4.35,6.55,6.55,1024,84,3.03,281,100,0.0,Clouds,overcast clouds,2
Putnok,48.286667,20.4375,2026-03-05 02:38:47.291228,8.89,8.89,7.25,8.89,1024,89,0.49,101,69,0.0,Clouds,broken clouds,2
Bánréve,48.299722,20.351944,2026-03-05 02:38:48.468736,8.88,8.88,8.88,8.88,1024,88,0.43,97,69,0.0,Clouds,broken clouds,2
Ipolytarnóc,48.236667,19.629167,2026-03-05 02:38:49.641903,3.77,3.77,3.77,3.77,1025,84,0.39,38,20,0.0,Clouds,few clouds,2
Rákosliget,47.486111,19.257778,2026-03-05 02:38:50.818213,8.49,7.55,7.96,9.8,1024,79,1.87,323,10,0.0,Clear,clear sky,2
Ikrény,47.657778,17.524167,2026-03-05 02:38:51.988220,2.08,-0.46,2.08,2.08,1026,91,2.4,326,7,0.0,Clear,clear sky,2
Rábapatona,47.648889,17.461944,2026-03-05 02:38:53.167290,2.1,-0.66,2.1,2.1,1026,91,2.63,326,7,0.0,Clear,clear sky,2
Enese,47.644167,17.425278,2026-03-05 02:38:54.344955,2.1,-0.84,2.1,2.1,1026,90,2.84,324,7,0.0,Clear,clear sky,2
Kóny,47.632222,17.357222,2026-03-05 02:38:55.514967,3.24,0.45,3.24,3.24,1026,90,2.93,324,7,0.0,Clear,clear sky,2
Farád,47.595278,17.195833,2026-03-05 02:38:56.688772,5.57,2.91,5.57,5.57,1026,88,3.41,323,8,0.0,Clear,clear sky,2
Rábatamási,47.592778,17.161389,2026-03-05 02:38:57.862167,5.57,2.91,5.57,5.57,1026,88,3.41,323,8,0.0,Clear,clear sky,2
Szárföld,47.589167,17.123889,2026-03-05 02:38:59.041920,5.55,2.85,5.55,5.55,1026,87,3.47,323,8,0.0,Clear,clear sky,2
Veszkény,47.586944,17.101389,2026-03-05 02:39:00.213493,5.56,2.84,5.56,5.56,1026,89,3.5,323,8,0.0,Clear,clear sky,2
Kapuvár,47.581944,17.046944,2026-03-05 02:39:01.388234,5.54,2.82,5.54,5.54,1026,89,3.5,323,7,0.0,Clear,clear sky,2
Vitnyéd-Csermajor,47.5825,16.987222,2026-03-05 02:39:02.561454,5.55,2.82,5.55,5.55,1026,89,3.52,323,6,0.0,Clear,clear sky,2
Petőháza,47.595278,16.893056,2026-03-05 02:39:03.734821,5.5,2.68,5.5,5.5,1026,89,3.65,322,5,0.0,Clear,clear sky,2
Fertőszentmiklós,47.6,16.858889,2026-03-05 02:39:04.911600,5.5,2.68,5.5,5.5,1026,89,3.64,321,4,0.0,Clear,clear sky,2
Pinnye,47.600278,16.768611,2026-03-05 02:39:06.085494,5.38,2.71,5.38,5.38,1026,89,3.37,317,2,0.0,Clear,clear sky,2
Fertőboz,47.625,16.691667,2026-03-05 02:39:07.277898,5.22,2.62,5.22,5.22,1026,89,3.21,312,2,0.0,Clear,clear sky,2
Sopron,47.677778,16.587222,2026-03-05 02:39:08.446837,4.92,2.62,4.92,4.92,1026,81,2.72,301,2,0.0,Clear,clear sky,2
Fertőszéplak-Fertőd,47.618889,16.850833,2026-03-05 02:39:09.625765,5.52,2.64,5.52,5.52,1026,89,3.75,321,4,0.0,Clear,clear sky,2
Nyúl,47.587778,17.698056,2026-03-05 02:39:10.799507,2.02,-0.7,2.02,2.14,1026,100,2.57,270,7,0.0,Mist,mist,2
Pannonhalma,47.547778,17.740833,2026-03-05 02:39:11.969608,1.96,-0.77,1.96,2.08,1026,100,2.57,270,6,0.0,Mist,mist,2
Tarjánpuszta,47.504722,17.789167,2026-03-05 02:39:13.141418,1.73,-1.04,1.73,1.84,1026,100,2.57,270,6,0.0,Mist,mist,2
Győrasszonyfa,47.4925,17.799167,2026-03-05 02:39:14.313206,1.66,-1.12,1.66,1.77,1026,100,2.57,270,6,0.0,Mist,mist,2
Veszprémvarsány,47.443333,17.818333,2026-03-05 02:39:15.487224,1.71,0.3,1.71,1.83,1026,93,1.43,273,6,0.0,Clear,clear sky,2
Bakonyszentlászló,47.395556,17.8175,2026-03-05 02:39:16.656885,1.58,0.06,1.47,1.58,1026,93,1.49,283,5,0.0,Clear,clear sky,2
Porva-Csesznek,47.326944,17.841111,2026-03-05 02:39:17.837765,0.59,-1.28,0.59,0.59,1026,93,1.63,295,5,0.0,Clear,clear sky,2
Zirc,47.266667,17.878056,2026-03-05 02:39:19.007777,1.28,-1.09,1.28,1.28,1026,92,2.11,311,4,0.0,Clear,clear sky,2
Eplény,47.192778,17.921667,2026-03-05 02:39:20.182226,1.75,-0.94,1.75,1.75,1026,91,2.49,319,3,0.0,Clear,clear sky,2
Marcaltő,47.4275,17.348889,2026-03-05 02:39:21.357393,2.17,2.17,2.17,2.17,1026,100,0.51,180,3,0.0,Fog,fog,2
Szany-Rábaszentandrás,47.460833,17.315278,2026-03-05 02:39:22.531921,2.17,2.17,2.17,2.17,1026,100,0.51,180,4,0.0,Fog,fog,2
Egyed-Rábacsanak,47.521944,17.316389,2026-03-05 02:39:23.702450,2.18,-0.73,2.18,2.18,1026,90,2.82,325,5,0.0,Clear,clear sky,2
Rábapordány,47.557222,17.315,2026-03-05 02:39:24.871099,2.18,-0.81,2.18,2.18,1026,90,2.91,325,5,0.0,Clear,clear sky,2
Albertfalva,47.440784,19.033965,2026-03-05 02:39:26.039402,9.08,8.31,8.21,10.06,1024,75,1.79,296,10,0.0,Clear,clear sky,2
Budafok,47.425833,19.041389,2026-03-05 02:39:27.211222,9.06,8.28,8.22,10.06,1024,74,1.79,296,12,0.0,Clouds,few clouds,2
Tétényliget,47.384722,18.955278,2026-03-05 02:39:28.383600,9.11,8.82,8.24,10.08,1024,73,1.34,285,12,0.0,Clouds,few clouds,2
Érd alsó,47.379722,18.923056,2026-03-05 02:39:29.545389,8.69,8.34,7.7,8.78,1024,74,1.34,285,10,0.0,Clear,clear sky,2
Tárnok,47.365556,18.873889,2026-03-05 02:39:30.718860,9.06,7.46,8.17,10.01,1024,73,2.88,318,9,0.0,Clear,clear sky,2
Martonvásár,47.321389,18.781667,2026-03-05 02:39:31.893176,8.92,7.3,8.1,9.94,1024,82,2.86,316,8,0.0,Clear,clear sky,2
Baracska,47.297222,18.753333,2026-03-05 02:39:33.064763,8.77,7.19,8.77,10.04,1025,82,2.76,315,9,0.0,Clear,clear sky,2
Pettend,47.26,18.708889,2026-03-05 02:39:34.235833,3.56,1.11,3.56,3.56,1025,83,2.6,315,8,0.0,Clear,clear sky,2
Kápolnásnyék,47.245556,18.692222,2026-03-05 02:39:35.409589,3.62,1.25,3.62,3.62,1025,83,2.52,315,9,0.0,Clear,clear sky,2
Velence,47.226944,18.663889,2026-03-05 02:39:36.585813,3.68,1.35,3.68,3.68,1025,83,2.48,316,8,0.0,Clear,clear sky,2
Velencefürdő,47.218611,18.648056,2026-03-05 02:39:37.761136,3.68,1.34,3.68,3.68,1025,83,2.5,317,10,0.0,Clear,clear sky,2
Gárdony,47.205833,18.624722,2026-03-05 02:39:38.950460,3.69,1.37,3.69,3.69,1025,84,2.48,318,10,0.0,Clear,clear sky,2
Agárd,47.197666,18.604907,2026-03-05 02:39:40.127209,3.69,1.37,3.69,3.69,1025,84,2.48,318,10,0.0,Clear,clear sky,2
Dinnyés,47.179722,18.560833,2026-03-05 02:39:41.296749,3.66,1.28,3.66,3.66,1025,85,2.54,321,11,0.0,Clouds,few clouds,2
Székesfehérvár,47.183611,18.424722,2026-03-05 02:39:42.467186,3.54,0.98,3.54,3.54,1025,86,2.72,328,7,0.0,Clear,clear sky,2
Szabadbattyán,47.105278,18.388333,2026-03-05 02:39:43.637265,3.45,0.86,3.45,3.45,1025,86,2.73,333,8,0.0,Clear,clear sky,2
Kiscséripuszta,47.048056,18.355,2026-03-05 02:39:44.809584,3.19,0.63,3.19,3.19,1025,87,2.64,336,8,0.0,Clear,clear sky,2
Lepsény,46.9875,18.248056,2026-03-05 02:39:45.981573,7.68,6.12,7.68,7.68,1025,87,2.44,338,7,0.0,Clear,clear sky,2
Balatonaliga,46.984444,18.171389,2026-03-05 02:39:47.153315,7.49,6.05,7.49,7.49,1025,87,2.25,336,4,0.0,Clear,clear sky,2
Balatonvilágos,46.964167,18.157222,2026-03-05 02:39:48.334894,7.53,6.18,7.53,7.53,1025,86,2.15,335,3,0.0,Clear,clear sky,2
Szabadifürdő,46.926111,18.103333,2026-03-05 02:39:49.505370,7.7,6.46,7.7,7.7,1025,63,2.06,334,3,0.0,Clear,clear sky,2
Ózd alsó,48.227778,20.306111,2026-03-05 02:39:50.679598,4.64,4.64,3.73,8.72,1024,88,0.52,72,70,0.0,Clouds,broken clouds,2
Ózd,48.2225,20.294722,2026-03-05 02:39:51.854124,4.69,4.69,3.78,8.77,1024,88,0.52,72,70,0.0,Clouds,broken clouds,2
Alsóboldva,48.212778,20.792222,2026-03-05 02:39:53.029880,9.49,8.91,9.1,9.49,1024,91,1.65,359,83,0.0,Clouds,broken clouds,2
Boldva,48.223333,20.790278,2026-03-05 02:39:54.200881,9.48,8.9,9.09,9.48,1024,91,1.65,359,83,0.0,Clouds,broken clouds,2
Borsodszirák,48.259167,20.770556,2026-03-05 02:39:55.376997,9.43,9.43,9.05,9.43,1024,90,1.27,6,85,0.0,Clouds,overcast clouds,2
Edelény alsó,48.279167,20.760833,2026-03-05 02:39:56.549448,9.41,9.41,7.39,9.41,1024,90,1.27,6,85,0.0,Clouds,overcast clouds,2
Edelény,48.299722,20.749444,2026-03-05 02:39:57.721144,9.39,9.39,7.37,9.39,1024,90,1.12,11,85,0.0,Clouds,overcast clouds,2
Szendrőlád,48.334444,20.731944,2026-03-05 02:39:58.891763,9.3,9.3,9.3,9.3,1024,90,0.78,20,79,0.0,Clouds,broken clouds,2
Szendrő,48.400725,20.721346,2026-03-05 02:40:00.082121,4.57,4.57,4.57,4.57,1024,89,0.63,27,72,0.0,Clouds,broken clouds,2
Szendrő felső,48.409907,20.720148,2026-03-05 02:40:01.259925,4.57,4.57,4.57,4.57,1024,89,0.63,27,72,0.0,Clouds,broken clouds,2
Szalonna,48.449444,20.722222,2026-03-05 02:40:02.433703,4.45,4.45,4.45,4.45,1024,88,0.58,28,64,0.0,Clouds,broken clouds,2
Perkupa,48.471389,20.691111,2026-03-05 02:40:03.603788,3.66,3.66,3.66,3.66,1025,88,0.58,19,58,0.0,Clouds,broken clouds,2
Szemeretelep,47.443056,19.214167,2026-03-05 02:40:04.779506,8.64,7.66,8.03,9.87,1024,77,1.94,320,14,0.0,Clouds,few clouds,2
Jósvafő-Aggtelek,48.489722,20.693889,2026-03-05 02:40:05.952513,3.89,3.89,3.89,3.89,1025,87,0.66,15,56,0.0,Clouds,broken clouds,2
Bódvaszilas,48.5375,20.738056,2026-03-05 02:40:07.129049,3.41,3.41,3.41,3.41,1025,87,0.72,17,57,0.0,Clouds,broken clouds,2
Komjáti,48.5475,20.759722,2026-03-05 02:40:08.304609,2.87,2.87,2.87,2.87,1025,87,0.84,15,58,0.0,Clouds,broken clouds,2
Tornanádaska,48.558333,20.787222,2026-03-05 02:40:09.483874,4.02,4.02,4.02,4.02,1025,88,0.9,17,59,0.0,Clouds,broken clouds,2
Onga,48.121111,20.906667,2026-03-05 02:40:10.657373,9.54,9.13,7.51,9.54,1024,100,1.49,7,70,0.0,Clouds,broken clouds,2
Szikszó-Vásártér,48.193056,20.934722,2026-03-05 02:40:11.830952,9.5,9.05,7.48,9.5,1024,89,1.53,13,83,0.0,Clouds,broken clouds,2
Szikszó,48.201667,20.941667,2026-03-05 02:40:13.003441,9.52,9.19,7.49,9.52,1024,89,1.42,21,84,0.0,Clouds,broken clouds,2
Aszaló,48.219867,20.961466,2026-03-05 02:40:14.175320,9.5,9.11,7.47,9.5,1024,89,1.47,23,86,0.0,Clouds,overcast clouds,2
Halmaj,48.246667,20.991667,2026-03-05 02:40:15.349243,9.48,9.08,9.48,9.48,1024,88,1.48,31,88,0.0,Clouds,overcast clouds,2
Csobád,48.277222,21.033889,2026-03-05 02:40:16.521629,9.45,9.01,9.45,9.45,1024,88,1.51,39,90,0.0,Clouds,overcast clouds,2
Ináncs,48.291111,21.057778,2026-03-05 02:40:17.699365,9.45,8.97,9.45,9.45,1024,88,1.55,49,91,0.0,Clouds,overcast clouds,2
Forró-Encs,48.3275,21.117778,2026-03-05 02:40:18.868551,4.68,3.47,4.68,4.68,1024,88,1.59,53,91,0.0,Clouds,overcast clouds,2
Méra,48.363056,21.140278,2026-03-05 02:40:20.043953,4.28,2.88,4.28,4.28,1024,88,1.69,54,90,0.0,Clouds,overcast clouds,2
Novajidrány,48.404444,21.170556,2026-03-05 02:40:21.240263,4.99,3.69,4.99,6.5,1024,88,1.7,54,88,0.0,Clouds,overcast clouds,2
Hernádszurdok,48.487222,21.213889,2026-03-05 02:40:22.407561,5.37,0.92,4.91,6.92,1025,84,7.2,20,0,0.0,Clear,clear sky,2
Hidasnémeti,48.508333,21.229722,2026-03-05 02:40:23.579330,5.39,0.94,4.92,6.92,1025,84,7.2,20,0,0.0,Clear,clear sky,2
Mád,48.19,21.268889,2026-03-05 02:40:24.749431,10.07,8.8,10.07,10.07,1024,64,1.58,71,84,0.0,Clouds,broken clouds,2
Rátka,48.215,21.230278,2026-03-05 02:40:25.918345,10.23,8.98,10.23,10.23,1024,64,1.51,71,87,0.0,Clouds,overcast clouds,2
Tállya,48.226944,21.225278,2026-03-05 02:40:27.087262,10.18,8.92,10.18,10.18,1024,64,1.51,71,87,0.0,Clouds,overcast clouds,2
Golop,48.242778,21.204167,2026-03-05 02:40:28.257390,10.3,9.06,10.3,10.3,1024,64,1.45,67,89,0.0,Clouds,overcast clouds,2
Abaújszántó,48.286944,21.181667,2026-03-05 02:40:29.428058,10.21,9.56,10.21,10.21,1024,87,1.51,62,91,0.0,Clouds,overcast clouds,2
Abaújszántói fürdő,48.268333,21.179722,2026-03-05 02:40:30.596887,10.27,9.62,10.27,10.27,1024,87,1.48,64,90,0.0,Clouds,overcast clouds,2
Abaújkér,48.309444,21.198333,2026-03-05 02:40:31.766989,10.17,9.54,10.17,10.17,1024,88,1.56,60,91,0.0,Clouds,overcast clouds,2
Boldogkőváralja,48.345,21.208889,2026-03-05 02:40:32.937770,9.97,9.54,9.97,9.97,1024,88,1.57,61,90,0.0,Clouds,overcast clouds,2
Korlát-Vizsoly,48.365,21.219167,2026-03-05 02:40:34.122709,9.88,9.41,9.88,9.88,1024,88,1.6,60,89,0.0,Clouds,overcast clouds,2
Fony,48.411389,21.242778,2026-03-05 02:40:35.293471,4.79,3.48,4.79,6.3,1025,89,1.68,55,86,0.0,Clouds,overcast clouds,2
Hejce-Vilmány,48.419444,21.245556,2026-03-05 02:40:36.463616,4.76,3.45,4.76,6.27,1025,89,1.68,55,86,0.0,Clouds,overcast clouds,2
Göncruszka,48.445,21.246944,2026-03-05 02:40:37.637508,5.32,4.06,4.85,6.85,1025,89,1.71,53,84,0.0,Clouds,broken clouds,2
Gönc,48.470556,21.261389,2026-03-05 02:40:38.816579,5.23,3.96,4.75,6.75,1025,89,1.7,51,84,0.0,Clouds,broken clouds,2
Zsujta,48.4925,21.265,2026-03-05 02:40:39.991912,5.26,0.78,4.77,6.77,1025,84,7.2,20,0,0.0,Clear,clear sky,2
Bodrogkeresztúr,48.175556,21.354167,2026-03-05 02:40:41.167747,10.34,9.1,10.34,10.34,1024,64,1.78,63,83,0.0,Clouds,broken clouds,2
Szegi,48.201944,21.387778,2026-03-05 02:40:42.345445,10.38,9.14,10.38,10.38,1024,64,1.96,50,89,0.0,Clouds,overcast clouds,2
Erdőbénye,48.218056,21.401944,2026-03-05 02:40:43.520913,10.35,9.11,10.35,10.35,1024,64,2.05,43,92,0.0,Clouds,overcast clouds,2
Olaszliszka-Tolcsva,48.258333,21.448056,2026-03-05 02:40:44.692924,10.38,9.14,10.38,10.38,1024,64,2.07,37,95,0.0,Clouds,overcast clouds,2
Bodrogolaszi,48.286944,21.512778,2026-03-05 02:40:45.866243,10.32,9.71,10.32,10.32,1024,88,2.14,31,96,0.0,Clouds,overcast clouds,2
Sárospatak,48.325833,21.566111,2026-03-05 02:40:47.037960,10.27,9.65,10.27,10.27,1025,88,2.55,18,96,0.0,Clouds,overcast clouds,2
Sátoraljaújhely,48.385833,21.657778,2026-03-05 02:40:48.218143,3.64,0.94,3.64,3.64,1025,87,2.91,11,99,0.0,Clouds,overcast clouds,2
Vecsés,47.40855,19.25652,2026-03-05 02:40:49.385311,8.4,7.36,8.33,9.91,1024,79,1.97,319,17,0.0,Clouds,few clouds,2
Vecsés-Kertekalja,47.403333,19.271389,2026-03-05 02:40:50.556408,8.43,7.39,8.37,9.95,1024,80,1.97,319,17,0.0,Clouds,few clouds,2
Üllő,47.390833,19.348889,2026-03-05 02:40:51.727189,8.37,7.31,8.33,9.9,1024,83,1.98,316,19,0.0,Clouds,few clouds,2
Monor,47.34545,19.43701,2026-03-05 02:40:52.904994,6.07,5.12,6.07,8.27,1024,87,1.54,250,0,0.0,Clear,clear sky,2
Pilis,47.279722,19.536389,2026-03-05 02:40:54.076820,8.23,6.94,6.03,8.23,1024,81,2.22,307,25,0.0,Clouds,scattered clouds,2
Albertirsa,47.240278,19.606389,2026-03-05 02:40:55.247778,3.49,1.23,3.49,3.49,1024,81,2.37,304,31,0.0,Clouds,scattered clouds,2
Ceglédbercel-Cserő,47.210278,19.686944,2026-03-05 02:40:56.420627,3.58,1.25,3.58,3.58,1024,82,2.47,302,37,0.0,Clouds,scattered clouds,2
Cegléd,47.182778,19.806111,2026-03-05 02:40:57.589882,6.01,3.99,4.07,6.01,1024,82,2.64,303,48,0.0,Clouds,scattered clouds,2
Abony,47.173056,20.016389,2026-03-05 02:40:58.770354,6.07,4.56,6.07,7.97,1024,81,2.06,280,0,0.0,Clear,clear sky,2
Szolnok,47.179167,20.175833,2026-03-05 02:40:59.938828,7.99,6.8,6.09,7.99,1024,76,2.06,280,0,0.0,Clear,clear sky,2
Szajol,47.170556,20.295278,2026-03-05 02:41:01.120114,8.01,6.82,6.1,8.01,1024,76,2.06,280,0,0.0,Clear,clear sky,2
Törökszentmiklós,47.170278,20.413611,2026-03-05 02:41:02.291959,8.0,6.81,6.1,8.0,1024,76,2.06,280,0,0.0,Clear,clear sky,2
Rákoscsaba-Újtelep,47.4875,19.271944,2026-03-05 02:41:03.467583,8.47,7.53,7.96,9.8,1024,79,1.87,323,10,0.0,Clear,clear sky,2
Rákoscsaba,47.492222,19.284722,2026-03-05 02:41:04.645335,8.23,7.24,8.07,9.8,1024,81,1.88,322,10,0.0,Clear,clear sky,2
Pécel,47.493889,19.338889,2026-03-05 02:41:05.808436,8.18,7.16,8.15,9.73,1024,83,1.9,321,10,0.0,Clear,clear sky,2
Isaszeg,47.537719,19.388955,2026-03-05 02:41:06.980302,8.01,6.87,7.86,8.45,1024,83,2.0,323,8,0.0,Clear,clear sky,2
Gödöllő,47.592222,19.358611,2026-03-05 02:41:08.157278,7.86,6.57,7.64,9.36,1024,83,2.15,325,6,0.0,Clear,clear sky,2
Máriabesnyő,47.595556,19.389722,2026-03-05 02:41:09.333331,7.96,6.68,7.78,8.37,1024,83,2.15,325,6,0.0,Clear,clear sky,2
Bag,47.641111,19.471667,2026-03-05 02:41:10.506197,8.29,6.79,6.08,8.29,1024,81,2.51,326,5,0.0,Clear,clear sky,2
Aszód,47.647467,19.492882,2026-03-05 02:41:11.674752,8.36,6.82,6.16,8.36,1024,81,2.58,326,5,0.0,Clear,clear sky,2
Hévízgyörk,47.638611,19.526667,2026-03-05 02:41:12.852783,8.37,6.78,8.37,8.37,1024,82,2.66,326,5,0.0,Clear,clear sky,2
Galgahévíz,47.6325,19.558333,2026-03-05 02:41:14.024143,8.36,6.7,8.36,8.36,1024,82,2.75,325,7,0.0,Clear,clear sky,2
Tura,47.626389,19.5975,2026-03-05 02:41:15.196211,8.39,6.69,8.39,8.39,1024,82,2.82,326,7,0.0,Clear,clear sky,2
Hatvan,47.663611,19.671389,2026-03-05 02:41:16.374637,3.9,1.28,3.9,3.9,1024,82,2.88,333,5,0.0,Clear,clear sky,2
Vámosgyörk,47.686111,19.927778,2026-03-05 02:41:17.545401,4.16,2.19,4.16,4.16,1024,82,2.19,348,4,0.0,Clear,clear sky,2
Adács,47.696389,19.975278,2026-03-05 02:41:18.715842,4.34,2.7,4.34,4.34,1024,82,1.91,360,5,0.0,Clear,clear sky,2
Karácsond,47.718056,20.048611,2026-03-05 02:41:19.887530,4.32,2.79,4.32,4.32,1024,83,1.81,7,6,0.0,Clear,clear sky,2
Ludas,47.723889,20.095556,2026-03-05 02:41:21.056723,4.61,3.16,4.61,4.61,1024,83,1.78,15,7,0.0,Clear,clear sky,2
Nagyút,47.72666666666667,20.161388888888887,2026-03-05 02:41:22.224385,4.63,3.14,4.63,4.63,1024,83,1.81,17,7,0.0,Clear,clear sky,2
Kál-Kápolna,47.734167,20.254167,2026-03-05 02:41:23.395674,4.81,3.23,4.81,4.81,1024,84,1.92,24,8,0.0,Clear,clear sky,2
Füzesabony,47.751389,20.415278,2026-03-05 02:41:24.580050,5.11,3.46,5.11,5.11,1024,84,2.04,40,7,0.0,Clear,clear sky,2
Szihalom,47.766944,20.491944,2026-03-05 02:41:25.749887,5.2,3.46,5.2,5.2,1024,84,2.14,46,6,0.0,Clear,clear sky,2
Mezőkövesd,47.797222,20.5675,2026-03-05 02:41:26.920457,5.39,3.55,5.39,5.39,1024,85,2.29,45,5,0.0,Clear,clear sky,2
Mezőkövesd felső,47.807222,20.591389,2026-03-05 02:41:28.091260,7.5,6.03,7.5,9.14,1024,85,2.29,45,5,0.0,Clear,clear sky,2
Mezőkeresztes-Mezőnyárád,47.845556,20.670278,2026-03-05 02:41:29.265493,9.14,7.88,9.14,9.52,1024,87,2.39,30,6,0.0,Clear,clear sky,2
Csincse,47.890833,20.764167,2026-03-05 02:41:30.440197,9.54,8.37,9.16,9.54,1024,87,2.37,18,12,0.0,Clouds,few clouds,2
Emőd,47.930556,20.822778,2026-03-05 02:41:31.627490,9.56,8.4,9.18,9.56,1024,88,2.36,6,19,0.0,Clouds,few clouds,2
Nyékládháza,47.9925,20.840556,2026-03-05 02:41:32.801831,9.59,8.51,9.21,9.59,1024,89,2.26,357,31,0.0,Clouds,scattered clouds,2
Miskolc-Tiszai,48.098611,20.811389,2026-03-05 02:41:33.974878,9.51,8.33,9.13,9.51,1024,90,2.37,348,54,0.0,Clouds,broken clouds,2
Felsőzsolca,48.083611,20.866111,2026-03-05 02:41:35.145601,9.54,8.66,9.15,9.54,1024,89,2.0,353,59,0.0,Clouds,broken clouds,2
Hernádnémeti-Bőcs,48.051389,20.985,2026-03-05 02:41:36.320929,9.54,9.54,7.51,9.54,1024,88,1.1,35,61,0.0,Clouds,broken clouds,2
Tiszalúc,48.039722,21.0575,2026-03-05 02:41:37.498043,9.68,9.68,7.56,10.37,1024,87,1.24,75,55,0.0,Clouds,broken clouds,2
Taktaharkány,48.091667,21.128611,2026-03-05 02:41:38.670208,10.42,9.19,9.63,10.42,1024,64,1.29,77,65,0.0,Clouds,broken clouds,2
Taktaszada,48.1125,21.149444,2026-03-05 02:41:39.852494,10.43,9.2,9.64,10.43,1024,64,1.37,79,70,0.0,Clouds,broken clouds,2
Szerencs,48.155556,21.214444,2026-03-05 02:41:41.024548,10.42,9.19,10.42,10.42,1024,64,1.54,75,80,0.0,Clouds,broken clouds,2
Mezőzombor,48.156944,21.267778,2026-03-05 02:41:42.197833,10.42,9.19,10.42,10.42,1024,64,1.61,72,81,0.0,Clouds,broken clouds,2
Tarcal,48.125,21.34,2026-03-05 02:41:43.367377,10.44,9.21,10.44,10.44,1024,64,1.86,64,73,0.0,Clouds,broken clouds,2
Tokaj,48.112778,21.406667,2026-03-05 02:41:44.543628,10.4,9.17,10.4,10.4,1024,64,2.24,47,80,0.0,Clouds,broken clouds,2
Rakamaz,48.12,21.475,2026-03-05 02:41:45.714263,10.4,9.17,10.4,10.4,1024,64,2.39,42,83,0.0,Clouds,broken clouds,2
Görögszállás,48.04,21.555,2026-03-05 02:41:46.886826,10.36,9.12,10.36,10.36,1024,64,2.72,38,74,0.0,Clouds,broken clouds,2
Nyírtelek,48.005,21.615556,2026-03-05 02:41:48.055983,10.4,9.82,10.4,10.4,1024,89,2.97,30,80,0.0,Clouds,broken clouds,2
Rákoshegy,47.468611,19.245556,2026-03-05 02:41:49.225634,8.24,7.24,7.91,8.62,1024,79,1.89,322,12,0.0,Clouds,few clouds,2
Ecser,47.439444,19.318056,2026-03-05 02:41:50.395337,8.23,7.21,8.07,9.8,1024,83,1.91,319,14,0.0,Clouds,few clouds,2
Maglód,47.438889,19.340833,2026-03-05 02:41:51.567642,8.17,7.14,8.01,9.74,1024,83,1.91,319,14,0.0,Clouds,few clouds,2
Maglódi nyaraló,47.434167,19.363611,2026-03-05 02:41:52.745393,8.07,7.04,7.91,9.64,1024,83,1.9,317,14,0.0,Clouds,few clouds,2
Gyömrő,47.429722,19.393333,2026-03-05 02:41:53.921517,8.02,6.98,7.88,8.47,1024,83,1.9,317,14,0.0,Clouds,few clouds,2
Mende,47.426944,19.439722,2026-03-05 02:41:55.093866,7.07,6.26,5.79,7.99,1024,85,1.54,250,0,0.0,Clear,clear sky,2
Szőlősnyaraló,47.450278,19.561111,2026-03-05 02:41:56.265618,8.22,6.88,6.02,8.22,1024,83,2.29,310,14,0.0,Clouds,few clouds,2
Sülysáp,47.451944,19.5275,2026-03-05 02:41:57.446476,8.2,7.0,6.0,8.2,1024,83,2.11,311,13,0.0,Clouds,few clouds,2
Tápiószecső,47.443056,19.614722,2026-03-05 02:41:58.617230,8.31,6.9,6.1,8.31,1024,81,2.39,310,14,0.0,Clouds,few clouds,2
Szentmártonkáta,47.431944,19.680556,2026-03-05 02:41:59.786888,8.33,6.78,8.33,8.33,1024,81,2.59,310,15,0.0,Clouds,few clouds,2
Nagykáta,47.409722,19.737778,2026-03-05 02:42:00.958501,3.46,0.97,3.46,3.46,1024,81,2.62,310,17,0.0,Clouds,few clouds,2
Farmos,47.355278,19.8375,2026-03-05 02:42:02.127549,3.32,0.69,3.32,3.32,1024,82,2.75,310,26,0.0,Clouds,scattered clouds,2
Tápiószele,47.346313,19.873504,2026-03-05 02:42:03.301852,3.23,0.61,3.23,3.23,1024,82,2.72,309,32,0.0,Clouds,scattered clouds,2
Tápiógyörgye,47.325,19.95,2026-03-05 02:42:04.480221,6.06,3.92,6.06,6.06,1024,82,2.8,312,40,0.0,Clouds,scattered clouds,2
Újszász,47.285833,20.066944,2026-03-05 02:42:05.651160,6.1,4.02,6.1,8.01,1024,81,2.73,315,55,0.0,Clouds,broken clouds,2
Szurdokpüspöki,47.851944,19.690278,2026-03-05 02:42:06.830420,3.95,2.06,3.95,3.95,1024,83,2.08,349,14,0.0,Clouds,few clouds,2
Lőrinci,47.739444,19.673611,2026-03-05 02:42:08.007728,3.9,1.36,3.9,3.9,1024,82,2.78,338,5,0.0,Clear,clear sky,2
Selyp,47.759167,19.670833,2026-03-05 02:42:09.180878,3.91,1.44,3.91,3.91,1024,82,2.69,340,6,0.0,Clear,clear sky,2
Apc-Zagyvaszántó,47.791328,19.66822,2026-03-05 02:42:10.361167,3.95,1.59,3.95,3.95,1024,83,2.58,343,8,0.0,Clear,clear sky,2
Pásztó,47.918889,19.688889,2026-03-05 02:42:11.537106,3.84,2.4,3.84,3.84,1024,84,1.67,354,19,0.0,Clouds,few clouds,2
Mátraszőlős-Hasznos,47.938506,19.706122,2026-03-05 02:42:12.709216,3.91,2.75,3.91,3.91,1025,84,1.47,360,21,0.0,Clouds,few clouds,2
Tar,47.956111,19.746389,2026-03-05 02:42:13.879595,3.55,3.55,3.55,3.55,1025,84,1.28,2,24,0.0,Clouds,few clouds,2
Mátraverebély,47.968333,19.778611,2026-03-05 02:42:15.052486,3.44,3.44,3.44,3.44,1025,84,1.28,2,24,0.0,Clouds,few clouds,2
Nagybátony,47.981111,19.82,2026-03-05 02:42:16.223592,3.65,3.65,3.65,3.65,1024,85,1.09,2,26,0.0,Clouds,scattered clouds,2
Kisterenye,48.009444,19.831944,2026-03-05 02:42:17.393285,3.64,3.64,3.64,3.64,1024,85,0.92,357,27,0.0,Clouds,scattered clouds,2
Kisterenye-Bányatelep,48.021389,19.831944,2026-03-05 02:42:18.564095,3.64,3.64,3.64,3.64,1024,85,0.92,357,27,0.0,Clouds,scattered clouds,2
Salgótarján külső,48.089444,19.790833,2026-03-05 02:42:19.736692,3.37,3.37,3.37,3.37,1025,85,0.33,20,31,0.0,Clouds,scattered clouds,2
Balatonfenyves GV,46.7125,17.479167,2026-03-05 02:42:20.908564,3.08,0.5,3.08,3.08,1026,92,2.64,326,0,0.0,Clear,clear sky,2
Várhegyalja,47.737778,18.366667,2026-03-05 02:42:22.079601,3.4,2.01,3.4,3.4,1025,87,1.58,275,7,0.0,Clear,clear sky,2
Imremajor,46.680556,17.499722,2026-03-05 02:42:23.282981,3.11,0.55,3.11,3.11,1026,92,2.62,326,0,0.0,Clear,clear sky,2
Rákospalota-Kertváros,47.578333,19.122778,2026-03-05 02:42:24.450820,8.74,6.67,8.16,8.86,1024,79,3.58,236,5,0.0,Clear,clear sky,2
Vicziántelep,47.675833,19.286111,2026-03-05 02:42:25.619862,8.15,6.87,7.74,9.47,1024,81,2.2,327,5,0.0,Clear,clear sky,2
Pálmajor,46.662831,17.457526,2026-03-05 02:42:26.790405,3.1,0.49,3.1,3.1,1026,92,2.68,327,0,0.0,Clear,clear sky,2
Somogyszentpál felső,46.649758,17.471404,2026-03-05 02:42:27.960064,3.07,0.52,3.07,3.07,1026,92,2.6,326,0,0.0,Clear,clear sky,2
Somogyszentpál,46.638611,17.478611,2026-03-05 02:42:29.142963,3.06,0.51,3.06,3.06,1026,92,2.6,326,0,0.0,Clear,clear sky,2
Rudnaykert,47.7175,19.257778,2026-03-05 02:42:30.315081,8.64,7.49,8.08,8.68,1024,81,2.14,325,6,0.0,Clear,clear sky,2
Maroshegy,47.158333,18.406667,2026-03-05 02:42:31.488078,3.52,0.94,3.52,3.52,1025,86,2.74,329,8,0.0,Clear,clear sky,2
Bánhida,47.573703,18.371737,2026-03-05 02:42:32.659761,3.16,1.33,3.16,3.16,1025,87,1.91,292,5,0.0,Clear,clear sky,2
Magyarkút,47.850278,19.045,2026-03-05 02:42:33.844143,2.85,1.32,2.85,2.85,1025,83,1.63,292,5,0.0,Clear,clear sky,2
Becske alsó,47.897222,19.364722,2026-03-05 02:42:35.017608,2.73,1.2,2.73,2.73,1025,83,1.61,325,10,0.0,Clear,clear sky,2
Hosszúberek-Péteri,47.370556,19.389722,2026-03-05 02:42:36.189825,8.31,7.21,8.15,8.61,1024,83,2.02,314,22,0.0,Clouds,few clouds,2
Monorierdő,47.308889,19.499167,2026-03-05 02:42:37.365171,8.76,7.62,6.01,8.76,1024,81,2.15,308,23,0.0,Clouds,few clouds,2
Ceglédbercel,47.215833,19.658611,2026-03-05 02:42:39.511865,3.54,1.22,3.54,3.54,1024,82,2.45,302,35,0.0,Clouds,scattered clouds,2
Budai út,47.208333,19.731389,2026-03-05 02:42:40.681346,3.48,1.11,3.48,3.48,1024,82,2.49,302,38,0.0,Clouds,scattered clouds,2
Büdöskútpuszta,48.373056,20.726111,2026-03-05 02:42:41.850808,4.81,4.81,4.81,4.81,1024,89,0.69,24,76,0.0,Clouds,broken clouds,2
Bánrévei Vízmű,48.282778,20.368333,2026-03-05 02:42:43.020287,5.07,5.07,3.92,8.91,1024,88,0.46,100,69,0.0,Clouds,broken clouds,2
Rákoskert,47.456389,19.296111,2026-03-05 02:42:44.188955,8.6,7.66,7.94,9.67,1024,81,1.89,321,12,0.0,Clouds,few clouds,2
Szirmabesenyő,48.146944,20.783056,2026-03-05 02:42:45.360152,9.44,8.43,9.06,9.44,1024,91,2.14,349,66,0.0,Clouds,broken clouds,2
Kitérőgyár,47.766944,19.935278,2026-03-05 02:42:46.532049,4.06,2.37,4.06,4.06,1024,83,1.91,3,9,0.0,Clear,clear sky,2
Tápiószentmárton,47.373333,19.797778,2026-03-05 02:42:47.705277,3.24,0.64,3.24,3.24,1024,82,2.7,309,24,0.0,Clouds,few clouds,2
Zagyvarékas,47.244229,20.097435,2026-03-05 02:42:48.876717,6.11,4.6,6.11,8.01,1024,81,2.06,280,0,0.0,Clear,clear sky,2
Abonyi út,47.206401,20.125204,2026-03-05 02:42:50.050928,6.11,4.6,6.11,8.01,1024,81,2.06,280,0,0.0,Clear,clear sky,2
Jászkisér felső,47.438056,20.202222,2026-03-05 02:42:51.222357,5.56,3.33,5.56,5.56,1024,83,2.79,323,34,0.0,Clouds,scattered clouds,2
Szellőhát,47.425556,20.188889,2026-03-05 02:42:52.392841,4.17,1.65,4.17,4.17,1024,83,2.82,322,38,0.0,Clouds,scattered clouds,2
Szilvásvárad-Szalajkavölgy,48.0956,20.38272,2026-03-05 02:42:53.562743,7.26,7.26,3.4,7.47,1024,97,1.24,43,40,0.0,Clouds,scattered clouds,2
Vásárosnamény külső,48.084444,22.255556,2026-03-05 02:42:54.739896,3.96,1.4,3.96,3.96,1024,86,2.82,356,100,0.0,Clouds,overcast clouds,2
Újváros,46.660556,20.536111,2026-03-05 02:42:55.911495,7.77,7.77,7.77,7.77,1024,79,1.18,311,97,0.0,Clouds,overcast clouds,2
Városi park,46.697778,19.864722,2026-03-05 02:42:57.080500,7.21,5.46,5.7,7.21,1024,83,2.58,291,100,0.0,Clouds,overcast clouds,2
Belsőkamaráspuszta,46.341944,20.848889,2026-03-05 02:42:58.254446,10.03,9.26,10.03,10.03,1024,83,1.01,323,74,0.0,Clouds,broken clouds,2
Sajószöged,47.945278,20.981667,2026-03-05 02:42:59.429980,9.63,9.34,7.61,9.63,1024,87,1.4,47,33,0.0,Clouds,scattered clouds,2
Kazincbarcika alsó,48.255278,20.649167,2026-03-05 02:43:00.601261,8.75,8.75,7.38,9.4,1024,91,0.83,12,75,0.0,Clouds,broken clouds,2
Nyárjas,46.857778,19.923611,2026-03-05 02:43:01.776849,7.17,5.19,5.66,7.17,1024,83,2.88,291,89,0.0,Clouds,overcast clouds,2
Pogonyipuszta,48.296389,20.381667,2026-03-05 02:43:02.950066,8.87,8.87,8.87,8.87,1024,88,0.46,100,69,0.0,Clouds,broken clouds,2
Sióvölgy,46.911103,18.076964,2026-03-05 02:43:04.120800,7.75,6.6,7.75,7.75,1025,63,1.97,330,2,0.0,Clear,clear sky,2
Répáspuszta,46.430278,17.847222,2026-03-05 02:43:05.306597,3.29,0.66,3.29,3.29,1026,89,2.75,333,3,0.0,Clear,clear sky,2
Virányos,48.066667,21.527222,2026-03-05 02:43:06.475932,10.39,9.16,10.39,10.39,1024,64,2.7,37,79,0.0,Clouds,broken clouds,2
Füzesbokor,47.988611,21.6475,2026-03-05 02:43:07.650303,10.39,9.81,10.39,10.39,1024,89,3.02,27,79,0.0,Clouds,broken clouds,2
Kunfehértó,46.355833,19.417222,2026-03-05 02:43:08.836668,4.16,2.22,4.16,4.16,1024,82,2.16,306,100,0.0,Clouds,overcast clouds,2
Erdőszél,46.329444,19.395,2026-03-05 02:43:10.020657,4.05,2.1,4.05,4.05,1025,82,2.16,308,100,0.0,Clouds,overcast clouds,2
Jánoshalma,46.293056,19.330278,2026-03-05 02:43:11.192489,4.2,2.35,4.2,4.2,1025,82,2.08,312,100,0.0,Clouds,overcast clouds,2
Mélykút,46.213056,19.370556,2026-03-05 02:43:12.367703,4.27,2.64,4.27,4.27,1025,82,1.89,313,91,0.0,Clouds,overcast clouds,2
Bácsalmás,46.118056,19.346389,2026-03-05 02:43:13.538179,4.33,2.75,4.33,4.33,1025,82,1.85,315,72,0.0,Clouds,broken clouds,2
Almás,46.116216,19.328803,2026-03-05 02:43:14.710173,4.33,2.75,4.33,4.33,1025,82,1.85,315,72,0.0,Clouds,broken clouds,2
Bácsbokod-Bácsborsód,46.115833,19.16,2026-03-05 02:43:15.877102,4.3,2.34,4.3,4.3,1025,83,2.21,326,77,0.0,Clouds,broken clouds,2
Baja,46.187014,18.957602,2026-03-05 02:43:17.047983,4.41,2.25,4.41,4.41,1025,83,2.44,327,82,0.3,Rain,light rain,2
Harkakötöny,46.458333,19.601944,2026-03-05 02:43:18.218034,4.27,2.22,4.27,4.27,1024,83,2.3,305,98,0.0,Clouds,overcast clouds,2
Tajó,46.473056,19.650556,2026-03-05 02:43:19.395403,4.3,2.31,4.3,4.3,1024,83,2.24,306,98,0.0,Clouds,overcast clouds,2
Kiskunmajsa,46.501667,19.728056,2026-03-05 02:43:20.564222,7.16,5.7,7.16,7.16,1024,83,2.21,308,98,0.0,Clouds,overcast clouds,2
Jászszentlászló,46.565833,19.753611,2026-03-05 02:43:21.733968,7.18,5.6,7.18,7.18,1024,83,2.35,303,100,0.0,Clouds,overcast clouds,2
Galambos,46.625,19.801111,2026-03-05 02:43:22.905280,7.21,5.56,7.21,7.21,1024,83,2.45,298,100,0.0,Clouds,overcast clouds,2
Pestszentimre,47.402222,19.188611,2026-03-05 02:43:24.090932,8.81,7.7,8.12,9.96,1024,77,2.13,317,20,0.0,Clouds,few clouds,2
Gyál felső,47.390278,19.204722,2026-03-05 02:43:25.260657,8.74,7.64,8.24,9.97,1024,78,2.1,318,20,0.0,Clouds,few clouds,2
Gyál,47.376667,19.219444,2026-03-05 02:43:26.428601,8.79,7.7,8.27,9.99,1024,78,2.1,318,20,0.0,Clouds,few clouds,2
Ócsa,47.301389,19.232222,2026-03-05 02:43:27.599491,8.81,7.49,8.28,10.0,1024,83,2.39,315,32,0.0,Clouds,scattered clouds,2
Inárcs-Kakucs,47.247222,19.317778,2026-03-05 02:43:28.774673,6.23,4.48,6.23,8.98,1024,81,2.35,312,38,0.0,Clouds,scattered clouds,2
Dabas,47.194722,19.328889,2026-03-05 02:43:29.943988,6.24,4.43,6.24,6.24,1024,81,2.42,310,44,0.0,Clouds,scattered clouds,2
Gyón,47.178333,19.355556,2026-03-05 02:43:31.119756,6.21,4.35,6.21,6.21,1024,81,2.48,309,48,0.0,Clouds,scattered clouds,2
Hernád,47.161389,19.4025,2026-03-05 02:43:32.294445,3.66,1.31,3.66,3.66,1024,82,2.5,306,49,0.0,Clouds,scattered clouds,2
Bakonygyirót,47.416389,17.811944,2026-03-05 02:43:33.467266,1.59,0.29,1.59,1.71,1026,93,1.35,277,5,0.0,Clear,clear sky,2
Vinye,47.360317,17.819635,2026-03-05 02:43:34.643964,1.03,-0.66,0.91,1.03,1026,93,1.55,289,5,0.0,Clear,clear sky,2
Nemesgörzsöny,47.402924,17.376385,2026-03-05 02:43:35.820201,2.16,2.16,2.16,2.16,1026,100,0.51,180,3,0.0,Fog,fog,2
Rábahíd,47.438618,17.337525,2026-03-05 02:43:36.993793,2.15,2.15,2.15,2.15,1026,100,0.51,180,4,0.0,Fog,fog,2
Öskü,47.162222,18.076389,2026-03-05 02:43:38.168054,2.94,0.17,2.94,2.94,1025,89,2.83,325,3,0.0,Clear,clear sky,2
Márkó,47.1275,17.813889,2026-03-05 02:43:39.340985,6.53,4.88,6.53,6.53,1026,92,2.3,322,2,0.0,Clear,clear sky,2
Nemeskocs,47.203333,17.188889,2026-03-05 02:43:40.515142,2.11,-0.2,2.11,2.11,1026,89,2.18,334,2,0.0,Clear,clear sky,2
Zalagyömörő,47.011111,17.220833,2026-03-05 02:43:41.691424,3.11,0.86,3.11,3.11,1026,91,2.29,342,1,0.0,Clear,clear sky,2
Rigács,47.061667,17.199167,2026-03-05 02:43:42.866924,3.05,0.85,3.05,3.05,1026,90,2.23,342,1,0.0,Clear,clear sky,2
Kemenespálfa,47.139722,17.183056,2026-03-05 02:43:44.040847,3.09,1.0,3.09,3.09,1026,89,2.13,339,1,0.0,Clear,clear sky,2
Lentiszombathely,46.611389,16.5725,2026-03-05 02:43:45.211809,2.91,1.56,2.91,2.91,1026,85,1.5,333,0,0.0,Clear,clear sky,2
Ortaháza,46.626667,16.685833,2026-03-05 02:43:46.390303,2.79,1.57,2.79,2.79,1026,87,1.4,341,0,0.0,Clear,clear sky,2
Rádiháza,46.654722,16.765833,2026-03-05 02:43:47.563663,2.79,1.5,2.79,2.79,1026,88,1.45,342,0,0.0,Clear,clear sky,2
Baktüttös,46.690833,16.826389,2026-03-05 02:43:48.735598,2.6,0.92,2.6,2.6,1026,89,1.71,338,0,0.0,Clear,clear sky,2
Budafa,46.851667,16.624722,2026-03-05 02:43:49.908304,2.77,1.4,2.77,2.77,1026,87,1.5,329,0,0.0,Clear,clear sky,2
Zalapatakalja,46.845556,16.603889,2026-03-05 02:43:51.088580,2.75,1.38,2.75,2.75,1026,86,1.5,326,0,0.0,Clear,clear sky,2
Tormásliget,47.430556,16.781667,2026-03-05 02:43:52.258113,2.88,0.24,2.88,2.88,1026,78,2.67,321,2,0.0,Clear,clear sky,2
Belecska,46.64,18.411389,2026-03-05 02:43:53.434043,3.81,1.6,3.81,3.81,1025,84,2.38,338,31,0.0,Clouds,scattered clouds,2
Almár,47.956111,20.356944,2026-03-05 02:43:54.610875,8.68,7.65,7.04,8.68,1024,97,2.0,32,11,0.0,Clouds,few clouds,2
Vasútmúzeum,47.543889,19.099444,2026-03-05 02:43:55.791990,8.89,8.09,8.16,10.0,1024,76,1.79,260,6,0.0,Clear,clear sky,2
Abda,47.690833,17.540556,2026-03-05 02:43:56.966512,2.09,-0.61,2.09,2.09,1026,91,2.57,328,8,0.0,Clear,clear sky,2
Vadaspark,47.526111,18.949167,2026-03-05 02:43:58.138137,7.11,6.03,6.36,8.2,1024,77,1.79,305,5,0.0,Clear,clear sky,2
Barosstelep,47.398889,18.989167,2026-03-05 02:43:59.312268,8.95,8.63,8.22,10.06,1024,74,1.34,285,13,0.0,Clouds,few clouds,2
Fegyvernek-Örményes,47.194444,20.5575,2026-03-05 02:44:00.483039,8.02,6.97,8.02,8.02,1024,82,1.91,324,84,0.0,Clouds,broken clouds,2
Zagyvapálfalva,48.068889,19.785,2026-03-05 02:44:01.659688,3.36,3.36,3.36,3.36,1025,85,0.5,10,30,0.0,Clouds,scattered clouds,2
Salgótarján,48.105556,19.807222,2026-03-05 02:44:02.829612,3.23,3.23,3.23,3.23,1025,86,0.19,47,32,0.0,Clouds,scattered clouds,2
Szabadisóstó,46.933889,18.118056,2026-03-05 02:44:03.996280,7.73,6.48,7.73,7.73,1025,63,2.08,334,3,0.0,Clear,clear sky,2
Siófok,46.907778,18.053889,2026-03-05 02:44:05.165736,7.73,6.58,7.73,7.73,1025,63,1.97,330,2,0.0,Clear,clear sky,2
Balatonszéplak felső,46.898056,18.018056,2026-03-05 02:44:06.335682,7.73,6.64,7.73,7.73,1025,63,1.9,328,2,0.0,Clear,clear sky,2
Balatonszéplak alsó,46.891944,17.993333,2026-03-05 02:44:07.513596,7.73,7.73,7.73,7.73,1025,63,0.89,270,2,0.0,Clear,clear sky,2
Zamárdi felső,46.886111,17.969444,2026-03-05 02:44:08.693876,7.74,7.74,7.74,7.74,1025,63,0.89,270,1,0.0,Clear,clear sky,2
Zamárdi,46.88,17.944722,2026-03-05 02:44:09.863325,7.68,7.68,7.68,7.68,1025,63,0.89,270,1,0.0,Clear,clear sky,2
Szántód,46.861944,17.899167,2026-03-05 02:44:11.030293,7.75,7.75,7.75,7.75,1026,63,0.89,270,1,0.0,Clear,clear sky,2
Szőny-Déli,47.735278,18.141944,2026-03-05 02:44:12.202976,2.12,0.46,2.12,5.06,1025,90,1.64,293,9,0.0,Clear,clear sky,2
Várpalota,47.194444,18.149167,2026-03-05 02:44:13.375910,2.75,-0.25,2.75,2.75,1025,89,3.07,326,4,0.0,Clear,clear sky,2
Pétfürdő,47.1675,18.121389,2026-03-05 02:44:14.546734,3.15,0.29,3.15,3.15,1025,89,2.99,326,4,0.0,Clear,clear sky,2
Hajmáskér,47.141111,18.009444,2026-03-05 02:44:15.721428,7.33,5.45,7.33,7.33,1025,89,2.78,324,4,0.0,Clear,clear sky,2
Veszprém,47.118889,17.91,2026-03-05 02:44:16.895879,7.12,5.41,7.12,7.12,1026,90,2.5,321,3,0.0,Clear,clear sky,2
Herend,47.136944,17.760278,2026-03-05 02:44:18.072425,6.31,4.69,6.31,6.31,1026,92,2.22,322,1,0.0,Clear,clear sky,2
Városlőd,47.144167,17.652778,2026-03-05 02:44:19.243864,0.98,-1.11,0.98,0.98,1026,93,1.84,329,2,0.0,Clear,clear sky,2
Városlőd-Kislőd,47.133889,17.631111,2026-03-05 02:44:20.424476,1.09,-1.19,1.09,1.09,1026,93,2.0,330,1,0.0,Clear,clear sky,2
Ajka,47.105902,17.572938,2026-03-05 02:44:21.595309,1.39,-0.95,1.39,1.39,1026,93,2.1,337,1,0.0,Clear,clear sky,2
Ajka-Gyártelep,47.096806,17.555219,2026-03-05 02:44:22.765116,1.44,-0.89,1.44,1.44,1026,93,2.1,337,1,0.0,Clear,clear sky,2
Devecser,47.1125,17.435278,2026-03-05 02:44:23.933412,1.84,-0.45,1.84,1.84,1026,92,2.12,343,2,0.0,Clear,clear sky,2
Somlóvásárhely,47.124444,17.369167,2026-03-05 02:44:25.101665,1.95,-0.2,1.95,1.95,1026,92,2.01,345,2,0.0,Clear,clear sky,2
Tüskevár,47.128611,17.331389,2026-03-05 02:44:26.275868,1.99,-0.17,1.99,1.99,1026,91,2.03,344,2,0.0,Clear,clear sky,2
Karakószörcsök,47.133611,17.287778,2026-03-05 02:44:27.449681,3.06,1.06,3.06,3.06,1026,91,2.04,344,2,0.0,Clear,clear sky,2
Kerta,47.151944,17.237222,2026-03-05 02:44:28.621793,3.13,1.08,3.13,3.13,1026,90,2.1,339,1,0.0,Clear,clear sky,2
Boba,47.183333,17.191389,2026-03-05 02:44:29.793198,3.08,0.97,3.08,3.08,1026,89,2.15,336,2,0.0,Clear,clear sky,2
Börgönd,47.140278,18.515,2026-03-05 02:44:30.963868,3.52,0.96,3.52,3.52,1025,85,2.71,326,14,0.0,Clouds,few clouds,2
Belsőbáránd,47.102778,18.499722,2026-03-05 02:44:32.133447,3.44,0.81,3.44,3.44,1025,85,2.78,328,15,0.0,Clouds,few clouds,2
Zichyújfalu,47.124444,18.6725,2026-03-05 02:44:33.308253,3.59,1.05,3.59,3.59,1025,83,2.71,320,19,0.0,Clouds,few clouds,2
Seregélyes,47.121111,18.580556,2026-03-05 02:44:34.498428,3.68,1.16,3.68,3.68,1025,85,2.7,324,15,0.0,Clouds,few clouds,2
Polgárdi-Ipartelepek,47.079167,18.314444,2026-03-05 02:44:35.668679,3.02,0.43,3.02,3.02,1025,87,2.64,335,6,0.0,Clear,clear sky,2
Polgárdi,47.07,18.284167,2026-03-05 02:44:36.841519,3.02,0.43,3.02,3.02,1025,87,2.64,335,6,0.0,Clear,clear sky,2
Füle,47.05,18.255278,2026-03-05 02:44:38.011744,2.93,0.42,2.93,2.93,1025,87,2.53,336,5,0.0,Clear,clear sky,2
Zánka-Erzsébettábor,46.8775,17.709167,2026-03-05 02:44:39.187879,7.68,6.45,7.68,7.68,1026,63,2.04,320,0,0.0,Clear,clear sky,2
Csajág,47.033889,18.186389,2026-03-05 02:44:40.365578,7.57,6.09,7.57,7.57,1025,87,2.32,335,3,0.0,Clear,clear sky,2
Balatonakarattya,47.017222,18.167778,2026-03-05 02:44:41.541092,7.42,5.91,7.42,7.42,1025,87,2.32,335,3,0.0,Clear,clear sky,2
Csittényhegy,47.025278,18.1375,2026-03-05 02:44:42.712317,7.64,6.19,7.64,7.64,1025,87,2.29,334,3,0.0,Clear,clear sky,2
Balatonkenese,47.0325,18.105556,2026-03-05 02:44:43.887418,7.72,6.31,7.72,7.72,1025,87,2.26,332,3,0.0,Clear,clear sky,2
Balatonfűzfő,47.060278,18.0425,2026-03-05 02:44:45.058238,7.75,6.26,7.75,7.75,1025,63,2.37,327,3,0.0,Clear,clear sky,2
Balatonalmádi,47.028333,18.015,2026-03-05 02:44:46.227899,7.72,6.32,7.72,7.72,1025,63,2.25,327,2,0.0,Clear,clear sky,2
Káptalanfüred,47.008889,18.003889,2026-03-05 02:44:47.459485,7.75,6.43,7.75,7.75,1025,63,2.16,326,2,0.0,Clear,clear sky,2
Alsóörs,46.985278,17.974722,2026-03-05 02:44:48.629436,7.76,7.76,7.76,7.76,1025,63,0.89,270,2,0.0,Clear,clear sky,2
Csopak,46.974722,17.931111,2026-03-05 02:44:49.796984,7.63,7.63,7.63,7.63,1026,63,0.89,270,1,0.0,Clear,clear sky,2
Balatonarács,46.9625,17.8975,2026-03-05 02:44:50.980853,7.53,7.53,7.53,7.53,1026,63,0.89,270,1,0.0,Clear,clear sky,2
Balatonfüred,46.955833,17.883056,2026-03-05 02:44:52.154984,7.6,7.6,7.6,7.6,1026,63,0.89,270,0,0.0,Clear,clear sky,2
Aszófő,46.925556,17.8325,2026-03-05 02:44:53.327895,7.7,7.7,7.7,7.7,1026,63,0.89,270,0,0.0,Clear,clear sky,2
Örvényes,46.9125,17.818056,2026-03-05 02:44:54.501329,7.72,7.72,7.72,7.72,1026,63,0.89,270,0,0.0,Clear,clear sky,2
Balatonudvari,46.904722,17.808056,2026-03-05 02:44:55.673327,7.75,7.75,7.75,7.75,1026,63,0.89,270,0,0.0,Clear,clear sky,2
Fövenyes,46.893611,17.789444,2026-03-05 02:44:56.847781,7.77,7.77,7.77,7.77,1026,63,0.89,270,0,0.0,Clear,clear sky,2
Balatonakali-Dörgicse,46.88,17.747778,2026-03-05 02:44:58.028946,7.76,6.62,7.76,7.76,1026,63,1.96,319,0,0.0,Clear,clear sky,2
Zánka-Köveskál,46.872778,17.687778,2026-03-05 02:44:59.203836,7.75,6.45,7.75,7.75,1026,63,2.14,322,0,0.0,Clear,clear sky,2
Balatonszepezd,46.851111,17.663056,2026-03-05 02:45:00.376429,7.75,6.52,7.75,7.75,1026,63,2.06,321,0,0.0,Clear,clear sky,2
Szepezdfürdő,46.839722,17.649444,2026-03-05 02:45:01.571231,7.72,6.38,7.72,7.72,1026,90,2.18,322,0,0.0,Clear,clear sky,2
Révfülöp,46.829167,17.632222,2026-03-05 02:45:02.739120,7.73,6.39,7.73,7.73,1026,90,2.18,322,0,0.0,Clear,clear sky,2
Balatonrendes,46.824722,17.582778,2026-03-05 02:45:03.928175,7.73,6.11,7.73,7.73,1026,91,2.53,327,0,0.0,Clear,clear sky,2
Ábrahámhegy,46.815,17.572222,2026-03-05 02:45:05.104212,7.7,6.08,7.7,7.7,1026,91,2.53,327,0,0.0,Clear,clear sky,2
Badacsonyörs,46.805556,17.531667,2026-03-05 02:45:06.276325,3.39,0.87,3.39,3.39,1026,91,2.64,328,0,0.0,Clear,clear sky,2
Kisújszállás,47.223889,20.751111,2026-03-05 02:45:07.448254,4.4,2.87,4.4,4.4,1024,84,1.82,334,79,0.0,Clouds,broken clouds,2
Karcag,47.303333,20.928056,2026-03-05 02:45:08.620689,4.44,2.71,4.44,4.44,1024,84,2.01,344,61,0.0,Clouds,broken clouds,2
Püspökladány,47.3275,21.128889,2026-03-05 02:45:09.792258,4.38,2.76,4.38,4.38,1024,84,1.89,354,55,0.0,Clouds,broken clouds,2
Kaba,47.368889,21.259444,2026-03-05 02:45:10.966712,4.1,2.71,4.1,4.1,1024,85,1.66,357,56,0.0,Clouds,broken clouds,2
Hajdúszoboszló,47.429444,21.406944,2026-03-05 02:45:12.136863,4.09,4.09,4.09,4.09,1024,87,0.51,0,58,0.0,Clouds,broken clouds,2
Ebes,47.462778,21.488889,2026-03-05 02:45:13.308289,4.04,4.04,4.04,4.04,1024,87,0.51,0,59,0.0,Clouds,broken clouds,2
Debrecen,47.520278,21.628611,2026-03-05 02:45:14.475442,3.92,3.92,3.92,3.92,1024,87,0.51,0,47,0.0,Clouds,scattered clouds,2
Debrecen-Csapókert,47.540556,21.648056,2026-03-05 02:45:15.649673,3.87,3.87,3.87,3.87,1024,87,0.51,0,41,0.0,Clouds,scattered clouds,2
Apafa,47.584045,21.655858,2026-03-05 02:45:16.821213,3.83,3.83,3.83,3.83,1024,87,0.51,0,37,0.0,Clouds,scattered clouds,2
Bocskaikert,47.6425,21.666389,2026-03-05 02:45:17.992719,3.76,3.76,3.76,3.76,1024,87,0.51,0,30,0.0,Clouds,scattered clouds,2
Hajdúhadház,47.686944,21.679167,2026-03-05 02:45:19.159958,3.73,1.65,3.73,3.73,1024,85,2.23,355,35,0.0,Clouds,scattered clouds,2
Téglás,47.714722,21.684722,2026-03-05 02:45:20.329526,3.8,1.61,3.8,3.8,1024,85,2.36,359,37,0.0,Clouds,scattered clouds,2
Újfehértó,47.814444,21.706389,2026-03-05 02:45:21.499212,4.1,1.62,4.1,4.1,1024,86,2.75,10,50,0.0,Clouds,scattered clouds,2
Nyíregyháza,47.946667,21.705556,2026-03-05 02:45:22.669409,4.35,1.7,4.35,4.35,1024,88,3.03,23,74,0.0,Clouds,broken clouds,2
Sóstó,47.998051,21.729047,2026-03-05 02:45:23.854036,10.37,9.79,10.37,10.37,1024,89,3.08,21,89,0.0,Clouds,overcast clouds,2
Sóstóhegy,48.012222,21.742778,2026-03-05 02:45:25.023149,10.37,9.79,10.37,10.37,1024,89,3.05,21,90,0.0,Clouds,overcast clouds,2
Kemecse,48.065556,21.801667,2026-03-05 02:45:26.198931,4.43,1.81,4.43,4.43,1025,89,3.01,16,90,0.0,Clouds,overcast clouds,2
Nyírbogdány,48.082222,21.855278,2026-03-05 02:45:27.376748,4.37,1.76,4.37,4.37,1025,89,2.98,13,89,0.0,Clouds,overcast clouds,2
Kék,48.093333,21.883889,2026-03-05 02:45:28.552104,4.37,1.76,4.37,4.37,1025,89,2.98,9,86,0.0,Clouds,overcast clouds,2
Demecser,48.111667,21.926667,2026-03-05 02:45:29.739281,4.36,1.77,4.36,4.36,1025,89,2.96,5,86,0.0,Clouds,overcast clouds,2
Gégény,48.128333,21.951944,2026-03-05 02:45:30.908911,4.32,1.73,4.32,4.32,1025,89,2.94,2,86,0.0,Clouds,overcast clouds,2
Pátroha,48.158611,21.996667,2026-03-05 02:45:32.083174,4.32,1.75,4.32,4.32,1025,90,2.92,358,88,0.0,Clouds,overcast clouds,2
Ajak,48.1865,22.048972,2026-03-05 02:45:33.254196,4.29,1.73,4.29,4.29,1025,90,2.9,355,90,0.0,Clouds,overcast clouds,2
Kisvárda,48.208333,22.078333,2026-03-05 02:45:34.429027,4.27,1.77,4.27,4.27,1025,90,2.82,351,94,0.0,Clouds,overcast clouds,2
Kisvárda-Hármasút,48.228333,22.091944,2026-03-05 02:45:35.604430,4.27,1.77,4.27,4.27,1025,90,2.82,351,94,0.0,Clouds,overcast clouds,2
Fényeslitke,48.267222,22.107222,2026-03-05 02:45:36.778893,4.19,1.67,4.19,4.19,1025,90,2.82,347,94,0.0,Clouds,overcast clouds,2
Komoró,48.305278,22.118056,2026-03-05 02:45:37.951165,4.21,1.64,4.21,4.21,1025,90,2.89,345,94,0.0,Clouds,overcast clouds,2
Tuzsér,48.342222,22.131667,2026-03-05 02:45:39.124090,4.14,1.39,4.14,4.14,1025,90,3.11,342,93,0.0,Clouds,overcast clouds,2
Tiszabezdéd,48.371389,22.145,2026-03-05 02:45:40.297739,4.12,1.35,4.12,4.12,1025,90,3.13,341,91,0.0,Clouds,overcast clouds,2
Záhony,48.402222,22.183611,2026-03-05 02:45:41.478967,4.08,1.31,4.08,4.08,1025,90,3.12,340,89,0.0,Clouds,overcast clouds,2
Karcag-Vásártér,47.3225,20.9075,2026-03-05 02:45:42.648848,5.56,4.01,5.56,5.56,1024,84,2.01,344,61,0.0,Clouds,broken clouds,2
Berekfürdő,47.374722,20.827222,2026-03-05 02:45:43.819963,5.55,3.74,5.55,5.55,1024,85,2.28,341,46,0.0,Clouds,scattered clouds,2
Kunmadaras,47.415278,20.793056,2026-03-05 02:45:44.997538,5.54,3.57,5.54,5.54,1024,85,2.46,343,32,0.0,Clouds,scattered clouds,2
Tiszaszentimre,47.490833,20.733056,2026-03-05 02:45:46.166131,5.55,3.52,5.55,5.55,1024,85,2.54,351,16,0.0,Clouds,few clouds,2
Tiszaszőlős,47.555556,20.728056,2026-03-05 02:45:47.340379,5.55,3.6,5.55,5.55,1024,85,2.44,2,8,0.0,Clear,clear sky,2
Hosszúhát,47.235556,21.101944,2026-03-05 02:45:48.522250,4.32,3.24,4.32,4.32,1024,84,1.45,348,80,0.0,Clouds,broken clouds,2
Szerep,47.234444,21.145833,2026-03-05 02:45:49.698178,4.31,3.33,4.31,4.31,1024,84,1.38,348,81,0.0,Clouds,broken clouds,2
Sárrétudvari,47.231667,21.180833,2026-03-05 02:45:50.868348,4.28,4.28,4.28,4.28,1024,84,1.3,348,82,0.0,Clouds,broken clouds,2
Biharnagybajom,47.208889,21.221944,2026-03-05 02:45:52.037856,4.25,4.25,4.25,4.25,1024,84,0.98,343,89,0.0,Clouds,overcast clouds,2
Füzesgyarmat,47.113056,21.194444,2026-03-05 02:45:53.218378,4.23,4.23,4.23,4.23,1024,84,0.71,313,98,0.0,Clouds,overcast clouds,2
Füzesgyarmatfürdő,47.093787,21.201582,2026-03-05 02:45:54.387810,4.23,4.23,4.23,4.23,1024,84,0.71,313,98,0.0,Clouds,overcast clouds,2
Báránd,47.299722,21.235278,2026-03-05 02:45:55.559119,4.28,3.09,4.28,4.28,1024,84,1.53,354,68,0.0,Clouds,broken clouds,2
Sáp,47.259722,21.360556,2026-03-05 02:45:56.735667,4.2,4.2,4.2,4.2,1024,84,1.05,347,87,0.0,Clouds,overcast clouds,2
Berettyóújfalu,47.211944,21.535556,2026-03-05 02:45:57.925822,4.16,4.16,4.16,4.16,1024,83,0.49,293,100,0.0,Clouds,overcast clouds,2
Mezőpeterd,47.176111,21.625278,2026-03-05 02:45:59.105606,5.28,5.28,5.28,5.28,1024,83,0.58,241,100,0.0,Clouds,overcast clouds,2
Biharkeresztes,47.135556,21.721389,2026-03-05 02:46:00.278116,5.25,2.1,5.25,5.25,1024,76,4.12,100,0,0.0,Clear,clear sky,2
Tócóvölgy,47.529444,21.588889,2026-03-05 02:46:01.452081,3.97,3.97,3.97,3.97,1024,87,0.51,0,48,0.0,Clouds,scattered clouds,2
Sáregres,46.7825,18.588889,2026-03-05 02:46:02.635994,3.87,1.21,3.87,3.87,1025,84,2.92,334,56,0.0,Clouds,broken clouds,2
Simontornya,46.756582,18.540674,2026-03-05 02:46:03.806344,3.73,1.13,3.73,3.73,1025,85,2.81,336,48,0.0,Clouds,scattered clouds,2
Tolnanémedi,46.727778,18.475833,2026-03-05 02:46:04.977660,3.78,1.25,3.78,3.78,1025,85,2.74,336,45,0.0,Clouds,scattered clouds,2
Pincehely,46.681389,18.43,2026-03-05 02:46:06.153937,3.62,1.21,3.62,3.62,1025,85,2.56,338,32,0.0,Clouds,scattered clouds,2
Keszőhidegkút-Gyönk,46.597778,18.426111,2026-03-05 02:46:07.327333,3.75,1.63,3.75,3.75,1025,84,2.28,337,30,0.0,Clouds,scattered clouds,2
Szárazd,46.575556,18.420833,2026-03-05 02:46:08.502484,3.82,1.78,3.82,3.82,1025,84,2.21,336,29,0.0,Clouds,scattered clouds,2
Regöly,46.568889,18.396111,2026-03-05 02:46:09.677528,3.82,1.78,3.82,3.82,1025,84,2.21,336,29,0.0,Clouds,scattered clouds,2
Szakály-Hőgyész,46.523611,18.389444,2026-03-05 02:46:10.849225,3.76,1.89,3.76,3.76,1025,84,2.03,334,23,0.0,Clouds,few clouds,2
Dúzs,46.493889,18.377222,2026-03-05 02:46:12.022179,3.82,2.04,3.82,3.82,1025,84,1.96,332,22,0.0,Clouds,few clouds,2
Csibrák,46.466667,18.336389,2026-03-05 02:46:13.194254,3.88,2.21,3.88,3.88,1025,84,1.87,332,18,0.0,Clouds,few clouds,2
Kurd,46.449167,18.319167,2026-03-05 02:46:14.368903,3.56,1.88,3.56,3.56,1025,84,1.83,328,17,0.0,Clouds,few clouds,2
Döbrököz,46.418889,18.255,2026-03-05 02:46:15.554456,3.83,2.3,3.83,3.83,1025,85,1.74,329,11,0.0,Clouds,few clouds,2
Dombóvár,46.37,18.149722,2026-03-05 02:46:16.728593,3.77,2.36,3.77,3.77,1025,86,1.64,328,5,0.0,Clear,clear sky,2
Dombóvár alsó,46.363889,18.134167,2026-03-05 02:46:17.903389,3.77,2.36,3.77,3.77,1025,86,1.64,328,5,0.0,Clear,clear sky,2
Somoskőújfalu,48.154722,19.815556,2026-03-05 02:46:19.080680,2.73,2.73,2.73,2.73,1025,86,0.22,120,32,0.0,Clouds,scattered clouds,2
Jászfényszaru,47.593056,19.754444,2026-03-05 02:46:20.252462,3.88,1.24,3.88,3.88,1024,82,2.9,327,7,0.0,Clear,clear sky,2
Pusztamonostor,47.564444,19.794167,2026-03-05 02:46:21.421707,3.86,1.21,3.86,3.86,1024,82,2.91,324,8,0.0,Clear,clear sky,2
Jászberény,47.494444,19.893333,2026-03-05 02:46:22.594092,3.83,1.14,3.83,3.83,1024,82,2.95,317,12,0.0,Clouds,few clouds,2
Meggyespele,47.441944,19.938889,2026-03-05 02:46:23.766766,3.83,1.15,3.83,3.83,1024,82,2.94,316,21,0.0,Clouds,few clouds,2
Portelek,47.418056,19.958889,2026-03-05 02:46:24.943163,3.76,1.07,3.76,3.76,1024,82,2.93,315,25,0.0,Clouds,scattered clouds,2
Jászboldogháza-Jánoshida,47.366944,20.001389,2026-03-05 02:46:26.118097,3.73,1.09,3.73,3.73,1024,82,2.86,314,37,0.0,Clouds,scattered clouds,2
Jászárokszállás,47.635556,19.971111,2026-03-05 02:46:27.299087,4.23,2.16,4.23,4.23,1024,82,2.31,339,4,0.0,Clear,clear sky,2
Jászdózsa,47.563056,20.028056,2026-03-05 02:46:28.469042,4.24,2.07,4.24,4.24,1024,83,2.42,332,8,0.0,Clear,clear sky,2
Jászapáti,47.513611,20.155,2026-03-05 02:46:29.649895,4.27,2.0,4.27,4.27,1024,83,2.54,329,20,0.0,Clouds,few clouds,2
Jászkisér,47.456111,20.203333,2026-03-05 02:46:30.821385,5.57,3.4,5.57,5.57,1024,83,2.72,325,30,0.0,Clouds,scattered clouds,2
Jászladány,47.373333,20.159167,2026-03-05 02:46:31.993709,8.01,6.23,8.01,8.01,1024,82,2.84,319,45,0.0,Clouds,scattered clouds,2
Szászberek,47.320556,20.090833,2026-03-05 02:46:33.162893,8.01,6.27,6.1,8.01,1024,82,2.77,316,52,0.0,Clouds,broken clouds,2
Gyöngyöshalász,47.743056,19.932222,2026-03-05 02:46:34.335257,4.21,2.48,4.21,4.21,1024,82,1.97,1,7,0.0,Clear,clear sky,2
Gyöngyös,47.783056,19.937222,2026-03-05 02:46:35.506668,3.94,2.31,3.94,3.94,1024,83,1.84,6,9,0.0,Clear,clear sky,2
Erdőtelek,47.683333,20.3025,2026-03-05 02:46:36.677816,4.74,3.17,4.74,4.74,1024,84,1.9,14,12,0.0,Clouds,few clouds,2
Heves,47.609444,20.306111,2026-03-05 02:46:37.849355,5.5,3.86,5.5,5.5,1024,84,2.09,352,21,0.0,Clouds,few clouds,2
Hevesvezekény,47.562222,20.365833,2026-03-05 02:46:39.032508,5.54,3.78,5.54,5.54,1024,85,2.23,349,26,0.0,Clouds,scattered clouds,2
Tarnaszentmiklós,47.546944,20.390833,2026-03-05 02:46:40.213968,5.55,3.69,5.55,5.55,1024,85,2.34,344,29,0.0,Clouds,scattered clouds,2
Kisköre,47.495556,20.481667,2026-03-05 02:46:41.385370,5.57,4.25,5.57,5.57,1024,85,1.79,288,35,0.0,Clouds,scattered clouds,2
Abádszalók,47.455278,20.553056,2026-03-05 02:46:42.555979,5.55,4.23,5.55,5.55,1024,85,1.79,288,38,0.0,Clouds,scattered clouds,2
Kunhegyes,47.376667,20.641111,2026-03-05 02:46:43.730340,5.55,3.51,5.55,5.55,1024,85,2.55,335,46,0.0,Clouds,scattered clouds,2
Kenderes,47.254444,20.686111,2026-03-05 02:46:44.919581,5.58,4.05,5.58,5.58,1024,84,1.99,329,75,0.0,Clouds,broken clouds,2
Maklár,47.808056,20.404722,2026-03-05 02:46:46.090597,9.02,7.94,9.02,9.02,1024,85,2.13,45,4,0.0,Clear,clear sky,2
Andornaktálya,47.852203,20.402295,2026-03-05 02:46:47.258343,8.96,7.85,8.96,8.96,1024,85,2.16,46,2,0.0,Clear,clear sky,2
Eger,47.891667,20.381667,2026-03-05 02:46:48.433504,8.87,7.76,7.23,8.87,1024,86,2.14,40,3,0.0,Clear,clear sky,2
Egervár,47.908056,20.380556,2026-03-05 02:46:49.604397,8.69,7.56,7.04,8.69,1024,97,2.13,39,5,0.0,Clear,clear sky,2
Eger-Felnémet,47.936667,20.370556,2026-03-05 02:46:50.779262,8.74,7.66,7.1,8.74,1024,97,2.08,37,7,0.0,Clear,clear sky,2
Szarvaskő,47.988611,20.3325,2026-03-05 02:46:51.949848,8.31,7.32,3.7,8.33,1024,97,1.89,31,16,0.0,Clouds,few clouds,2
Mónosbél,48.031944,20.33,2026-03-05 02:46:53.123782,8.09,7.36,3.52,8.15,1024,97,1.6,31,27,0.0,Clouds,scattered clouds,2
Bélapátfalva,48.055556,20.340556,2026-03-05 02:46:54.300679,7.69,7.1,3.23,7.86,1024,97,1.43,33,34,0.0,Clouds,scattered clouds,2
Bélapátfalvi Cementgyár,48.058056,20.355,2026-03-05 02:46:55.471062,7.73,7.14,3.18,7.81,1024,97,1.43,33,34,0.0,Clouds,scattered clouds,2
Szilvásvárad,48.11345,20.37919,2026-03-05 02:46:56.642403,7.04,7.04,3.05,7.68,1024,97,1.06,48,47,0.0,Clouds,scattered clouds,2
Hejőkeresztúr,47.960278,20.869444,2026-03-05 02:46:57.814309,9.6,8.73,7.58,9.6,1024,100,2.0,5,30,0.0,Clouds,scattered clouds,2
Tiszaújváros,47.926111,21.030556,2026-03-05 02:46:59.023666,9.65,9.36,9.65,9.65,1024,87,1.4,57,34,0.0,Clouds,scattered clouds,2
Miskolc-Gömöri,48.106667,20.800278,2026-03-05 02:47:00.193960,9.5,8.4,9.11,9.5,1024,90,2.26,348,61,0.0,Clouds,broken clouds,2
Sajókeresztúr,48.168008,20.774014,2026-03-05 02:47:01.373333,9.45,8.59,9.06,9.45,1024,91,1.96,352,72,0.0,Clouds,broken clouds,2
Sajóecseg,48.186111,20.766667,2026-03-05 02:47:02.543784,9.49,8.79,9.1,9.49,1024,91,1.78,354,77,0.0,Clouds,broken clouds,2
Sajószentpéter,48.222222,20.708056,2026-03-05 02:47:03.717467,9.39,8.95,9.0,9.39,1024,91,1.5,358,80,0.0,Clouds,broken clouds,2
Kazincbarcika,48.264444,20.6275,2026-03-05 02:47:04.892683,8.68,8.68,7.37,9.39,1024,91,0.56,27,74,0.0,Clouds,broken clouds,2
Sajókaza,48.272778,20.581944,2026-03-05 02:47:06.068526,8.58,8.58,7.36,9.39,1024,90,0.47,45,72,0.0,Clouds,broken clouds,2
Vadna,48.276389,20.555278,2026-03-05 02:47:07.243266,8.78,8.78,7.34,9.37,1024,90,0.47,45,72,0.0,Clouds,broken clouds,2
Dubicsány,48.280833,20.504722,2026-03-05 02:47:08.414669,8.81,8.81,7.32,9.35,1024,90,0.5,93,69,0.0,Clouds,broken clouds,2
Raposka,46.851389,17.412778,2026-03-05 02:47:09.585637,3.06,0.27,3.06,3.06,1026,92,2.88,334,0,0.0,Clear,clear sky,2
Ivacs,47.641944,19.273889,2026-03-05 02:47:10.757772,8.51,7.4,7.79,9.63,1024,81,2.07,326,5,0.0,Clear,clear sky,2
Kisköre-Tiszahíd,47.480835,20.507698,2026-03-05 02:47:11.926737,5.55,4.23,5.55,5.55,1024,85,1.79,288,40,0.0,Clouds,scattered clouds,2
Rozsály,47.912778,22.7825,2026-03-05 02:47:13.098703,3.92,3.92,3.92,4.03,1024,85,0.59,145,72,0.0,Clouds,broken clouds,2
Pusztakettős,47.453611,20.749722,2026-03-05 02:47:14.268746,5.55,3.53,5.55,5.55,1024,85,2.53,345,26,0.0,Clouds,scattered clouds,2
Kisvác,47.795278,19.113611,2026-03-05 02:47:15.443495,8.83,8.04,8.12,8.83,1025,83,1.77,306,5,0.0,Clear,clear sky,2
Tiszafüred-Gyártelep,47.6075,20.736111,2026-03-05 02:47:16.612389,5.52,3.64,5.52,5.52,1024,85,2.35,15,4,0.0,Clear,clear sky,2
Újkenéz,48.251111,22.221667,2026-03-05 02:47:17.787832,4.07,1.87,4.07,4.07,1025,88,2.42,347,98,0.0,Clouds,overcast clouds,2
Püspökladány-Vásártér,47.319167,21.096111,2026-03-05 02:47:18.962492,4.37,2.87,4.37,4.37,1024,84,1.79,353,62,0.0,Clouds,broken clouds,2
Végegyháza alsó,46.3675,20.866944,2026-03-05 02:47:20.135730,10.05,9.28,10.05,10.05,1024,83,1.09,320,77,0.0,Clouds,broken clouds,2
Orosháza felső,46.553611,20.655278,2026-03-05 02:47:21.314214,4.07,4.07,4.07,4.07,1024,84,1.17,328,100,0.0,Clouds,overcast clouds,2
Ambrózfalva,46.353056,20.740556,2026-03-05 02:47:22.496348,3.85,3.85,3.85,3.85,1024,83,0.92,335,82,0.0,Clouds,broken clouds,2
Alsónyék,46.199444,18.738056,2026-03-05 02:47:23.667576,8.04,6.49,8.04,8.04,1025,83,2.51,317,57,0.0,Clouds,broken clouds,2
Tompapuszta,46.321389,20.966389,2026-03-05 02:47:24.850258,9.92,9.92,5.06,10.08,1024,100,1.12,315,67,0.0,Clouds,broken clouds,2
Halászlak,46.911879,20.56228,2026-03-05 02:47:26.021150,4.29,4.29,4.29,4.29,1024,80,1.21,313,100,0.0,Clouds,overcast clouds,2
Sirató,46.840556,20.61,2026-03-05 02:47:27.190248,4.27,4.27,4.27,4.27,1024,81,1.19,309,100,0.0,Clouds,overcast clouds,2
Csabacsűd felső,46.829167,20.649167,2026-03-05 02:47:28.364471,4.23,4.23,4.23,4.23,1024,81,1.17,313,100,0.0,Clouds,overcast clouds,2
Orosháza-Üveggyár,46.579979,20.683644,2026-03-05 02:47:29.535846,4.01,4.01,4.01,4.01,1024,83,1.22,323,100,0.0,Clouds,overcast clouds,2
Gyulai városerdő,46.69482,21.32281,2026-03-05 02:47:30.710387,3.61,3.61,3.61,3.61,1024,82,0.45,317,88,0.0,Clouds,overcast clouds,2
Kórógyszentgyörgy,46.564377,20.224998,2026-03-05 02:47:31.882942,7.79,7.79,7.79,7.79,1024,79,1.21,325,97,0.0,Clouds,overcast clouds,2
Kunszállás,46.784444,19.767222,2026-03-05 02:47:33.055794,7.16,5.16,7.16,7.16,1024,83,2.91,290,99,0.0,Clouds,overcast clouds,2
Selymes,46.655321,19.8534,2026-03-05 02:47:34.225383,7.22,5.56,7.22,7.22,1024,83,2.46,296,100,0.0,Clouds,overcast clouds,2
Petőfiszállási tanyák,46.587805,19.874509,2026-03-05 02:47:35.404585,7.26,5.81,7.26,7.26,1024,83,2.21,302,100,0.0,Clouds,overcast clouds,2
Kisteleki szőlők,46.514199,19.92868,2026-03-05 02:47:36.577531,7.25,6.24,7.25,7.25,1024,82,1.75,318,99,0.0,Clouds,overcast clouds,2
Kapitányság,46.435336,19.987564,2026-03-05 02:47:37.749728,4.48,3.51,4.48,4.48,1024,81,1.39,343,99,0.0,Clouds,overcast clouds,2
Őszeszék,46.39025,20.016017,2026-03-05 02:47:39.002997,4.48,4.48,4.48,4.48,1024,80,1.25,358,100,0.0,Clouds,overcast clouds,2
Vilmaszállás,46.366389,20.030833,2026-03-05 02:47:40.175093,4.47,4.47,4.47,4.47,1024,80,1.2,2,100,0.0,Clouds,overcast clouds,2
Jánosszállás,46.334359,20.051199,2026-03-05 02:47:41.348837,4.49,4.49,4.49,4.49,1024,79,1.15,6,100,0.0,Clouds,overcast clouds,2
Felsőpakony,47.343056,19.230556,2026-03-05 02:47:42.523553,8.83,7.59,8.3,10.02,1024,80,2.3,316,28,0.0,Clouds,scattered clouds,2
Felsőméntelek,46.987074,19.557745,2026-03-05 02:47:43.696118,3.88,1.51,3.88,3.88,1024,87,2.57,280,0,0.0,Clear,clear sky,2
Alsóméntelek,46.961558,19.579121,2026-03-05 02:47:44.870731,3.91,1.55,3.91,3.91,1024,87,2.57,280,0,0.0,Clear,clear sky,2
Nagynyír,46.943319,19.585447,2026-03-05 02:47:46.045199,3.9,1.54,3.9,3.9,1024,87,2.57,280,0,0.0,Clear,clear sky,2
Úrihegy,46.917778,19.621389,2026-03-05 02:47:47.218649,7.04,4.92,7.04,7.04,1024,84,3.06,296,82,0.0,Clouds,broken clouds,2
Miklóstelep,46.913412,19.630913,2026-03-05 02:47:48.394077,7.06,4.91,7.06,7.06,1024,84,3.1,295,84,0.0,Clouds,broken clouds,2
Tiszajenő alsó,47.016944,20.134444,2026-03-05 02:47:49.560927,6.12,4.61,6.12,8.02,1024,81,2.06,280,0,0.0,Clear,clear sky,2
Óbög,46.987222,20.111111,2026-03-05 02:47:50.734695,6.69,5.28,4.17,8.01,1024,79,2.06,280,0,0.0,Clear,clear sky,2
Árpádszállás,46.866456,19.989163,2026-03-05 02:47:51.911578,7.21,5.35,6.03,7.21,1024,83,2.72,290,86,0.0,Clouds,overcast clouds,2
Tőserdő,46.851111,19.980278,2026-03-05 02:47:53.084108,7.23,5.41,6.05,7.23,1024,83,2.68,289,89,0.0,Clouds,overcast clouds,2
Tiszaalpár felső,46.836256,19.976753,2026-03-05 02:47:54.264954,7.26,5.44,7.26,7.73,1024,83,2.68,289,89,0.0,Clouds,overcast clouds,2
Borsihalom,46.773056,19.92,2026-03-05 02:47:55.443681,7.25,5.42,7.25,7.72,1024,83,2.7,287,96,0.0,Clouds,overcast clouds,2
Petőfiváros,46.725556,19.848611,2026-03-05 02:47:56.628110,7.21,5.35,7.21,7.21,1024,83,2.72,290,100,0.0,Clouds,overcast clouds,2
Csorna,47.601944,17.248889,2026-03-05 02:47:57.807434,5.0,2.31,5.0,5.0,1026,89,3.28,323,7,0.0,Clear,clear sky,2
Szorgalmatos,47.986667,21.366389,2026-03-05 02:47:58.981264,10.42,9.19,10.42,10.42,1024,64,2.31,52,48,0.0,Clouds,scattered clouds,2
Fótfürdő,47.6225,19.200556,2026-03-05 02:48:00.169143,8.49,7.61,7.79,9.63,1024,79,1.81,322,4,0.0,Clear,clear sky,2
Fenyveshegy,47.818333,19.068056,2026-03-05 02:48:01.339050,8.9,8.15,8.9,8.9,1025,83,1.74,300,5,0.0,Clear,clear sky,2
Hűvösvölgy,47.541202,18.96351,2026-03-05 02:48:02.513114,8.05,7.12,7.33,9.17,1024,77,1.79,260,5,0.0,Clear,clear sky,2
Hárshegy,47.535318,18.961433,2026-03-05 02:48:03.675260,8.05,7.12,7.33,9.17,1024,77,1.79,260,5,0.0,Clear,clear sky,2
Szépjuhászné,47.528277,18.955246,2026-03-05 02:48:04.849542,7.19,6.12,6.44,8.28,1024,77,1.79,260,5,0.0,Clear,clear sky,2
Jánoshegy,47.51433,18.95047,2026-03-05 02:48:06.025336,7.12,6.56,6.35,8.19,1024,77,1.34,319,5,0.0,Clear,clear sky,2
Virágvölgy,47.505965,18.95876,2026-03-05 02:48:07.203102,6.84,6.25,6.03,7.88,1024,77,1.34,319,6,0.0,Clear,clear sky,2
Csillebérc,47.498196,18.961694,2026-03-05 02:48:08.375436,6.62,6.0,5.8,7.64,1024,76,1.34,319,6,0.0,Clear,clear sky,2
Normafa,47.5,18.970558,2026-03-05 02:48:09.547639,6.69,5.55,5.85,7.69,1024,76,1.79,260,6,0.0,Clear,clear sky,2
Széchenyihegy,47.49413,18.977049,2026-03-05 02:48:10.721322,6.72,6.11,5.87,7.71,1024,76,1.34,319,7,0.0,Clear,clear sky,2
Balatonfőkajár felső,47.031389,18.215278,2026-03-05 02:48:11.899571,7.4,5.85,7.4,7.4,1025,87,2.37,336,4,0.0,Clear,clear sky,2
Piroska,47.148333,20.129722,2026-03-05 02:48:13.082746,6.12,4.61,6.12,8.02,1024,81,2.06,280,0,0.0,Clear,clear sky,2
Somodor,46.4725,17.836667,2026-03-05 02:48:14.256383,3.36,0.71,3.36,3.36,1026,89,2.79,333,3,0.0,Clear,clear sky,2
Középmező,45.995833,18.668889,2026-03-05 02:48:15.434465,8.03,7.08,5.06,8.03,1025,68,1.81,319,42,0.0,Clouds,scattered clouds,2
Jobbágyi,47.828889,19.6875,2026-03-05 02:48:16.609433,3.92,1.83,3.92,3.92,1024,83,2.27,347,12,0.0,Clouds,few clouds,2
Ferihegy,47.437222,19.223889,2026-03-05 02:48:17.789665,8.73,7.77,8.02,9.86,1024,77,1.94,320,14,0.0,Clouds,few clouds,2
Máriapócs,47.852778,22.019167,2026-03-05 02:48:18.960823,3.88,1.16,3.88,3.88,1024,84,3.0,352,100,0.0,Clouds,overcast clouds,2
Máriaudvar,47.751944,19.165,2026-03-05 02:48:20.134750,8.86,8.0,8.15,8.86,1024,82,1.85,314,5,0.0,Clear,clear sky,2
Nagyberki,46.353333,18.004167,2026-03-05 02:48:21.305530,3.53,1.69,3.53,3.53,1025,87,1.97,332,4,0.0,Clear,clear sky,2
Badacsonytomaj,46.804722,17.518056,2026-03-05 02:48:22.478151,3.39,0.87,3.39,3.39,1026,91,2.64,328,0,0.0,Clear,clear sky,2
Badacsony,46.788611,17.506389,2026-03-05 02:48:23.869409,3.11,0.47,3.11,3.11,1026,91,2.71,328,0,0.0,Clear,clear sky,2
Badacsonylábdihegy,46.793889,17.470833,2026-03-05 02:48:25.046098,3.08,0.44,3.08,3.08,1026,91,2.71,328,0,0.0,Clear,clear sky,2
Badacsonytördemic-Szigliget,46.809722,17.469167,2026-03-05 02:48:26.218993,3.03,0.35,3.03,3.03,1026,91,2.74,330,0,0.0,Clear,clear sky,2
Nemesgulács-Kisapáti,46.836944,17.476389,2026-03-05 02:48:27.389344,3.07,0.38,3.07,3.07,1026,91,2.76,331,0,0.0,Clear,clear sky,2
Tapolca,46.877778,17.428611,2026-03-05 02:48:28.574325,2.99,0.2,2.99,2.99,1026,92,2.86,335,0,0.0,Clear,clear sky,2
Uzsabánya alsó,46.898333,17.345278,2026-03-05 02:48:29.751622,2.79,0.04,2.79,2.79,1026,92,2.77,338,1,0.0,Clear,clear sky,2
Uzsa,46.920278,17.331667,2026-03-05 02:48:30.935949,2.75,0.04,2.75,2.75,1026,92,2.72,339,1,0.0,Clear,clear sky,2
Sümegi Bazaltbánya,46.9525,17.2925,2026-03-05 02:48:32.112805,2.97,0.4,2.97,2.97,1026,92,2.61,340,1,0.0,Clear,clear sky,2
Sümeg,46.981111,17.270833,2026-03-05 02:48:33.284317,3.12,0.72,3.12,3.12,1026,92,2.45,341,1,0.0,Clear,clear sky,2
Gógánfa,47.021111,17.207778,2026-03-05 02:48:34.461216,3.06,0.8,3.06,3.06,1026,91,2.29,342,1,0.0,Clear,clear sky,2
Ukk,47.041944,17.195833,2026-03-05 02:48:35.639489,3.09,0.92,3.09,3.09,1026,90,2.21,341,1,0.0,Clear,clear sky,2
Nemeskeresztúr,47.093611,17.183611,2026-03-05 02:48:36.818341,2.99,0.86,2.99,2.99,1026,90,2.15,340,1,0.0,Clear,clear sky,2
Jánosháza,47.115833,17.171667,2026-03-05 02:48:37.997162,3.04,0.94,3.04,3.04,1026,90,2.13,339,1,0.0,Clear,clear sky,2
Keszthely,46.758333,17.248056,2026-03-05 02:48:39.168209,3.08,0.13,3.08,3.08,1026,100,3.09,320,100,0.0,Mist,mist,2
Alsógyenes,46.765844,17.276435,2026-03-05 02:48:40.340334,3.08,0.13,3.08,3.08,1026,100,3.09,320,100,0.0,Mist,mist,2
Gyenesdiás,46.763333,17.292778,2026-03-05 02:48:41.512906,3.08,0.13,3.08,3.08,1026,100,3.09,320,100,0.0,Mist,mist,2
Vonyarcvashegy,46.755278,17.318333,2026-03-05 02:48:42.684269,3.09,0.14,3.09,3.09,1026,100,3.09,320,100,0.0,Mist,mist,2
Balatongyörök,46.751944,17.354444,2026-03-05 02:48:43.855992,3.11,0.17,3.11,3.11,1026,100,3.09,320,100,0.0,Mist,mist,2
Becehegy,46.776111,17.372778,2026-03-05 02:48:45.034958,3.08,0.13,3.08,3.08,1026,100,3.09,320,100,0.0,Mist,mist,2
Balatonederics,46.8025,17.385,2026-03-05 02:48:46.209618,3.03,0.23,3.03,3.03,1026,93,2.89,333,0,0.0,Clear,clear sky,2
Dabronc,47.025766,17.167006,2026-03-05 02:48:47.382557,3.09,0.88,3.09,3.09,1026,90,2.25,341,1,0.0,Clear,clear sky,2
Türje,46.994444,17.093611,2026-03-05 02:48:48.560148,3.07,0.88,3.07,3.07,1026,90,2.23,338,1,0.0,Clear,clear sky,2
Zalabér-Batyk,46.983056,17.040833,2026-03-05 02:48:49.731995,3.17,1.1,3.17,3.17,1026,89,2.13,334,0,0.0,Clear,clear sky,2
Pakod,46.959167,16.996667,2026-03-05 02:48:50.911229,3.05,1.01,3.05,3.05,1026,89,2.08,333,0,0.0,Clear,clear sky,2
Pókaszepetk,46.924444,16.972222,2026-03-05 02:48:52.086263,3.19,1.11,3.19,3.19,1026,89,2.14,333,0,0.0,Clear,clear sky,2
Kemendollár,46.905833,16.946667,2026-03-05 02:48:53.267818,2.91,0.86,2.91,2.91,1026,89,2.07,332,0,0.0,Clear,clear sky,2
Zalaegerszeg,46.833056,16.848333,2026-03-05 02:48:54.443409,2.73,1.0,2.73,2.73,1026,89,1.77,332,0,0.0,Clear,clear sky,2
Bocfölde,46.780278,16.853611,2026-03-05 02:48:55.621973,2.79,0.94,2.79,2.79,1026,89,1.87,334,0,0.0,Clear,clear sky,2
Sárhida,46.755833,16.851389,2026-03-05 02:48:56.795506,2.75,1.03,2.75,2.75,1026,89,1.76,335,0,0.0,Clear,clear sky,2
Bak,46.7325,16.849167,2026-03-05 02:48:57.968678,2.77,1.07,2.77,2.77,1026,89,1.75,336,0,0.0,Clear,clear sky,2
Tófej,46.670833,16.801944,2026-03-05 02:48:59.142359,2.61,1.08,2.61,2.61,1026,88,1.6,339,0,0.0,Clear,clear sky,2
Gutorfölde,46.646944,16.739722,2026-03-05 02:49:00.316242,2.72,1.42,2.72,2.72,1026,87,1.45,342,0,0.0,Clear,clear sky,2
Csömödér-Páka,46.608056,16.641111,2026-03-05 02:49:01.484689,2.87,1.65,2.87,2.87,1026,84,1.41,339,0,0.0,Clear,clear sky,2
Iklódbördőce,46.603056,16.604722,2026-03-05 02:49:02.660670,2.68,1.36,2.68,2.68,1026,83,1.46,335,0,0.0,Clear,clear sky,2
Lenti,46.621389,16.528611,2026-03-05 02:49:03.846234,2.82,1.42,2.82,2.82,1026,83,1.53,332,0,0.0,Clear,clear sky,2
Rédics,46.618056,16.471111,2026-03-05 02:49:05.017684,2.8,1.35,2.8,2.8,1026,83,1.56,329,0,0.0,Clear,clear sky,2
Zalalövő,46.845556,16.576389,2026-03-05 02:49:06.188686,2.62,1.22,2.62,2.62,1026,85,1.51,325,0,0.0,Clear,clear sky,2
Zalaegerszeg-Ola,46.849167,16.844722,2026-03-05 02:49:07.364937,2.92,1.22,2.92,2.92,1026,89,1.77,332,0,0.0,Clear,clear sky,2
Andráshida,46.863116,16.7792,2026-03-05 02:49:08.536084,2.85,1.22,2.85,2.85,1026,88,1.7,330,0,0.0,Clear,clear sky,2
Bagod,46.875,16.746111,2026-03-05 02:49:09.707786,2.93,1.45,2.93,2.93,1026,87,1.6,329,0,0.0,Clear,clear sky,2
Zalaszentgyörgy,46.872222,16.7125,2026-03-05 02:49:10.888909,2.85,1.41,2.85,2.85,1026,87,1.56,328,0,0.0,Clear,clear sky,2
Zalacséb-Salomvár,46.858056,16.662222,2026-03-05 02:49:12.079707,2.6,1.15,2.6,2.6,1026,87,1.54,327,0,0.0,Clear,clear sky,2
Kópháza,47.631389,16.6375,2026-03-05 02:49:13.253529,4.55,1.92,4.55,4.55,1026,80,3.06,309,1,0.0,Clear,clear sky,2
Nagycenk,47.601111,16.690278,2026-03-05 02:49:14.436672,4.66,2.01,4.66,4.66,1026,80,3.12,313,1,0.0,Clear,clear sky,2
Sopronkövesd,47.548333,16.748056,2026-03-05 02:49:15.615166,4.49,1.83,4.49,4.49,1026,79,3.09,317,2,0.0,Clear,clear sky,2
Lövő,47.509444,16.7775,2026-03-05 02:49:16.802683,4.53,1.87,4.53,4.53,1026,80,3.09,320,2,0.0,Clear,clear sky,2
Újkér,47.457778,16.786667,2026-03-05 02:49:17.979432,2.74,-0.04,2.74,2.74,1026,79,2.8,321,2,0.0,Clear,clear sky,2
Bük,47.388611,16.752222,2026-03-05 02:49:19.153844,2.78,0.48,2.78,2.78,1026,77,2.28,319,1,0.0,Clear,clear sky,2
Acsád,47.308333,16.734722,2026-03-05 02:49:20.324349,2.5,0.58,2.5,2.5,1026,77,1.89,319,0,0.0,Clear,clear sky,2
Salköveskút-Vassurány,47.291389,16.704167,2026-03-05 02:49:21.499951,2.54,0.72,2.54,2.54,1026,77,1.82,319,0,0.0,Clear,clear sky,2
Zalaszentiván,46.8875,16.909444,2026-03-05 02:49:22.672522,2.89,0.99,2.89,2.89,1026,89,1.93,331,0,0.0,Clear,clear sky,2
Alsónemesapáti,46.854167,16.936389,2026-03-05 02:49:23.847063,2.88,0.75,2.88,2.88,1026,90,2.14,332,0,0.0,Clear,clear sky,2
Józsa,47.600833,21.584444,2026-03-05 02:49:25.018325,3.86,3.86,3.86,3.86,1024,87,0.51,0,30,0.0,Clouds,scattered clouds,2
Hajdúszentgyörgy,47.608056,21.578333,2026-03-05 02:49:26.192753,3.83,3.83,3.83,3.83,1024,87,0.51,0,30,0.0,Clouds,scattered clouds,2
Zelemér,47.627778,21.578333,2026-03-05 02:49:27.366125,3.78,3.78,3.78,3.78,1024,87,0.51,0,25,0.0,Clouds,scattered clouds,2
Hajdúböszörmény,47.668056,21.524167,2026-03-05 02:49:28.535406,3.81,1.77,3.81,3.81,1024,86,2.2,12,11,0.0,Clouds,few clouds,2
Hajdúvid,47.749444,21.508056,2026-03-05 02:49:29.721086,4.15,1.98,4.15,4.15,1024,86,2.4,24,5,0.0,Clear,clear sky,2
Hajdúdorog,47.805556,21.493056,2026-03-05 02:49:30.898361,4.27,2.03,4.27,4.27,1024,87,2.51,29,11,0.0,Clouds,few clouds,2
Hajdúnánás,47.831944,21.426667,2026-03-05 02:49:32.076402,4.54,2.43,4.54,4.54,1024,87,2.42,38,11,0.0,Clouds,few clouds,2
Hajdúnánás-Vásártér,47.843056,21.407222,2026-03-05 02:49:33.246850,4.54,2.43,4.54,4.54,1024,87,2.42,38,11,0.0,Clouds,few clouds,2
Tedej,47.903611,21.404444,2026-03-05 02:49:34.419334,10.43,9.83,10.43,10.43,1024,88,2.47,45,29,0.0,Clouds,scattered clouds,2
Tiszavasvári,47.945278,21.374722,2026-03-05 02:49:35.590625,10.43,9.2,10.43,10.43,1024,64,2.37,50,34,0.0,Clouds,scattered clouds,2
Egyházerdő,47.9725,21.365,2026-03-05 02:49:36.766324,10.45,9.22,10.45,10.45,1024,64,2.35,51,41,0.0,Clouds,scattered clouds,2
Tiszalök,48.013056,21.369167,2026-03-05 02:49:37.938977,10.42,9.19,10.42,10.42,1024,64,2.27,53,55,0.0,Clouds,broken clouds,2
Hajnalos,47.998889,21.414167,2026-03-05 02:49:39.110165,10.43,9.2,10.43,10.43,1024,64,2.43,49,51,0.0,Clouds,broken clouds,2
Kisfástanya,47.989167,21.47,2026-03-05 02:49:40.283873,10.4,9.17,10.4,10.4,1024,64,2.55,44,55,0.0,Clouds,broken clouds,2
Tiszaeszlár,48.010556,21.491944,2026-03-05 02:49:41.465803,10.41,9.18,10.41,10.41,1024,64,2.63,41,65,0.0,Clouds,broken clouds,2
Bashalom,48.026111,21.514722,2026-03-05 02:49:42.638731,10.38,9.14,10.38,10.38,1024,64,2.61,41,71,0.0,Clouds,broken clouds,2
Sáránd,47.415556,21.625,2026-03-05 02:49:43.817346,4.01,4.01,4.01,4.01,1024,87,0.51,0,73,0.0,Clouds,broken clouds,2
Derecske,47.365,21.584167,2026-03-05 02:49:45.000962,4.08,4.08,4.08,4.08,1024,87,0.51,0,86,0.0,Clouds,overcast clouds,2
Derecske-Vásártér,47.352222,21.58,2026-03-05 02:49:46.174768,4.08,4.08,4.08,4.08,1024,87,0.51,0,86,0.0,Clouds,overcast clouds,2
Konyár,47.323611,21.666111,2026-03-05 02:49:47.345879,4.05,4.05,4.05,4.05,1024,87,0.51,0,94,0.0,Clouds,overcast clouds,2
Konyári Sóstófürdő,47.324167,21.744444,2026-03-05 02:49:48.520426,4.06,4.06,4.06,4.06,1024,84,0.7,281,87,0.0,Clouds,overcast clouds,2
Pocsaj-Esztár,47.288333,21.793056,2026-03-05 02:49:49.702520,4.05,4.05,4.05,5.24,1024,84,0.71,260,86,0.0,Clouds,overcast clouds,2
Kismarja,47.243889,21.813889,2026-03-05 02:49:50.880229,5.24,5.24,5.24,5.24,1024,83,0.69,237,94,0.0,Clouds,overcast clouds,2
Nagykereki,47.191667,21.8,2026-03-05 02:49:52.055738,5.23,5.23,5.23,5.23,1024,76,0.87,213,98,0.0,Clouds,overcast clouds,2
Debrecen-Szabadságtelep,47.527778,21.658611,2026-03-05 02:49:53.228564,3.89,3.89,3.89,3.89,1024,87,0.51,0,46,0.0,Clouds,scattered clouds,2
Kondoroskert,47.525556,21.713889,2026-03-05 02:49:54.402413,3.92,3.92,3.92,3.92,1024,87,0.51,0,42,0.0,Clouds,scattered clouds,2
Nagycsere,47.523889,21.763056,2026-03-05 02:49:55.580402,3.9,3.9,3.9,3.9,1024,87,0.51,0,40,0.0,Clouds,scattered clouds,2
Haláp,47.521667,21.818333,2026-03-05 02:49:56.751576,3.9,3.9,3.9,3.9,1024,87,0.51,0,38,0.0,Clouds,scattered clouds,2
Vámospércs,47.518056,21.893889,2026-03-05 02:49:57.934298,3.84,2.85,3.84,3.84,1024,85,1.34,285,34,0.0,Clouds,scattered clouds,2
Szentannapuszta,47.52,21.965833,2026-03-05 02:49:59.105447,3.79,2.58,3.79,3.79,1024,85,1.49,272,34,0.0,Clouds,scattered clouds,2
Nyírábrány,47.523889,22.016944,2026-03-05 02:50:00.284965,3.52,2.15,3.52,3.52,1024,85,1.58,267,34,0.0,Clouds,scattered clouds,2
Dombostanya,47.602778,21.706389,2026-03-05 02:50:01.459693,3.82,3.82,3.82,3.82,1024,87,0.51,0,36,0.0,Clouds,scattered clouds,2
Hajdúsámson,47.608056,21.755278,2026-03-05 02:50:02.632957,3.82,3.82,3.82,3.82,1024,87,0.51,0,42,0.0,Clouds,scattered clouds,2
Tamásipuszta,47.632778,21.796111,2026-03-05 02:50:03.804728,3.77,2.13,3.77,3.77,1024,85,1.83,332,49,0.0,Clouds,scattered clouds,2
Aradványpuszta,47.662778,21.8425,2026-03-05 02:50:04.975631,3.72,1.88,3.72,3.72,1024,84,2.0,333,60,0.0,Clouds,broken clouds,2
Nyíradony,47.699444,21.903333,2026-03-05 02:50:06.154355,3.58,1.4,3.58,3.58,1024,84,2.31,333,89,0.0,Clouds,overcast clouds,2
Nyírmihálydi,47.7375,21.958889,2026-03-05 02:50:07.326279,3.61,1.31,3.61,3.61,1024,83,2.44,335,97,0.0,Clouds,overcast clouds,2
Nyírgelse,47.750833,21.987778,2026-03-05 02:50:08.503725,3.59,1.17,3.59,3.59,1024,83,2.57,338,100,0.0,Clouds,overcast clouds,2
Nyírbogát,47.793056,22.066389,2026-03-05 02:50:09.684347,3.68,1.08,3.68,3.68,1024,84,2.8,342,88,0.0,Clouds,overcast clouds,2
Nagykálló,47.871111,21.825833,2026-03-05 02:50:10.860675,4.02,1.31,4.02,4.02,1024,86,3.02,7,97,0.0,Clouds,overcast clouds,2
Kállósemjén,47.854722,21.935,2026-03-05 02:50:12.032454,3.91,1.21,3.91,3.91,1024,84,2.98,357,100,0.0,Clouds,overcast clouds,2
Nyírbátor,47.8425,22.131111,2026-03-05 02:50:13.201329,3.63,0.93,3.63,3.63,1024,84,2.91,344,82,0.0,Clouds,broken clouds,2
Nyírcsászári,47.865556,22.179167,2026-03-05 02:50:14.374144,3.62,0.89,3.62,3.62,1024,84,2.95,345,69,0.0,Clouds,broken clouds,2
Hodász,47.896111,22.213611,2026-03-05 02:50:15.548799,3.58,0.85,3.58,3.58,1024,85,2.94,347,65,0.0,Clouds,broken clouds,2
Nyírmeggyes,47.9225,22.256667,2026-03-05 02:50:16.725754,3.66,0.89,3.66,3.66,1024,85,3.01,352,80,0.0,Clouds,broken clouds,2
Mátészalka,47.951389,22.313333,2026-03-05 02:50:17.900292,3.71,0.98,3.71,3.71,1024,85,2.97,354,88,0.0,Clouds,overcast clouds,2
Kocsord,47.941944,22.375833,2026-03-05 02:50:19.079820,3.74,1.45,3.74,3.74,1024,84,2.45,353,79,0.0,Clouds,broken clouds,2
Kocsord alsó,47.946389,22.400556,2026-03-05 02:50:20.252328,3.74,1.45,3.74,3.74,1024,84,2.45,353,79,0.0,Clouds,broken clouds,2
Győrtelek,47.936667,22.424722,2026-03-05 02:50:21.431408,3.72,1.63,3.72,3.72,1024,84,2.24,354,80,0.0,Clouds,broken clouds,2
Győrtelek alsó,47.921111,22.443333,2026-03-05 02:50:22.601113,3.64,1.9,3.64,3.64,1024,85,1.9,351,72,0.0,Clouds,broken clouds,2
Ököritófülpös,47.911389,22.495,2026-03-05 02:50:23.785303,3.61,2.16,3.61,3.61,1024,85,1.65,352,74,0.0,Clouds,broken clouds,2
Porcsalma-Tyukod,47.868056,22.568333,2026-03-05 02:50:24.952809,3.95,3.95,3.95,4.05,1024,86,0.69,319,61,0.0,Clouds,broken clouds,2
Csenger,47.826111,22.666389,2026-03-05 02:50:26.122702,3.94,3.94,3.94,4.04,1024,86,0.61,258,52,0.0,Clouds,broken clouds,2
Kisfái,46.888303,19.807366,2026-03-05 02:50:27.299784,7.7,5.67,7.14,7.7,1024,82,3.12,293,90,0.0,Clouds,overcast clouds,2
Nyárlőrinci szőlők,46.8775,19.828333,2026-03-05 02:50:28.469117,7.7,5.72,7.14,7.7,1024,83,3.05,291,93,0.0,Clouds,overcast clouds,2
Nyárlőrinc alsó,46.863889,19.878889,2026-03-05 02:50:29.637293,7.16,5.09,7.16,7.72,1024,83,3.01,291,92,0.0,Clouds,overcast clouds,2
Tiszaug-Tiszahídfő,46.866106,20.052098,2026-03-05 02:50:30.809583,7.53,5.8,6.14,7.88,1024,81,2.63,290,85,0.0,Clouds,overcast clouds,2
Csongrádi úti tanyák,46.690278,19.921667,2026-03-05 02:50:31.993468,7.55,6.05,7.27,7.83,1024,83,2.33,292,100,0.0,Clouds,overcast clouds,2
Kettőshalom,46.689167,20.0225,2026-03-05 02:50:33.171677,7.58,6.31,7.3,7.86,1024,83,2.07,291,96,0.0,Clouds,overcast clouds,2
Csongrád alsó,46.711389,20.126389,2026-03-05 02:50:34.345185,7.78,6.68,7.3,7.86,1024,79,1.92,287,91,0.0,Clouds,overcast clouds,2
Dónát,46.66988,20.368168,2026-03-05 02:50:35.521621,7.8,6.83,7.8,7.8,1024,79,1.79,275,91,0.0,Clouds,overcast clouds,2
Pusztatemplom,46.676667,20.407222,2026-03-05 02:50:36.693402,7.79,6.82,7.79,7.79,1024,79,1.79,275,93,0.0,Clouds,overcast clouds,2
Előhát,47.364722,20.653611,2026-03-05 02:50:37.873122,5.56,3.6,5.56,5.56,1024,85,2.46,333,52,0.0,Clouds,broken clouds,2
Polgárdi-Tekerespuszta,47.017778,18.297778,2026-03-05 02:50:39.044206,3.2,0.73,3.2,3.2,1025,87,2.54,337,7,0.0,Clear,clear sky,2
Szatina-Kishajmás,46.202778,18.083611,2026-03-05 02:50:40.219146,5.25,3.97,5.25,5.25,1025,86,1.71,323,4,0.0,Clear,clear sky,2
Márok,45.886944,18.499167,2026-03-05 02:50:41.399658,5.17,5.17,4.83,7.8,1025,81,0.89,335,40,0.0,Clouds,scattered clouds,2
Nagynyárád,45.953333,18.564722,2026-03-05 02:50:42.570181,6.45,5.12,4.9,7.87,1025,76,1.94,312,34,0.0,Clouds,scattered clouds,2
Szászvár,46.2875,18.369722222222222,2026-03-05 02:50:43.738451,7.46,6.22,7.46,7.46,1025,84,2.01,308,16,0.0,Clouds,few clouds,2
Cikó,46.263514,18.557605,2026-03-05 02:50:44.919446,7.78,6.16,7.78,7.78,1025,83,2.54,311,39,0.0,Clouds,scattered clouds,2
Gyöngyfa-Magyarmecske,45.983889,17.958889,2026-03-05 02:50:46.089362,5.57,3.27,5.57,5.57,1025,86,2.89,314,3,0.0,Clear,clear sky,2
Nagyhát,47.581389,21.445,2026-03-05 02:50:47.260070,3.92,3.92,3.92,3.92,1024,87,0.51,0,26,0.0,Clouds,scattered clouds,2
Balmazújváros,47.613889,21.348056,2026-03-05 02:50:48.430933,4.1,2.26,4.1,4.1,1024,86,2.06,20,6,0.0,Clear,clear sky,2
Kónya,47.600833,21.2375,2026-03-05 02:50:49.609545,4.41,2.62,4.41,4.41,1024,85,2.06,19,4,0.0,Clear,clear sky,2
Hortobágy,47.586111,21.154722,2026-03-05 02:50:50.779680,4.56,2.73,4.56,4.56,1024,85,2.12,19,2,0.0,Clear,clear sky,2
Hortobágyi Halastó,47.604167,21.074167,2026-03-05 02:50:51.959809,4.67,2.81,4.67,4.67,1024,85,2.17,18,2,0.0,Clear,clear sky,2
Ohat-Pusztakócs,47.623333,20.951111,2026-03-05 02:50:53.130282,4.85,2.94,4.85,4.85,1024,85,2.26,22,1,0.0,Clear,clear sky,2
Egyek,47.616944,20.883611,2026-03-05 02:50:54.298706,5.53,3.68,5.53,5.53,1024,85,2.32,23,0,0.0,Clear,clear sky,2
Tiszafüred,47.627778,20.756111,2026-03-05 02:50:55.470531,5.53,3.66,5.53,5.53,1024,85,2.35,22,2,0.0,Clear,clear sky,2
Poroszló,47.657778,20.654444,2026-03-05 02:50:56.650496,5.54,3.75,5.54,5.54,1024,84,2.26,26,8,0.0,Clear,clear sky,2
Kétútköz,47.694167,20.565,2026-03-05 02:50:57.827622,5.51,3.78,5.51,5.51,1024,84,2.19,36,8,0.0,Clear,clear sky,2
Egerfarmos,47.711667,20.5225,2026-03-05 02:50:58.998950,5.49,3.86,5.49,5.49,1024,84,2.08,34,10,0.0,Clear,clear sky,2
Piliscsaba,47.638056,18.829722,2026-03-05 02:51:00.171064,7.5,6.04,7.41,8.12,1024,83,2.27,317,4,0.0,Clear,clear sky,2
Pilisjászfalu,47.656111,18.797778,2026-03-05 02:51:01.342081,7.85,6.42,7.66,9.5,1025,85,2.32,317,5,0.0,Clear,clear sky,2
Leányvár,47.687594,18.772553,2026-03-05 02:51:02.522424,7.83,6.52,7.83,9.67,1025,85,2.16,314,5,0.0,Clear,clear sky,2
Dorog,47.723333,18.732778,2026-03-05 02:51:03.699740,8.05,7.16,8.05,8.05,1025,84,1.75,302,5,0.0,Clear,clear sky,2
Esztergom-Kertváros,47.743333,18.719167,2026-03-05 02:51:04.878361,8.12,7.39,8.12,8.12,1025,84,1.6,296,6,0.0,Clear,clear sky,2
Esztergom,47.7775,18.743611,2026-03-05 02:51:06.052048,8.18,7.54,8.18,8.18,1025,84,1.53,296,6,0.0,Clear,clear sky,2
Dunaalmás,47.733056,18.326389,2026-03-05 02:51:07.230508,3.47,2.11,3.47,3.47,1025,87,1.57,277,8,0.0,Clear,clear sky,2
Neszmély,47.734444,18.345278,2026-03-05 02:51:08.416115,3.47,2.11,3.47,3.47,1025,87,1.57,277,8,0.0,Clear,clear sky,2
Süttő,47.761111,18.455,2026-03-05 02:51:09.592896,3.51,2.18,3.51,3.51,1025,86,1.55,270,6,0.0,Clear,clear sky,2
Piszke,47.75307,18.478017,2026-03-05 02:51:10.762367,3.56,2.24,3.56,3.56,1025,86,1.55,271,6,0.0,Clear,clear sky,2
Lábatlan,47.751944,18.513333,2026-03-05 02:51:11.942843,3.56,2.25,3.56,3.56,1025,86,1.54,273,6,0.0,Clear,clear sky,2
Eternitgyár,47.755544,18.530014,2026-03-05 02:51:13.115393,3.56,2.25,3.56,3.56,1025,86,1.54,273,6,0.0,Clear,clear sky,2
Nyergesújfalu felső,47.762222,18.540556,2026-03-05 02:51:14.287762,3.56,2.25,3.56,3.56,1025,86,1.54,273,6,0.0,Clear,clear sky,2
Nyergesújfalu,47.761111,18.561667,2026-03-05 02:51:15.459053,3.53,2.22,3.53,3.53,1025,85,1.54,276,6,0.0,Clear,clear sky,2
Tokod,47.735,18.675,2026-03-05 02:51:16.627736,8.14,7.31,8.14,8.14,1025,84,1.7,298,5,0.0,Clear,clear sky,2
Környe,47.541667,18.330278,2026-03-05 02:51:17.806380,3.14,1.24,3.14,3.14,1025,88,1.97,296,5,0.0,Clear,clear sky,2
Kecskéd alsó,47.519722,18.316667,2026-03-05 02:51:18.981753,3.13,1.16,3.13,3.13,1025,88,2.03,299,6,0.0,Clear,clear sky,2
Oroszlány,47.486944,18.308611,2026-03-05 02:51:20.152797,3.04,0.93,3.04,3.04,1025,88,2.14,303,5,0.0,Clear,clear sky,2
Győrszabadhegy,47.663056,17.648056,2026-03-05 02:51:21.321873,2.08,-0.62,2.08,2.08,1026,100,2.57,270,8,0.0,Mist,mist,2
Ménfőcsanak felső,47.638333,17.615,2026-03-05 02:51:22.499612,2.08,-0.62,2.08,2.08,1026,100,2.57,270,7,0.0,Mist,mist,2
Gyömöre-Tét,47.501672,17.559596,2026-03-05 02:51:23.675286,2.03,2.03,1.91,2.03,1026,100,0.51,180,4,0.0,Fog,fog,2
Szerecseny,47.469167,17.5475,2026-03-05 02:51:24.844327,2.02,2.02,1.9,2.02,1026,100,0.51,180,4,0.0,Fog,fog,2
Gecse-Gyarmat,47.456111,17.515,2026-03-05 02:51:26.017033,2.05,2.05,1.94,2.05,1026,100,0.51,180,4,0.0,Fog,fog,2
Vaszar,47.4025,17.496389,2026-03-05 02:51:27.186685,2.08,2.08,2.08,2.08,1026,100,0.51,180,3,0.0,Fog,fog,2
Pápa,47.340556,17.458889,2026-03-05 02:51:28.354884,2.03,2.03,2.03,2.03,1026,100,0.51,180,3,0.0,Fog,fog,2
Mezőlak,47.324722,17.371389,2026-03-05 02:51:29.526361,2.11,2.11,2.11,2.11,1026,100,0.51,180,3,0.0,Fog,fog,2
Mihályháza,47.318889,17.331667,2026-03-05 02:51:30.704058,2.14,2.14,2.14,2.14,1026,100,0.51,180,2,0.0,Fog,fog,2
Vinár,47.306667,17.284722,2026-03-05 02:51:32.086349,2.1,2.1,2.1,2.1,1026,100,0.51,180,2,0.0,Fog,fog,2
Külsővat,47.279167,17.219722,2026-03-05 02:51:33.254536,2.12,-0.31,2.12,2.12,1026,90,2.3,331,2,0.0,Clear,clear sky,2
Celldömölk,47.261389,17.151944,2026-03-05 02:51:34.423362,2.07,-0.44,2.07,2.07,1026,88,2.37,330,2,0.0,Clear,clear sky,2
Kemenesmihályfa,47.278056,17.111111,2026-03-05 02:51:35.595216,2.72,0.21,2.72,2.72,1026,88,2.49,328,2,0.0,Clear,clear sky,2
Nagysimonyi,47.265556,17.058889,2026-03-05 02:51:36.764492,2.8,0.34,2.8,2.8,1026,87,2.45,327,2,0.0,Clear,clear sky,2
Ostffyasszonyfa,47.283889,17.023889,2026-03-05 02:51:37.937499,2.88,0.37,2.88,2.88,1026,86,2.52,325,2,0.0,Clear,clear sky,2
Sárvár,47.259167,16.928889,2026-03-05 02:51:39.114629,2.93,0.69,2.93,2.93,1026,83,2.25,324,1,0.0,Clear,clear sky,2
Porpác,47.238611,16.8325,2026-03-05 02:51:40.289547,2.85,0.82,2.85,2.85,1026,81,2.04,323,0,0.0,Clear,clear sky,2
Balatonföldvár,46.853889,17.881389,2026-03-05 02:51:41.468924,7.75,7.75,7.75,7.75,1026,63,0.89,270,0,0.0,Clear,clear sky,2
