station_name,station_lat,station_lon,observation_time,temp,feels_like,temp_min,temp_max,pressure,humidity,wind_speed,wind_deg,clouds,precipitation_1h,weather_main,weather_description,collection_hour
Búcsúszentlászló,46.793056,16.932778,2026-03-06 09:49:22.049936,11.84,10.72,11.84,11.84,1026,63,3.16,154,0,0.0,Clear,clear sky,9
Angyalföld,47.549722,19.09,2026-03-06 09:49:23.212948,12.43,10.88,12.2,12.78,1027,44,4.12,130,0,0.0,Clear,clear sky,9
Felsőjánosfa,46.841389,16.544167,2026-03-06 09:49:24.371955,12.18,11.1,12.18,12.18,1026,63,2.72,166,0,0.0,Clear,clear sky,9
Pankasz,46.835833,16.496111,2026-03-06 09:49:25.550374,11.88,10.77,11.88,11.88,1026,63,2.75,166,0,0.0,Clear,clear sky,9
Nagyrákos,46.827222,16.455556,2026-03-06 09:49:26.719637,11.84,10.75,11.84,11.84,1025,64,2.73,166,0,0.0,Clear,clear sky,9
Őriszentpéter,46.828889,16.415278,2026-03-06 09:49:27.883096,11.94,10.86,11.94,11.94,1025,64,2.68,164,0,0.0,Clear,clear sky,9
Törökbálint,47.45,18.908611,2026-03-06 09:49:29.048612,12.44,10.91,11.97,12.56,1027,45,1.34,127,35,0.0,Clouds,scattered clouds,9
Bicske alsó,47.486389,18.642778,2026-03-06 09:49:30.208571,13.99,12.75,12.27,14.52,1027,50,2.91,126,32,0.0,Clouds,scattered clouds,9
Bajánsenye,46.818056,16.358056,2026-03-06 09:49:31.371040,12.05,10.98,12.05,12.05,1025,64,2.67,162,0,0.0,Clear,clear sky,9
Aquincum,47.566218,19.048273,2026-03-06 09:49:32.534165,12.5,10.98,12.23,12.81,1027,45,1.34,127,27,0.0,Clouds,scattered clouds,9
Piliscsév,47.673889,18.791389,2026-03-06 09:49:33.696779,12.2,10.68,11.81,12.4,1027,46,2.14,134,34,0.0,Clouds,scattered clouds,9
Tát,47.741201,18.64783,2026-03-06 09:49:34.863204,12.62,11.24,12.62,12.62,1026,50,2.18,141,37,0.0,Clouds,scattered clouds,9
Süttő felső,47.756667,18.437222,2026-03-06 09:49:36.033133,12.33,10.92,12.33,12.33,1026,50,2.38,143,29,0.0,Clouds,scattered clouds,9
Budatétény,47.405,19.016389,2026-03-06 09:49:37.196293,12.78,11.26,12.27,12.85,1027,44,4.12,130,0,0.0,Clear,clear sky,9
Seregélyes-Szőlőhegy,47.119444,18.612222,2026-03-06 09:49:38.360801,12.61,11.18,12.61,12.61,1026,48,2.44,120,11,0.0,Clouds,few clouds,9
Gödöllő-Állami telepek,47.564444,19.375556,2026-03-06 09:49:39.520784,11.77,9.97,11.71,12.3,1027,37,4.12,130,0,0.0,Clear,clear sky,9
Dunakeszi alsó,47.607778,19.128889,2026-03-06 09:49:40.688547,12.35,10.79,12.19,12.78,1027,44,0.45,66,16,0.0,Clouds,few clouds,9
Vác-Alsóváros,47.773056,19.149722,2026-03-06 09:49:41.848468,12.17,10.72,12.17,12.58,1027,49,2.04,134,8,0.0,Clear,clear sky,9
Szob alsó,47.816667,18.8725,2026-03-06 09:49:43.009037,12.61,11.26,12.61,12.61,1027,51,1.88,132,22,0.0,Clouds,few clouds,9
Zalaszentmihály-Pacsa,46.7225,16.951944,2026-03-06 09:49:44.171060,11.75,10.6,11.75,11.75,1026,62,1.03,0,0,0.0,Clear,clear sky,9
Pötréte,46.682778,16.9575,2026-03-06 09:49:45.337688,11.75,10.6,11.75,11.75,1026,62,1.03,0,0,0.0,Clear,clear sky,9
Felsőrajk,46.667222,16.982778,2026-03-06 09:49:46.499794,11.81,10.67,11.81,11.81,1026,62,1.03,0,0,0.0,Clear,clear sky,9
Gelse,46.600556,16.982778,2026-03-06 09:49:47.661926,11.81,10.67,11.81,11.81,1026,62,1.03,0,0,0.0,Clear,clear sky,9
Őrtilos,46.297778,16.887778,2026-03-06 09:49:48.824973,12.82,11.72,12.82,12.82,1026,60,2.25,153,0,0.0,Clear,clear sky,9
Zákány,46.251944,16.9425,2026-03-06 09:49:49.998018,12.64,11.53,12.64,12.64,1026,60,2.25,149,0,0.0,Clear,clear sky,9
Berzence,46.201389,17.143611,2026-03-06 09:49:51.169539,13.01,11.85,13.01,13.01,1026,57,2.5,143,0,0.0,Clear,clear sky,9
Somogyudvarhely,46.163333,17.179722,2026-03-06 09:49:52.332627,13.02,11.87,13.02,13.02,1026,57,2.56,140,0,0.0,Clear,clear sky,9
Bélavár,46.122778,17.207778,2026-03-06 09:49:53.499045,13.18,12.02,13.18,13.18,1026,56,2.59,134,0,0.0,Clear,clear sky,9
Vízvár,46.101389,17.239444,2026-03-06 09:49:54.665099,13.12,11.95,13.12,13.12,1026,56,2.61,131,0,0.0,Clear,clear sky,9
Babócsa,46.028359,17.342276,2026-03-06 09:49:55.831876,13.23,12.07,13.23,13.23,1026,56,2.65,127,0,0.0,Clear,clear sky,9
Péterhida-Komlósd,46.006667,17.358056,2026-03-06 09:49:57.007748,13.36,12.21,13.36,13.36,1026,56,2.61,125,0,0.0,Clear,clear sky,9
Barcs,45.951944,17.446944,2026-03-06 09:49:58.167688,13.52,12.39,13.52,13.52,1026,56,2.66,121,0,0.0,Clear,clear sky,9
Barcs felső,45.958333,17.486389,2026-03-06 09:49:59.326241,13.43,12.29,13.43,13.43,1026,56,2.74,121,0,0.0,Clear,clear sky,9
Középrigóc,45.970556,17.525,2026-03-06 09:50:00.489966,13.34,12.19,13.34,13.34,1026,56,2.82,122,0,0.0,Clear,clear sky,9
Darány,45.992222,17.598611,2026-03-06 09:50:01.647253,13.21,12.1,13.21,13.21,1026,58,3.03,126,0,0.0,Clear,clear sky,9
Kisdobsza,46.012222,17.668056,2026-03-06 09:50:02.803760,13.19,12.11,13.19,13.19,1026,59,3.08,129,0,0.0,Clear,clear sky,9
Nemeske,46.023333,17.705278,2026-03-06 09:50:03.974767,13.21,12.13,13.21,13.21,1026,59,3.1,130,0,0.0,Clear,clear sky,9
Molvány,46.035278,17.748611,2026-03-06 09:50:05.141386,13.16,12.07,13.16,13.16,1026,59,3.03,134,0,0.0,Clear,clear sky,9
Szigetvár,46.043333,17.801944,2026-03-06 09:50:06.310599,13.13,12.04,13.13,13.13,1026,59,3.02,134,0,0.0,Clear,clear sky,9
Nagypeterd,46.039444,17.871667,2026-03-06 09:50:07.469663,12.53,11.35,12.53,12.53,1026,58,2.97,135,0,0.0,Clear,clear sky,9
Szentdénes,46.036667,17.926944,2026-03-06 09:50:08.639798,12.48,11.3,12.48,12.48,1026,58,2.93,135,0,0.0,Clear,clear sky,9
Háros,47.412222,19.035,2026-03-06 09:50:09.807246,12.72,11.17,12.23,12.81,1027,43,4.12,130,0,0.0,Clear,clear sky,9
Nagytétény-Diósd,47.398333,18.974444,2026-03-06 09:50:10.966421,12.8,11.28,12.26,12.84,1027,44,2.32,124,35,0.0,Clouds,scattered clouds,9
Érdliget,47.390278,18.937778,2026-03-06 09:50:12.133526,12.7,11.2,12.17,12.76,1027,45,2.4,124,34,0.0,Clouds,scattered clouds,9
Érd felső,47.381111,18.922222,2026-03-06 09:50:13.292283,12.67,11.17,12.14,12.73,1027,45,2.49,124,33,0.0,Clouds,scattered clouds,9
Érd,47.369722,18.900833,2026-03-06 09:50:14.456775,12.63,11.12,12.1,12.69,1027,45,2.53,124,33,0.0,Clouds,scattered clouds,9
Százhalombatta,47.322222,18.899167,2026-03-06 09:50:15.616710,12.64,11.16,12.09,12.67,1027,46,2.6,124,30,0.0,Clouds,scattered clouds,9
Dunai Finomító,47.294444,18.878889,2026-03-06 09:50:16.776915,14.56,13.12,12.46,14.58,1027,40,2.68,123,25,0.0,Clouds,scattered clouds,9
Ercsi,47.247222,18.875278,2026-03-06 09:50:17.936010,14.8,13.54,12.68,14.81,1027,46,2.67,123,24,0.0,Clouds,few clouds,9
Iváncsa,47.177778,18.811944,2026-03-06 09:50:19.098087,12.59,11.13,12.59,12.59,1027,47,2.63,124,17,0.0,Clouds,few clouds,9
Pusztaszabolcs,47.139722,18.761667,2026-03-06 09:50:20.252408,12.67,11.22,12.67,12.67,1027,47,2.58,123,15,0.0,Clouds,few clouds,9
Szabadegyháza,47.082778,18.704167,2026-03-06 09:50:21.416197,12.66,11.21,12.66,12.66,1026,47,2.53,123,14,0.0,Clouds,few clouds,9
Sárosd,47.039722,18.660278,2026-03-06 09:50:22.574993,12.68,11.26,12.68,12.68,1026,48,2.47,122,13,0.0,Clouds,few clouds,9
Nagylók,46.979444,18.635833,2026-03-06 09:50:23.750622,12.58,11.15,12.58,12.58,1026,48,2.49,124,14,0.0,Clouds,few clouds,9
Sárbogárd,46.896944,18.611944,2026-03-06 09:50:24.906456,12.81,11.43,12.81,12.81,1026,49,2.51,124,13,0.0,Clouds,few clouds,9
Rétszilas,46.814167,18.601389,2026-03-06 09:50:26.197301,12.9,11.53,12.9,12.9,1026,49,2.57,125,11,0.0,Clouds,few clouds,9
Nagyatád,46.228611,17.354167,2026-03-06 09:50:27.357036,12.95,11.76,12.95,12.95,1026,56,2.69,142,0,0.0,Clear,clear sky,9
Budapest-Keleti,47.500278,19.084167,2026-03-06 09:50:28.520559,12.58,11.02,12.17,12.76,1027,43,4.12,130,0,0.0,Clear,clear sky,9
Ferencváros,47.468611,19.088056,2026-03-06 09:50:29.689680,13.57,12.08,12.19,14.85,1027,42,4.12,130,0,0.0,Clear,clear sky,9
Budapest-Nyugati,47.510833,19.0575,2026-03-06 09:50:30.846122,13.25,11.75,12.19,14.84,1027,43,4.12,130,0,0.0,Clear,clear sky,9
Kőbánya felső,47.491944,19.133889,2026-03-06 09:50:32.003091,13.14,11.58,12.12,14.77,1027,41,4.12,130,0,0.0,Clear,clear sky,9
Rákos,47.488889,19.174722,2026-03-06 09:50:33.170780,12.96,11.38,12.08,14.73,1027,41,4.12,130,0,0.0,Clear,clear sky,9
Rákosrendező,47.525556,19.089444,2026-03-06 09:50:34.327996,13.11,11.6,12.22,14.87,1027,43,4.12,130,0,0.0,Clear,clear sky,9
Zugló,47.511389,19.101389,2026-03-06 09:50:35.489291,13.18,11.65,12.18,14.84,1027,42,4.12,130,0,0.0,Clear,clear sky,9
Mezőtárkány,47.725,20.480278,2026-03-06 09:50:36.662171,13.23,11.89,13.23,13.23,1027,49,0.61,98,3,0.0,Clear,clear sky,9
Istvántelek,47.550278,19.106389,2026-03-06 09:50:37.828528,12.91,11.38,12.21,14.86,1027,43,4.12,130,0,0.0,Clear,clear sky,9
Rákospalota-Újpest,47.565833,19.111944,2026-03-06 09:50:38.985232,12.84,11.3,12.2,14.86,1027,43,4.12,130,0,0.0,Clear,clear sky,9
Kőbánya alsó,47.483056,19.127222,2026-03-06 09:50:40.156184,13.23,11.68,12.13,14.78,1027,41,4.12,130,0,0.0,Clear,clear sky,9
Kőbánya-Kispest,47.463889,19.149444,2026-03-06 09:50:41.323193,13.19,11.64,12.13,14.78,1027,41,4.12,130,0,0.0,Clear,clear sky,9
Pestszentlőrinc,47.454722,19.182778,2026-03-06 09:50:42.489555,12.97,11.39,12.07,14.73,1027,41,4.12,130,0,0.0,Clear,clear sky,9
Kispest,47.448135,19.157552,2026-03-06 09:50:43.648283,13.18,11.62,12.14,14.79,1027,41,4.12,130,0,0.0,Clear,clear sky,9
Újpest,47.558889,19.079722,2026-03-06 09:50:44.801705,12.45,10.9,12.23,12.82,1027,44,4.12,130,0,0.0,Clear,clear sky,9
Pestszentimre felső,47.413611,19.173333,2026-03-06 09:50:45.970429,13.17,11.61,12.16,14.82,1027,41,4.12,130,0,0.0,Clear,clear sky,9
Dunakeszi,47.626111,19.136111,2026-03-06 09:50:47.130191,12.63,11.1,12.1,14.76,1027,44,0.45,66,14,0.0,Clouds,few clouds,9
Dunakeszi-Gyártelep,47.643611,19.135,2026-03-06 09:50:48.288679,12.46,10.91,12.15,13.79,1027,44,1.78,132,13,0.0,Clouds,few clouds,9
Alsógöd,47.676944,19.134444,2026-03-06 09:50:49.456092,12.45,10.9,12.14,13.78,1027,44,1.83,132,11,0.0,Clouds,few clouds,9
Göd,47.687778,19.1375,2026-03-06 09:50:50.616424,12.47,10.92,12.16,13.8,1027,44,1.83,132,11,0.0,Clouds,few clouds,9
Felsőgöd,47.705556,19.143333,2026-03-06 09:50:51.780438,12.22,10.65,12.21,13.84,1027,44,1.88,133,10,0.0,Clear,clear sky,9
Sződ-Sződliget,47.728056,19.154722,2026-03-06 09:50:52.941419,12.22,10.65,12.2,13.84,1027,44,1.95,133,9,0.0,Clear,clear sky,9
Vác,47.782778,19.133056,2026-03-06 09:50:54.097360,12.17,10.72,12.17,12.58,1027,49,2.04,134,8,0.0,Clear,clear sky,9
Verőce,47.823889,19.029444,2026-03-06 09:50:55.255254,12.01,10.6,12.01,12.41,1027,51,1.98,129,11,0.0,Clouds,few clouds,9
Kismaros,47.8275,19.010278,2026-03-06 09:50:56.423143,12.54,11.18,12.54,12.54,1027,51,1.95,129,13,0.0,Clouds,few clouds,9
Nagymaros-Visegrád,47.791389,18.959167,2026-03-06 09:50:57.586552,12.56,11.2,12.16,12.56,1027,51,1.84,130,17,0.0,Clouds,few clouds,9
Nagymaros,47.780278,18.952222,2026-03-06 09:50:58.745069,12.64,11.29,12.23,12.64,1027,51,1.84,130,17,0.0,Clouds,few clouds,9
Zebegény,47.801389,18.908889,2026-03-06 09:50:59.908096,12.61,11.26,12.21,12.61,1027,51,1.87,130,18,0.0,Clouds,few clouds,9
Szob,47.821111,18.861944,2026-03-06 09:51:01.069202,12.57,11.21,12.57,12.57,1027,51,1.9,132,20,0.0,Clouds,few clouds,9
Alagimajor,47.601944,19.153889,2026-03-06 09:51:02.231577,12.73,11.18,12.15,14.8,1027,43,4.12,130,0,0.0,Clear,clear sky,9
Fót,47.611389,19.181667,2026-03-06 09:51:03.394531,12.32,10.73,12.04,13.68,1027,43,1.76,132,12,0.0,Clouds,few clouds,9
Fótújfalu,47.615,19.192778,2026-03-06 09:51:04.559377,12.22,10.62,11.94,13.58,1027,43,1.76,132,12,0.0,Clouds,few clouds,9
Csomád,47.635556,19.222778,2026-03-06 09:51:05.726827,11.92,10.32,11.67,13.31,1027,44,1.8,133,11,0.0,Clouds,few clouds,9
Veresegyház,47.649167,19.288611,2026-03-06 09:51:06.888465,11.94,10.34,11.82,13.46,1027,44,2.02,135,7,0.0,Clear,clear sky,9
Erdőkertes,47.662222,19.295833,2026-03-06 09:51:08.052609,11.88,10.27,11.77,13.41,1027,44,2.02,135,7,0.0,Clear,clear sky,9
Őrbottyán,47.685833,19.283611,2026-03-06 09:51:09.212940,11.69,10.09,11.69,13.33,1027,45,2.07,136,7,0.0,Clear,clear sky,9
Váchartyán,47.725833,19.248889,2026-03-06 09:51:10.383186,12.05,10.51,12.05,12.05,1027,46,2.11,137,7,0.0,Clear,clear sky,9
Magyarkút-Verőce,47.826111,19.044444,2026-03-06 09:51:11.543461,12.17,10.77,12.17,12.17,1027,51,1.98,129,11,0.0,Clouds,few clouds,9
Szokolya,47.871111,19.030556,2026-03-06 09:51:12.707309,10.89,9.37,10.89,10.89,1027,51,2.07,128,11,0.0,Clouds,few clouds,9
Berkenye,47.885278,19.071944,2026-03-06 09:51:13.869302,11.61,10.16,11.61,11.61,1027,51,2.1,129,10,0.0,Clear,clear sky,9
Nógrád,47.901944,19.0475,2026-03-06 09:51:15.038221,11.22,9.76,11.22,11.22,1027,52,2.12,128,10,0.0,Clear,clear sky,9
Diósjenő,47.94,19.049444,2026-03-06 09:51:16.197877,10.84,9.34,10.84,10.84,1027,52,2.16,128,10,0.0,Clear,clear sky,9
Borsosberény,47.971389,19.093056,2026-03-06 09:51:17.360064,11.54,10.08,11.54,11.54,1027,51,2.19,132,9,0.0,Clear,clear sky,9
Nagyoroszi,47.993611,19.101111,2026-03-06 09:51:18.527529,11.37,9.92,11.37,11.37,1027,52,2.22,132,9,0.0,Clear,clear sky,9
Drégelyvár,48.001944,19.079444,2026-03-06 09:51:19.687029,11.62,10.2,11.62,11.62,1027,52,2.31,129,10,0.0,Clear,clear sky,9
Drégely,48.042222,19.056111,2026-03-06 09:51:20.853361,11.98,10.59,11.98,11.98,1027,52,2.33,129,10,0.0,Clear,clear sky,9
Drégelypalánk,48.055,19.046111,2026-03-06 09:51:22.023920,12.11,10.73,12.11,12.11,1027,52,2.37,128,10,0.0,Clear,clear sky,9
Ipolyvece,48.056944,19.106389,2026-03-06 09:51:23.182351,12.1,10.72,12.1,12.1,1027,52,2.31,132,8,0.0,Clear,clear sky,9
Dejtár,48.045556,19.196389,2026-03-06 09:51:24.347891,12.03,10.65,12.03,12.03,1027,52,2.16,136,7,0.0,Clear,clear sky,9
Ipolyszög,48.054444,19.221944,2026-03-06 09:51:25.503969,12.05,10.67,12.05,12.05,1027,52,2.11,138,6,0.0,Clear,clear sky,9
Iklad-Domony,47.658056,19.444444,2026-03-06 09:51:26.664520,12.1,10.54,12.1,12.1,1027,45,2.11,136,6,0.0,Clear,clear sky,9
Iklad-Domony felső,47.667778,19.428056,2026-03-06 09:51:27.823514,12.09,10.53,12.06,12.09,1027,45,2.11,137,6,0.0,Clear,clear sky,9
Galgamácsa,47.693889,19.3925,2026-03-06 09:51:28.986949,12.05,10.49,12.05,12.05,1027,45,2.12,138,6,0.0,Clear,clear sky,9
Vácrátót,47.732778,19.217778,2026-03-06 09:51:30.145963,11.97,10.45,11.97,11.97,1027,47,2.04,135,8,0.0,Clear,clear sky,9
Csörög,47.735833,19.196389,2026-03-06 09:51:31.321677,11.98,10.46,11.97,13.61,1027,47,1.99,134,8,0.0,Clear,clear sky,9
Galgagyörk,47.735278,19.372222,2026-03-06 09:51:32.484842,11.95,10.4,11.95,11.95,1027,46,2.13,139,6,0.0,Clear,clear sky,9
Püspökhatvan,47.768611,19.366944,2026-03-06 09:51:33.645867,12.04,10.5,12.04,12.04,1027,46,2.07,140,6,0.0,Clear,clear sky,9
Acsa-Erdőkürt,47.801111,19.386111,2026-03-06 09:51:34.807953,11.87,10.34,11.87,11.87,1027,47,2.02,141,6,0.0,Clear,clear sky,9
Galgaguta,47.848611,19.385556,2026-03-06 09:51:35.968104,11.55,10.01,11.55,11.55,1027,48,1.85,143,6,0.0,Clear,clear sky,9
Nógrádkövesd,47.879444,19.371111,2026-03-06 09:51:37.134330,11.71,10.19,11.71,11.71,1027,48,1.76,144,6,0.0,Clear,clear sky,9
Magyarnándor,47.970833,19.356667,2026-03-06 09:51:38.294615,11.55,10.07,11.55,11.55,1027,50,1.65,144,5,0.0,Clear,clear sky,9
Mohora,47.995556,19.347778,2026-03-06 09:51:39.455399,11.66,10.19,11.66,11.66,1027,50,1.61,144,5,0.0,Clear,clear sky,9
Szügy,48.036389,19.333056,2026-03-06 09:51:40.615853,11.87,10.44,11.87,11.87,1027,51,1.59,143,5,0.0,Clear,clear sky,9
Balassagyarmat,48.071111,19.293611,2026-03-06 09:51:41.771039,11.97,10.58,11.97,11.97,1027,52,1.76,141,5,0.0,Clear,clear sky,9
Őrhalom,48.078773,19.403936,2026-03-06 09:51:42.930366,11.73,10.32,11.73,11.73,1027,52,1.09,141,4,0.0,Clear,clear sky,9
Hugyag,48.083056,19.421111,2026-03-06 09:51:44.094935,11.73,10.32,11.73,11.73,1027,52,1.09,141,4,0.0,Clear,clear sky,9
Szécsény,48.093056,19.521111,2026-03-06 09:51:45.255186,11.97,10.61,11.97,11.97,1027,53,0.64,136,4,0.0,Clear,clear sky,9
Ludányhalászi,48.1325,19.529444,2026-03-06 09:51:46.415314,11.93,10.56,11.93,11.93,1027,53,0.71,130,4,0.0,Clear,clear sky,9
Nógrádszakál,48.178333,19.521667,2026-03-06 09:51:47.576955,11.88,10.53,11.88,11.88,1027,54,0.76,129,3,0.0,Clear,clear sky,9
Ráróspuszta,48.207222,19.541389,2026-03-06 09:51:48.736664,11.31,9.91,11.31,11.31,1027,54,0.88,129,3,0.0,Clear,clear sky,9
Litke,48.215833,19.598611,2026-03-06 09:51:49.900022,11.82,10.47,11.82,11.82,1027,54,0.54,120,3,0.0,Clear,clear sky,9
Nyíregyháza külső,47.943056,21.740278,2026-03-06 09:51:51.065749,11.08,9.37,11.08,11.08,1027,43,3.21,17,14,0.0,Clouds,few clouds,9
Oros,47.945833,21.806389,2026-03-06 09:51:52.235534,11.06,9.32,11.06,11.06,1027,42,3.28,16,14,0.0,Clouds,few clouds,9
Napkor,47.948889,21.873056,2026-03-06 09:51:53.402137,11.01,9.26,11.01,11.01,1027,42,3.2,13,14,0.0,Clouds,few clouds,9
Apagy,47.953775,21.939044,2026-03-06 09:51:54.566641,10.99,9.24,10.99,10.99,1027,42,3.13,13,13,0.0,Clouds,few clouds,9
Levelek-Magy,47.948056,21.993611,2026-03-06 09:51:55.735865,10.92,9.16,10.92,10.92,1027,42,2.98,12,12,0.0,Clouds,few clouds,9
Ófehértó,47.940556,22.041389,2026-03-06 09:51:56.895659,10.82,9.05,10.82,10.82,1027,42,2.93,12,12,0.0,Clouds,few clouds,9
Ligettanya,47.951667,22.071389,2026-03-06 09:51:58.055697,10.76,9.01,10.76,10.76,1027,43,2.76,12,11,0.0,Clouds,few clouds,9
Baktalórántháza,47.988611,22.083333,2026-03-06 09:51:59.217289,10.76,9.01,10.76,10.76,1027,43,2.73,12,12,0.0,Clouds,few clouds,9
Vaja-Rohod,48.006389,22.164167,2026-03-06 09:52:00.378149,10.75,9.03,10.75,10.75,1027,44,2.58,12,14,0.0,Clouds,few clouds,9
Rákóczitanya,48.022222,22.178333,2026-03-06 09:52:01.555023,10.71,8.99,10.71,10.71,1027,44,2.51,12,15,0.0,Clouds,few clouds,9
Nyírmada,48.059167,22.203056,2026-03-06 09:52:02.719379,10.73,9.01,10.73,10.73,1027,44,2.46,12,19,0.0,Clouds,few clouds,9
Tunyogmatolcs,47.960244,22.442247,2026-03-06 09:52:03.882535,10.86,9.18,10.86,10.86,1027,45,2.14,14,39,0.0,Clouds,scattered clouds,9
Tunyogmatolcs alsó,47.966025,22.464713,2026-03-06 09:52:05.044357,10.83,9.14,10.83,10.83,1027,45,2.09,14,43,0.0,Clouds,scattered clouds,9
Fehérgyarmat,47.979167,22.524444,2026-03-06 09:52:06.211817,10.83,9.14,10.83,10.83,1027,45,1.92,12,50,0.0,Clouds,scattered clouds,9
Penyige,47.995278,22.566944,2026-03-06 09:52:07.372774,10.84,9.15,10.84,10.84,1027,45,1.88,11,51,0.0,Clouds,broken clouds,9
Nagyszekeres,47.976111,22.6125,2026-03-06 09:52:08.535203,10.83,9.14,10.83,10.83,1027,45,1.83,10,52,0.0,Clouds,broken clouds,9
Kisszekeres,47.965833,22.629444,2026-03-06 09:52:09.696459,10.82,9.13,10.82,10.82,1027,45,1.88,11,53,0.0,Clouds,broken clouds,9
Jánkmajtis,47.941944,22.657222,2026-03-06 09:52:10.857509,10.8,9.11,10.8,10.8,1027,45,1.87,11,53,0.0,Clouds,broken clouds,9
Gacsály,47.926111,22.745,2026-03-06 09:52:12.027193,10.04,8.27,10.03,10.04,1027,45,1.75,8,51,0.0,Clouds,broken clouds,9
Zajta,47.9025,22.796111,2026-03-06 09:52:13.194078,10.03,8.26,10.03,10.03,1027,45,1.7,7,49,0.0,Clouds,scattered clouds,9
Eperjeske alsó,48.360556,22.19,2026-03-06 09:52:14.357787,10.94,9.34,10.94,10.94,1027,48,2.19,359,32,0.0,Clouds,scattered clouds,9
Mándok,48.326944,22.196389,2026-03-06 09:52:15.524571,10.88,9.25,10.88,10.88,1027,47,2.24,2,32,0.0,Clouds,scattered clouds,9
Tornyospálca,48.268333,22.201944,2026-03-06 09:52:16.694911,10.89,9.26,10.89,10.89,1027,47,2.28,5,31,0.0,Clouds,scattered clouds,9
Aranyosapáti,48.211303,22.253534,2026-03-06 09:52:17.858245,10.91,9.26,10.91,10.91,1027,46,2.06,8,36,0.0,Clouds,scattered clouds,9
Gyüre,48.171389,22.269167,2026-03-06 09:52:19.026866,10.87,9.21,10.87,10.87,1027,46,2.14,11,33,0.0,Clouds,scattered clouds,9
Varsány,48.151722,22.290047,2026-03-06 09:52:20.197609,10.86,9.2,10.86,10.86,1027,46,2.1,12,34,0.0,Clouds,scattered clouds,9
Vásárosnamény,48.126667,22.306111,2026-03-06 09:52:21.360198,10.86,9.2,10.86,10.86,1027,46,2.14,12,32,0.0,Clouds,scattered clouds,9
Vitka,48.095556,22.308056,2026-03-06 09:52:22.530398,10.85,9.17,10.85,10.85,1027,45,2.17,13,31,0.0,Clouds,scattered clouds,9
Nagydobos,48.054167,22.311111,2026-03-06 09:52:23.687678,10.78,9.09,10.78,10.78,1027,45,2.21,13,29,0.0,Clouds,scattered clouds,9
Ópályi,47.997778,22.318333,2026-03-06 09:52:24.843956,10.77,9.08,10.77,10.77,1027,45,2.31,14,24,0.0,Clouds,few clouds,9
Nyírcsaholy,47.908056,22.348333,2026-03-06 09:52:26.000461,10.84,9.13,10.84,10.84,1027,44,2.39,15,24,0.0,Clouds,few clouds,9
Nagyecsed,47.864722,22.385556,2026-03-06 09:52:27.155694,10.86,9.15,10.86,10.86,1027,44,2.36,16,33,0.0,Clouds,scattered clouds,9
Tiborszállás,47.815278,22.402778,2026-03-06 09:52:28.316120,10.87,9.14,10.87,10.87,1027,43,2.42,16,31,0.0,Clouds,scattered clouds,9
Kiskunhalas,46.434444,19.493611,2026-03-06 09:52:29.480972,12.9,11.42,12.9,12.9,1027,45,3.03,114,42,0.0,Clouds,scattered clouds,9
Kecskemét alsó,46.895833,19.692222,2026-03-06 09:52:30.636810,13.92,12.54,13.77,13.92,1027,45,1.34,19,16,0.0,Clouds,few clouds,9
Putnok,48.286667,20.4375,2026-03-06 09:52:31.799082,13.33,12.08,13.33,13.33,1027,52,0.48,10,5,0.0,Clear,clear sky,9
Bánréve,48.299722,20.351944,2026-03-06 09:52:32.959446,13.32,12.07,13.32,13.32,1027,52,0.37,2,4,0.0,Clear,clear sky,9
Ipolytarnóc,48.236667,19.629167,2026-03-06 09:52:34.120234,11.76,10.43,11.76,11.76,1027,55,0.52,121,3,0.0,Clear,clear sky,9
Rákosliget,47.486111,19.257778,2026-03-06 09:52:35.285731,12.47,10.79,12.03,13.64,1027,39,4.12,130,0,0.0,Clear,clear sky,9
Ikrény,47.657778,17.524167,2026-03-06 09:52:36.446114,13.08,11.91,13.08,13.08,1026,56,1.78,146,5,0.0,Clear,clear sky,9
Rábapatona,47.648889,17.461944,2026-03-06 09:52:37.606332,13.1,11.95,13.1,13.1,1026,57,1.73,149,4,0.0,Clear,clear sky,9
Enese,47.644167,17.425278,2026-03-06 09:52:38.768187,13.1,11.98,13.1,13.1,1026,58,1.83,152,3,0.0,Clear,clear sky,9
Kóny,47.632222,17.357222,2026-03-06 09:52:39.966381,12.16,10.97,12.16,12.16,1026,59,1.88,158,3,0.0,Clear,clear sky,9
Farád,47.595278,17.195833,2026-03-06 09:52:41.128137,11.68,10.47,11.68,11.68,1026,60,2.72,163,3,0.0,Clear,clear sky,9
Rábatamási,47.592778,17.161389,2026-03-06 09:52:42.291768,11.68,10.47,11.68,11.68,1026,60,2.72,163,3,0.0,Clear,clear sky,9
Szárföld,47.589167,17.123889,2026-03-06 09:52:43.453421,11.66,10.45,11.66,11.66,1026,60,2.83,163,3,0.0,Clear,clear sky,9
Veszkény,47.586944,17.101389,2026-03-06 09:52:44.619714,11.67,10.56,11.67,11.67,1026,64,2.93,164,3,0.0,Clear,clear sky,9
Kapuvár,47.581944,17.046944,2026-03-06 09:52:45.782018,11.65,10.54,11.65,11.65,1026,64,3.17,166,2,0.0,Clear,clear sky,9
Vitnyéd-Csermajor,47.5825,16.987222,2026-03-06 09:52:46.947257,11.66,10.55,11.66,11.66,1025,64,3.43,167,2,0.0,Clear,clear sky,9
Petőháza,47.595278,16.893056,2026-03-06 09:52:48.108433,11.61,10.5,11.61,11.61,1025,64,3.96,166,2,0.0,Clear,clear sky,9
Fertőszentmiklós,47.6,16.858889,2026-03-06 09:52:49.273034,11.61,10.5,11.61,12.27,1025,64,4.13,166,2,0.0,Clear,clear sky,9
Pinnye,47.600278,16.768611,2026-03-06 09:52:50.444028,11.49,10.37,11.49,12.15,1025,64,4.57,166,1,0.0,Clear,clear sky,9
Fertőboz,47.625,16.691667,2026-03-06 09:52:51.609963,11.33,10.19,11.33,11.99,1025,64,4.71,164,1,0.0,Clear,clear sky,9
Sopron,47.677778,16.587222,2026-03-06 09:52:52.769371,11.03,9.81,11.03,11.69,1025,62,4.84,159,1,0.0,Clear,clear sky,9
Fertőszéplak-Fertőd,47.618889,16.850833,2026-03-06 09:52:53.931792,11.63,10.52,11.63,12.29,1025,64,4.31,165,2,0.0,Clear,clear sky,9
Nyúl,47.587778,17.698056,2026-03-06 09:52:55.090441,13.02,11.6,13.02,14.14,1026,47,4.12,110,0,0.0,Clear,clear sky,9
Pannonhalma,47.547778,17.740833,2026-03-06 09:52:56.253839,12.96,11.54,12.96,14.08,1026,47,4.12,110,0,0.0,Clear,clear sky,9
Tarjánpuszta,47.504722,17.789167,2026-03-06 09:52:57.416624,12.73,11.29,12.73,13.84,1026,47,4.12,110,0,0.0,Clear,clear sky,9
Győrasszonyfa,47.4925,17.799167,2026-03-06 09:52:58.575150,12.66,11.21,12.66,13.77,1026,47,4.12,110,0,0.0,Clear,clear sky,9
Veszprémvarsány,47.443333,17.818333,2026-03-06 09:52:59.741021,12.71,11.42,12.71,13.83,1026,53,2.8,153,9,0.0,Clear,clear sky,9
Bakonyszentlászló,47.395556,17.8175,2026-03-06 09:53:00.903103,13.58,12.38,12.47,13.58,1026,53,2.78,153,8,0.0,Clear,clear sky,9
Porva-Csesznek,47.326944,17.841111,2026-03-06 09:53:02.063193,12.59,11.31,12.59,12.59,1026,54,2.73,151,8,0.0,Clear,clear sky,9
Zirc,47.266667,17.878056,2026-03-06 09:53:03.219794,10.22,8.71,10.22,10.22,1026,54,2.67,146,7,0.0,Clear,clear sky,9
Eplény,47.192778,17.921667,2026-03-06 09:53:04.382083,10.69,9.22,10.69,10.69,1026,54,2.4,136,7,0.0,Clear,clear sky,9
Marcaltő,47.4275,17.348889,2026-03-06 09:53:05.543317,14.17,13.05,14.17,14.17,1026,54,0.51,0,2,0.0,Clear,clear sky,9
Szany-Rábaszentandrás,47.460833,17.315278,2026-03-06 09:53:06.703630,14.17,13.05,14.17,14.17,1026,54,0.51,0,2,0.0,Clear,clear sky,9
Egyed-Rábacsanak,47.521944,17.316389,2026-03-06 09:53:07.865155,14.18,13.19,14.18,14.18,1026,59,2.14,173,2,0.0,Clear,clear sky,9
Rábapordány,47.557222,17.315,2026-03-06 09:53:09.028390,14.18,13.19,14.18,14.18,1026,59,2.09,170,2,0.0,Clear,clear sky,9
Albertfalva,47.440784,19.033965,2026-03-06 09:53:10.189434,14.13,12.67,12.28,14.91,1027,41,4.12,130,0,0.0,Clear,clear sky,9
Budafok,47.425833,19.041389,2026-03-06 09:53:11.348739,14.17,12.71,12.29,14.91,1027,41,4.12,130,0,0.0,Clear,clear sky,9
Tétényliget,47.384722,18.955278,2026-03-06 09:53:12.515070,14.34,12.93,12.31,14.93,1027,42,1.34,98,34,0.0,Clouds,scattered clouds,9
Érd alsó,47.379722,18.923056,2026-03-06 09:53:13.665507,12.67,11.17,12.14,12.73,1027,45,2.49,124,33,0.0,Clouds,scattered clouds,9
Tárnok,47.365556,18.873889,2026-03-06 09:53:14.834844,14.24,12.82,12.23,14.86,1027,42,2.67,123,29,0.0,Clouds,scattered clouds,9
Martonvásár,47.321389,18.781667,2026-03-06 09:53:15.999910,14.65,13.4,12.54,14.79,1027,47,2.74,123,22,0.0,Clouds,few clouds,9
Baracska,47.297222,18.753333,2026-03-06 09:53:17.161026,14.89,13.66,12.82,14.89,1027,47,2.71,122,19,0.0,Clouds,few clouds,9
Pettend,47.26,18.708889,2026-03-06 09:53:18.326145,14.79,13.55,14.79,14.79,1027,47,2.65,121,15,0.0,Clouds,few clouds,9
Kápolnásnyék,47.245556,18.692222,2026-03-06 09:53:19.488707,14.82,13.58,14.82,14.82,1027,47,2.59,121,13,0.0,Clouds,few clouds,9
Velence,47.226944,18.663889,2026-03-06 09:53:20.652552,14.84,13.61,14.84,14.84,1027,47,2.57,120,12,0.0,Clouds,few clouds,9
Velencefürdő,47.218611,18.648056,2026-03-06 09:53:21.814608,12.66,11.21,12.66,12.66,1027,47,2.53,120,11,0.0,Clouds,few clouds,9
Gárdony,47.205833,18.624722,2026-03-06 09:53:22.986515,12.66,11.23,12.66,12.66,1027,48,2.5,119,11,0.0,Clouds,few clouds,9
Agárd,47.197666,18.604907,2026-03-06 09:53:24.147680,12.66,11.23,12.66,12.66,1027,48,2.5,119,11,0.0,Clouds,few clouds,9
Dinnyés,47.179722,18.560833,2026-03-06 09:53:25.312361,12.64,11.21,12.64,12.64,1027,48,2.42,118,10,0.0,Clear,clear sky,9
Székesfehérvár,47.183611,18.424722,2026-03-06 09:53:26.475388,12.52,11.11,12.52,12.52,1027,49,2.3,117,11,0.0,Clouds,few clouds,9
Szabadbattyán,47.105278,18.388333,2026-03-06 09:53:27.642199,12.5,11.06,12.5,12.5,1026,48,2.27,115,11,0.0,Clouds,few clouds,9
Kiscséripuszta,47.048056,18.355,2026-03-06 09:53:28.803133,9.68,8.6,9.68,9.68,1026,48,2.28,115,11,0.0,Clouds,few clouds,9
Lepsény,46.9875,18.248056,2026-03-06 09:53:29.970599,9.9,8.84,9.9,9.9,1026,72,2.31,114,10,0.0,Clear,clear sky,9
Balatonaliga,46.984444,18.171389,2026-03-06 09:53:31.131268,9.71,8.66,9.71,9.71,1026,72,2.25,112,10,0.0,Clear,clear sky,9
Balatonvilágos,46.964167,18.157222,2026-03-06 09:53:32.289415,9.75,8.71,9.75,9.75,1026,72,2.25,111,9,0.0,Clear,clear sky,9
Szabadifürdő,46.926111,18.103333,2026-03-06 09:53:33.456270,9.92,8.88,9.92,9.92,1026,72,2.28,111,8,0.0,Clear,clear sky,9
Ózd alsó,48.227778,20.306111,2026-03-06 09:53:34.619760,14.84,13.76,13.16,14.84,1026,53,0.55,354,3,0.0,Clear,clear sky,9
Ózd,48.2225,20.294722,2026-03-06 09:53:35.782903,14.89,13.82,13.21,14.89,1026,53,0.55,354,3,0.0,Clear,clear sky,9
Alsóboldva,48.212778,20.792222,2026-03-06 09:53:36.943712,14.3,13.12,11.55,14.56,1027,51,1.52,25,6,0.0,Clear,clear sky,9
Boldva,48.223333,20.790278,2026-03-06 09:53:38.106253,13.7,12.46,11.54,14.56,1027,51,1.52,25,6,0.0,Clear,clear sky,9
Borsodszirák,48.259167,20.770556,2026-03-06 09:53:39.269003,13.49,12.23,13.49,13.49,1027,51,1.25,29,6,0.0,Clear,clear sky,9
Edelény alsó,48.279167,20.760833,2026-03-06 09:53:40.428860,8.86,8.86,8.86,8.86,1027,51,1.25,29,6,0.0,Clear,clear sky,9
Edelény,48.299722,20.749444,2026-03-06 09:53:41.586037,8.84,8.84,8.84,8.84,1027,50,1.13,33,6,0.0,Clear,clear sky,9
Szendrőlád,48.334444,20.731944,2026-03-06 09:53:42.745918,8.75,8.75,8.75,8.75,1027,50,0.81,53,6,0.0,Clear,clear sky,9
Szendrő,48.400725,20.721346,2026-03-06 09:53:43.912106,10.87,9.29,10.87,10.87,1027,49,0.75,85,6,0.0,Clear,clear sky,9
Szendrő felső,48.409907,20.720148,2026-03-06 09:53:45.071097,10.87,9.29,10.87,10.87,1027,49,0.75,85,6,0.0,Clear,clear sky,9
Szalonna,48.449444,20.722222,2026-03-06 09:53:46.239309,11.0,9.41,11.0,11.0,1027,48,0.9,110,6,0.0,Clear,clear sky,9
Perkupa,48.471389,20.691111,2026-03-06 09:53:47.401947,10.37,8.72,10.37,10.37,1027,48,0.93,128,6,0.0,Clear,clear sky,9
Szemeretelep,47.443056,19.214167,2026-03-06 09:53:48.563564,12.89,11.28,12.09,14.72,1027,40,4.12,130,0,0.0,Clear,clear sky,9
Jósvafő-Aggtelek,48.489722,20.693889,2026-03-06 09:53:49.731941,10.73,9.11,10.73,10.73,1027,48,0.99,131,6,0.0,Clear,clear sky,9
Bódvaszilas,48.5375,20.738056,2026-03-06 09:53:50.900362,10.33,8.65,10.33,10.33,1027,47,1.08,121,6,0.0,Clear,clear sky,9
Komjáti,48.5475,20.759722,2026-03-06 09:53:52.062026,9.9,9.9,9.9,9.9,1027,46,1.1,116,6,0.0,Clear,clear sky,9
Tornanádaska,48.558333,20.787222,2026-03-06 09:53:53.220826,11.04,9.4,11.04,11.04,1027,46,1.11,110,6,0.0,Clear,clear sky,9
Onga,48.121111,20.906667,2026-03-06 09:53:54.385897,8.99,8.05,8.99,11.6,1027,48,1.96,21,7,0.0,Clear,clear sky,9
Szikszó-Vásártér,48.193056,20.934722,2026-03-06 09:53:55.559915,8.95,8.04,8.95,11.57,1027,48,1.92,16,7,0.0,Clear,clear sky,9
Szikszó,48.201667,20.941667,2026-03-06 09:53:56.725645,8.97,8.04,8.97,11.58,1027,48,1.94,14,7,0.0,Clear,clear sky,9
Aszaló,48.219867,20.961466,2026-03-06 09:53:57.885111,8.95,8.06,8.95,11.56,1027,48,1.9,13,7,0.0,Clear,clear sky,9
Halmaj,48.246667,20.991667,2026-03-06 09:53:59.052515,8.93,8.11,8.93,8.93,1027,48,1.82,13,7,0.0,Clear,clear sky,9
Csobád,48.277222,21.033889,2026-03-06 09:54:00.210210,8.9,8.18,8.9,8.9,1027,47,1.71,14,8,0.0,Clear,clear sky,9
Ináncs,48.291111,21.057778,2026-03-06 09:54:01.373105,8.9,8.42,8.9,8.9,1027,45,1.48,16,8,0.0,Clear,clear sky,9
Forró-Encs,48.3275,21.117778,2026-03-06 09:54:02.533706,10.87,9.19,10.87,10.87,1027,45,1.37,20,8,0.0,Clear,clear sky,9
Méra,48.363056,21.140278,2026-03-06 09:54:03.690755,10.7,8.97,10.7,10.7,1027,44,1.39,27,8,0.0,Clear,clear sky,9
Novajidrány,48.404444,21.170556,2026-03-06 09:54:04.853792,14.44,13.06,11.5,14.44,1027,43,1.42,30,8,0.0,Clear,clear sky,9
Hernádszurdok,48.487222,21.213889,2026-03-06 09:54:06.014401,14.36,12.61,14.01,14.36,1027,29,1.68,31,8,0.0,Clear,clear sky,9
Hidasnémeti,48.508333,21.229722,2026-03-06 09:54:07.177076,14.37,12.62,14.02,14.37,1027,29,1.78,31,8,0.0,Clear,clear sky,9
Mád,48.19,21.268889,2026-03-06 09:54:08.335613,10.66,8.96,10.66,10.66,1027,45,0.61,50,8,0.0,Clear,clear sky,9
Rátka,48.215,21.230278,2026-03-06 09:54:09.498776,11.0,9.33,11.0,11.0,1027,45,0.67,37,8,0.0,Clear,clear sky,9
Tállya,48.226944,21.225278,2026-03-06 09:54:10.657809,11.0,9.33,11.0,11.0,1027,45,0.67,37,8,0.0,Clear,clear sky,9
Golop,48.242778,21.204167,2026-03-06 09:54:11.826920,11.02,9.35,11.02,11.02,1027,45,0.97,20,8,0.0,Clear,clear sky,9
Abaújszántó,48.286944,21.181667,2026-03-06 09:54:12.996060,10.74,9.02,10.74,10.74,1027,44,1.07,22,8,0.0,Clear,clear sky,9
Abaújszántói fürdő,48.268333,21.179722,2026-03-06 09:54:14.166297,10.99,9.29,10.99,10.99,1027,44,1.01,21,8,0.0,Clear,clear sky,9
Abaújkér,48.309444,21.198333,2026-03-06 09:54:15.330249,10.75,9.03,10.75,10.75,1027,44,1.14,24,8,0.0,Clear,clear sky,9
Boldogkőváralja,48.345,21.208889,2026-03-06 09:54:16.493958,10.75,9.0,10.75,10.75,1027,43,1.02,32,8,0.0,Clear,clear sky,9
Korlát-Vizsoly,48.365,21.219167,2026-03-06 09:54:17.653880,10.88,9.15,10.88,10.88,1027,43,1.15,32,8,0.0,Clear,clear sky,9
Fony,48.411389,21.242778,2026-03-06 09:54:18.823188,11.3,9.58,11.3,11.3,1027,42,1.44,32,8,0.0,Clear,clear sky,9
Hejce-Vilmány,48.419444,21.245556,2026-03-06 09:54:19.984872,11.27,9.55,11.27,11.27,1027,42,1.44,32,8,0.0,Clear,clear sky,9
Göncruszka,48.445,21.246944,2026-03-06 09:54:21.144964,13.37,11.86,11.36,14.3,1027,42,1.57,31,8,0.0,Clear,clear sky,9
Gönc,48.470556,21.261389,2026-03-06 09:54:22.304780,13.25,11.73,11.26,14.2,1027,42,1.65,31,8,0.0,Clear,clear sky,9
Zsujta,48.4925,21.265,2026-03-06 09:54:23.466193,13.25,11.39,11.28,14.22,1027,29,1.54,0,0,0.0,Clear,clear sky,9
Bodrogkeresztúr,48.175556,21.354167,2026-03-06 09:54:24.627159,10.31,8.55,10.31,10.31,1027,44,0.67,64,9,0.0,Clear,clear sky,9
Szegi,48.201944,21.387778,2026-03-06 09:54:25.796006,8.54,8.54,8.54,8.54,1027,44,0.72,64,9,0.0,Clear,clear sky,9
Erdőbénye,48.218056,21.401944,2026-03-06 09:54:26.961727,8.51,8.51,8.51,8.51,1027,43,0.77,60,8,0.0,Clear,clear sky,9
Olaszliszka-Tolcsva,48.258333,21.448056,2026-03-06 09:54:28.118036,8.54,8.54,8.54,8.54,1027,43,0.84,54,8,0.0,Clear,clear sky,9
Bodrogolaszi,48.286944,21.512778,2026-03-06 09:54:29.278816,8.48,8.48,8.48,8.48,1027,76,0.98,47,8,0.0,Clear,clear sky,9
Sárospatak,48.325833,21.566111,2026-03-06 09:54:30.439248,8.43,7.81,8.43,8.43,1027,76,1.54,29,8,0.0,Clear,clear sky,9
Sátoraljaújhely,48.385833,21.657778,2026-03-06 09:54:31.602375,8.51,7.43,8.51,8.51,1027,76,2.03,18,10,0.0,Clear,clear sky,9
Vecsés,47.40855,19.25652,2026-03-06 09:54:32.767979,12.24,10.49,12.13,13.74,1027,37,4.12,130,0,0.0,Clear,clear sky,9
Vecsés-Kertekalja,47.403333,19.271389,2026-03-06 09:54:33.929290,12.27,10.52,12.17,13.78,1027,37,4.12,130,0,0.0,Clear,clear sky,9
Üllő,47.390833,19.348889,2026-03-06 09:54:35.088418,12.22,10.46,12.12,13.73,1027,37,4.12,130,0,0.0,Clear,clear sky,9
Monor,47.34545,19.43701,2026-03-06 09:54:36.248227,12.07,10.3,12.07,12.07,1027,37,4.12,130,0,0.0,Clear,clear sky,9
Pilis,47.279722,19.536389,2026-03-06 09:54:37.413854,13.64,12.13,12.03,13.64,1027,41,2.67,121,6,0.0,Clear,clear sky,9
Albertirsa,47.240278,19.606389,2026-03-06 09:54:38.579592,13.73,12.15,13.73,13.73,1027,38,2.73,119,4,0.0,Clear,clear sky,9
Ceglédbercel-Cserő,47.210278,19.686944,2026-03-06 09:54:39.745659,13.8,12.23,13.8,13.8,1027,38,2.73,117,4,0.0,Clear,clear sky,9
Cegléd,47.182778,19.806111,2026-03-06 09:54:40.909878,13.85,12.28,12.07,13.9,1027,38,2.72,113,4,0.0,Clear,clear sky,9
Abony,47.173056,20.016389,2026-03-06 09:54:42.079406,12.53,11.04,10.97,13.97,1027,46,3.09,80,0,0.0,Clear,clear sky,9
Szolnok,47.179167,20.175833,2026-03-06 09:54:43.249806,11.8,10.24,10.99,13.99,1027,46,3.09,80,0,0.0,Clear,clear sky,9
Szajol,47.170556,20.295278,2026-03-06 09:54:44.415925,11.01,9.37,11.01,12.77,1027,46,3.09,80,0,0.0,Clear,clear sky,9
Törökszentmiklós,47.170278,20.413611,2026-03-06 09:54:45.575758,11.0,9.36,11.0,12.77,1027,46,3.09,80,0,0.0,Clear,clear sky,9
Rákoscsaba-Újtelep,47.4875,19.271944,2026-03-06 09:54:46.744267,12.45,10.77,12.03,13.64,1027,39,4.12,130,0,0.0,Clear,clear sky,9
Rákoscsaba,47.492222,19.284722,2026-03-06 09:54:47.915994,12.19,10.46,12.02,13.63,1027,38,4.12,130,0,0.0,Clear,clear sky,9
Pécel,47.493889,19.338889,2026-03-06 09:54:49.072072,12.04,10.27,11.9,13.51,1027,37,4.12,130,0,0.0,Clear,clear sky,9
Isaszeg,47.537719,19.388955,2026-03-06 09:54:50.232967,11.82,10.02,11.81,13.42,1027,37,4.12,130,0,0.0,Clear,clear sky,9
Gödöllő,47.592222,19.358611,2026-03-06 09:54:51.397890,11.88,10.09,11.58,13.2,1027,37,4.12,130,0,0.0,Clear,clear sky,9
Máriabesnyő,47.595556,19.389722,2026-03-06 09:54:52.559360,11.82,10.21,11.73,13.34,1027,44,2.03,133,7,0.0,Clear,clear sky,9
Bag,47.641111,19.471667,2026-03-06 09:54:53.720367,12.08,10.52,12.08,12.08,1027,45,2.11,136,6,0.0,Clear,clear sky,9
Aszód,47.647467,19.492882,2026-03-06 09:54:54.881752,12.16,10.61,12.16,12.16,1027,45,2.1,136,6,0.0,Clear,clear sky,9
Hévízgyörk,47.638611,19.526667,2026-03-06 09:54:56.042945,12.18,10.63,12.18,12.18,1027,45,2.08,136,6,0.0,Clear,clear sky,9
Galgahévíz,47.6325,19.558333,2026-03-06 09:54:57.207528,12.39,10.86,12.39,12.39,1027,45,2.03,134,7,0.0,Clear,clear sky,9
Tura,47.626389,19.5975,2026-03-06 09:54:58.366614,12.31,10.77,12.31,12.31,1027,45,1.97,134,7,0.0,Clear,clear sky,9
Hatvan,47.663611,19.671389,2026-03-06 09:54:59.527926,12.32,10.78,12.32,12.32,1027,45,1.72,141,6,0.0,Clear,clear sky,9
Vámosgyörk,47.686111,19.927778,2026-03-06 09:55:00.685253,12.22,10.7,12.22,12.22,1027,46,1.07,145,5,0.0,Clear,clear sky,9
Adács,47.696389,19.975278,2026-03-06 09:55:01.844710,12.21,10.71,12.21,12.21,1027,47,0.95,155,4,0.0,Clear,clear sky,9
Karácsond,47.718056,20.048611,2026-03-06 09:55:03.014862,12.06,10.57,12.06,12.06,1027,48,0.91,164,4,0.0,Clear,clear sky,9
Ludas,47.723889,20.095556,2026-03-06 09:55:04.179473,12.18,10.71,12.18,12.18,1027,48,0.71,169,3,0.0,Clear,clear sky,9
Nagyút,47.72666666666667,20.161388888888887,2026-03-06 09:55:05.340851,12.1,10.62,12.1,12.1,1027,48,0.65,170,3,0.0,Clear,clear sky,9
Kál-Kápolna,47.734167,20.254167,2026-03-06 09:55:06.506071,11.98,10.49,11.98,11.98,1027,48,0.49,163,2,0.0,Clear,clear sky,9
Füzesabony,47.751389,20.415278,2026-03-06 09:55:07.662469,11.77,10.28,11.77,11.77,1027,49,0.51,135,3,0.0,Clear,clear sky,9
Szihalom,47.766944,20.491944,2026-03-06 09:55:08.826605,14.61,13.43,14.61,14.61,1027,50,0.58,124,3,0.0,Clear,clear sky,9
Mezőkövesd,47.797222,20.5675,2026-03-06 09:55:10.005858,14.62,13.47,14.62,14.62,1027,51,0.77,97,4,0.0,Clear,clear sky,9
Mezőkövesd felső,47.807222,20.591389,2026-03-06 09:55:11.166037,14.6,13.45,13.58,14.6,1027,51,0.77,97,4,0.0,Clear,clear sky,9
Mezőkeresztes-Mezőnyárád,47.845556,20.670278,2026-03-06 09:55:12.324184,14.38,12.76,11.59,14.6,1027,34,1.1,76,5,0.0,Clear,clear sky,9
Csincse,47.890833,20.764167,2026-03-06 09:55:13.483305,13.74,12.16,11.61,14.62,1027,38,1.34,146,6,0.0,Clear,clear sky,9
Emőd,47.930556,20.822778,2026-03-06 09:55:14.637880,13.3,11.7,11.62,14.64,1027,39,1.34,146,6,0.0,Clear,clear sky,9
Nyékládháza,47.9925,20.840556,2026-03-06 09:55:15.799625,13.08,11.49,11.65,14.67,1027,40,1.34,146,6,0.0,Clear,clear sky,9
Miskolc-Tiszai,48.098611,20.811389,2026-03-06 09:55:16.958822,13.17,11.56,11.57,14.59,1027,39,1.6,40,6,0.0,Clear,clear sky,9
Felsőzsolca,48.083611,20.866111,2026-03-06 09:55:18.121139,12.76,11.14,11.6,14.62,1027,40,1.82,31,7,0.0,Clear,clear sky,9
Hernádnémeti-Bőcs,48.051389,20.985,2026-03-06 09:55:19.281257,11.6,9.99,8.99,11.6,1027,45,1.94,20,7,0.0,Clear,clear sky,9
Tiszalúc,48.039722,21.0575,2026-03-06 09:55:20.436194,11.64,10.03,9.03,11.64,1027,45,1.69,23,7,0.0,Clear,clear sky,9
Taktaharkány,48.091667,21.128611,2026-03-06 09:55:21.594558,11.69,10.09,9.08,11.69,1027,45,1.46,22,8,0.0,Clear,clear sky,9
Taktaszada,48.1125,21.149444,2026-03-06 09:55:22.768910,11.7,10.15,9.09,11.7,1027,47,1.25,23,8,0.0,Clear,clear sky,9
Szerencs,48.155556,21.214444,2026-03-06 09:55:23.925463,11.7,10.1,11.7,11.7,1027,45,0.73,41,8,0.0,Clear,clear sky,9
Mezőzombor,48.156944,21.267778,2026-03-06 09:55:25.085160,11.06,9.4,11.06,11.06,1027,45,0.67,51,9,0.0,Clear,clear sky,9
Tarcal,48.125,21.34,2026-03-06 09:55:26.247001,11.18,9.53,11.18,11.18,1027,45,0.84,59,9,0.0,Clear,clear sky,9
Tokaj,48.112778,21.406667,2026-03-06 09:55:27.405193,10.64,8.93,10.64,10.64,1027,45,1.07,49,9,0.0,Clear,clear sky,9
Rakamaz,48.12,21.475,2026-03-06 09:55:28.572456,11.16,9.48,11.16,11.16,1027,44,1.21,44,9,0.0,Clear,clear sky,9
Görögszállás,48.04,21.555,2026-03-06 09:55:29.733808,11.14,9.46,11.14,11.14,1027,44,1.91,31,10,0.0,Clear,clear sky,9
Nyírtelek,48.005,21.615556,2026-03-06 09:55:30.892167,11.12,9.44,11.12,11.12,1027,44,2.55,23,12,0.0,Clouds,few clouds,9
Rákoshegy,47.468611,19.245556,2026-03-06 09:55:32.055417,12.4,10.74,11.97,13.58,1027,40,4.12,130,0,0.0,Clear,clear sky,9
Ecser,47.439444,19.318056,2026-03-06 09:55:33.219956,12.12,10.35,12.02,13.63,1027,37,4.12,130,0,0.0,Clear,clear sky,9
Maglód,47.438889,19.340833,2026-03-06 09:55:34.382365,12.06,10.29,11.96,13.57,1027,37,4.12,130,0,0.0,Clear,clear sky,9
Maglódi nyaraló,47.434167,19.363611,2026-03-06 09:55:35.543118,11.97,10.19,11.86,13.47,1027,37,4.12,130,0,0.0,Clear,clear sky,9
Gyömrő,47.429722,19.393333,2026-03-06 09:55:36.710348,11.85,10.06,11.82,13.44,1027,37,4.12,130,0,0.0,Clear,clear sky,9
Mende,47.426944,19.439722,2026-03-06 09:55:37.876173,11.79,9.99,11.79,13.4,1027,37,4.12,130,0,0.0,Clear,clear sky,9
Szőlősnyaraló,47.450278,19.561111,2026-03-06 09:55:39.039022,12.02,10.4,12.02,13.63,1027,43,2.33,120,5,0.0,Clear,clear sky,9
Sülysáp,47.451944,19.5275,2026-03-06 09:55:40.200527,12.0,10.38,12.0,13.61,1027,43,2.33,122,6,0.0,Clear,clear sky,9
Tápiószecső,47.443056,19.614722,2026-03-06 09:55:41.359833,13.71,12.26,12.1,13.71,1027,43,2.31,119,5,0.0,Clear,clear sky,9
Szentmártonkáta,47.431944,19.680556,2026-03-06 09:55:42.529081,13.74,12.16,13.74,13.74,1027,38,2.23,116,5,0.0,Clear,clear sky,9
Nagykáta,47.409722,19.737778,2026-03-06 09:55:43.692935,13.81,12.24,13.81,13.81,1027,38,2.26,114,5,0.0,Clear,clear sky,9
Farmos,47.355278,19.8375,2026-03-06 09:55:44.853982,13.92,12.36,13.92,13.92,1027,38,0.45,62,6,0.0,Clear,clear sky,9
Tápiószele,47.346313,19.873504,2026-03-06 09:55:46.017469,13.9,12.34,13.9,13.9,1027,38,0.45,62,6,0.0,Clear,clear sky,9
Tápiógyörgye,47.325,19.95,2026-03-06 09:55:47.183611,13.96,12.4,12.73,13.96,1027,38,0.45,62,5,0.0,Clear,clear sky,9
Újszász,47.285833,20.066944,2026-03-06 09:55:48.343985,13.98,12.43,11.01,14.0,1027,38,2.53,89,4,0.0,Clear,clear sky,9
Szurdokpüspöki,47.851944,19.690278,2026-03-06 09:55:49.507138,12.15,10.7,12.15,12.15,1027,49,1.1,159,6,0.0,Clear,clear sky,9
Lőrinci,47.739444,19.673611,2026-03-06 09:55:50.673438,12.24,10.72,12.24,12.24,1027,46,1.6,148,6,0.0,Clear,clear sky,9
Selyp,47.759167,19.670833,2026-03-06 09:55:51.838152,12.21,10.69,12.21,12.21,1027,46,1.54,151,6,0.0,Clear,clear sky,9
Apc-Zagyvaszántó,47.791328,19.66822,2026-03-06 09:55:52.997165,12.22,10.72,12.22,12.22,1027,47,1.45,153,6,0.0,Clear,clear sky,9
Pásztó,47.918889,19.688889,2026-03-06 09:55:54.156026,12.01,10.57,12.01,12.01,1027,50,0.84,160,5,0.0,Clear,clear sky,9
Mátraszőlős-Hasznos,47.938506,19.706122,2026-03-06 09:55:55.325812,12.02,10.61,12.02,12.02,1027,51,0.67,160,5,0.0,Clear,clear sky,9
Tar,47.956111,19.746389,2026-03-06 09:55:56.486827,11.61,10.18,11.61,11.61,1027,52,0.5,151,5,0.0,Clear,clear sky,9
Mátraverebély,47.968333,19.778611,2026-03-06 09:55:57.650862,14.55,13.42,14.55,14.55,1027,52,0.5,151,5,0.0,Clear,clear sky,9
Nagybátony,47.981111,19.82,2026-03-06 09:55:58.809953,14.76,13.68,14.76,14.76,1027,53,0.38,135,6,0.0,Clear,clear sky,9
Kisterenye,48.009444,19.831944,2026-03-06 09:55:59.969609,14.75,13.69,14.75,14.75,1027,54,0.33,108,6,0.0,Clear,clear sky,9
Kisterenye-Bányatelep,48.021389,19.831944,2026-03-06 09:56:01.132723,14.75,13.69,14.75,14.75,1027,54,0.33,108,6,0.0,Clear,clear sky,9
Salgótarján külső,48.089444,19.790833,2026-03-06 09:56:02.308569,14.48,13.42,14.48,14.48,1027,55,0.29,70,4,0.0,Clear,clear sky,9
Balatonfenyves GV,46.7125,17.479167,2026-03-06 09:56:03.465153,12.08,10.91,12.08,12.08,1026,60,2.09,110,1,0.0,Clear,clear sky,9
Várhegyalja,47.737778,18.366667,2026-03-06 09:56:04.625586,12.22,10.8,12.22,12.22,1026,50,2.5,142,19,0.0,Clouds,few clouds,9
Imremajor,46.680556,17.499722,2026-03-06 09:56:05.788979,12.11,10.92,12.11,12.11,1026,59,2.05,111,0,0.0,Clear,clear sky,9
Rákospalota-Kertváros,47.578333,19.122778,2026-03-06 09:56:06.945727,12.95,11.42,12.22,13.83,1027,43,4.12,130,0,0.0,Clear,clear sky,9
Vicziántelep,47.675833,19.286111,2026-03-06 09:56:08.111832,12.23,10.68,11.69,13.3,1027,45,2.07,136,7,0.0,Clear,clear sky,9
Pálmajor,46.662831,17.457526,2026-03-06 09:56:09.269161,12.1,10.88,12.1,12.1,1026,58,2.0,116,0,0.0,Clear,clear sky,9
Somogyszentpál felső,46.649758,17.471404,2026-03-06 09:56:10.437301,12.07,10.85,12.07,12.07,1026,58,2.03,114,0,0.0,Clear,clear sky,9
Somogyszentpál,46.638611,17.478611,2026-03-06 09:56:11.596771,12.06,10.84,12.06,12.06,1026,58,2.02,118,0,0.0,Clear,clear sky,9
Rudnaykert,47.7175,19.257778,2026-03-06 09:56:12.766680,12.57,11.08,12.57,13.64,1027,46,2.11,137,7,0.0,Clear,clear sky,9
Maroshegy,47.158333,18.406667,2026-03-06 09:56:13.931689,12.52,11.11,12.52,12.52,1026,49,2.29,116,11,0.0,Clouds,few clouds,9
Bánhida,47.573703,18.371737,2026-03-06 09:56:15.093036,12.01,10.6,12.01,12.01,1026,51,2.76,135,19,0.0,Clouds,few clouds,9
Magyarkút,47.850278,19.045,2026-03-06 09:56:16.265341,11.58,10.13,11.58,11.58,1027,51,2.03,129,11,0.0,Clouds,few clouds,9
Becske alsó,47.897222,19.364722,2026-03-06 09:56:17.432349,11.18,9.63,11.18,11.18,1027,49,1.66,145,5,0.0,Clear,clear sky,9
Hosszúberek-Péteri,47.370556,19.389722,2026-03-06 09:56:18.591301,12.1,10.33,12.1,13.71,1027,37,4.12,130,0,0.0,Clear,clear sky,9
Monorierdő,47.308889,19.499167,2026-03-06 09:56:19.749735,12.01,10.34,12.01,13.62,1027,41,2.62,121,7,0.0,Clear,clear sky,9
Ceglédbercel,47.215833,19.658611,2026-03-06 09:56:20.908979,13.79,12.22,13.79,13.79,1027,38,2.75,118,4,0.0,Clear,clear sky,9
Budai út,47.208333,19.731389,2026-03-06 09:56:22.072339,13.83,12.26,13.83,13.83,1027,38,2.71,116,4,0.0,Clear,clear sky,9
Büdöskútpuszta,48.373056,20.726111,2026-03-06 09:56:23.229842,10.97,9.4,10.97,10.97,1027,49,0.75,68,6,0.0,Clear,clear sky,9
Bánrévei Vízmű,48.282778,20.368333,2026-03-06 09:56:24.390964,13.35,12.1,13.35,15.03,1027,52,0.4,4,5,0.0,Clear,clear sky,9
Rákoskert,47.456389,19.296111,2026-03-06 09:56:25.555290,12.0,10.22,11.89,13.5,1027,37,4.12,130,0,0.0,Clear,clear sky,9
Szirmabesenyő,48.146944,20.783056,2026-03-06 09:56:26.715996,13.77,12.59,11.5,14.52,1027,53,1.46,36,6,0.0,Clear,clear sky,9
Kitérőgyár,47.766944,19.935278,2026-03-06 09:56:27.870308,11.96,10.46,11.96,11.96,1027,48,1.02,166,6,0.0,Clear,clear sky,9
Tápiószentmárton,47.373333,19.797778,2026-03-06 09:56:29.036078,13.86,12.29,13.86,13.86,1027,38,0.45,62,6,0.0,Clear,clear sky,9
Zagyvarékas,47.244229,20.097435,2026-03-06 09:56:30.196120,12.02,10.48,11.01,14.01,1027,46,3.09,80,0,0.0,Clear,clear sky,9
Abonyi út,47.206401,20.125204,2026-03-06 09:56:31.361878,11.93,10.38,11.01,14.01,1027,46,3.09,80,0,0.0,Clear,clear sky,9
Jászkisér felső,47.438056,20.202222,2026-03-06 09:56:32.523577,13.89,12.48,13.89,13.89,1027,44,2.04,72,3,0.0,Clear,clear sky,9
Szellőhát,47.425556,20.188889,2026-03-06 09:56:33.685882,14.0,12.6,14.0,14.0,1027,44,2.18,73,3,0.0,Clear,clear sky,9
Szilvásvárad-Szalajkavölgy,48.0956,20.38272,2026-03-06 09:56:34.853930,11.91,10.12,11.91,13.6,1026,37,0.29,325,2,0.0,Clear,clear sky,9
Vásárosnamény külső,48.084444,22.255556,2026-03-06 09:56:36.012894,10.76,9.07,10.76,10.76,1027,45,2.23,12,28,0.0,Clouds,scattered clouds,9
Újváros,46.660556,20.536111,2026-03-06 09:56:37.171440,14.41,13.06,13.32,14.41,1027,44,3.41,66,3,0.0,Clear,clear sky,9
Városi park,46.697778,19.864722,2026-03-06 09:56:38.334706,13.88,12.37,12.1,13.88,1027,40,2.97,103,15,0.0,Clouds,few clouds,9
Belsőkamaráspuszta,46.341944,20.848889,2026-03-06 09:56:39.500917,14.47,13.02,14.47,14.47,1027,40,3.75,48,2,0.0,Clear,clear sky,9
Sajószöged,47.945278,20.981667,2026-03-06 09:56:40.658850,11.7,10.1,9.08,11.7,1027,45,2.05,28,7,0.0,Clear,clear sky,9
Kazincbarcika alsó,48.255278,20.649167,2026-03-06 09:56:41.827470,13.46,12.25,13.46,13.46,1027,53,0.96,30,6,0.0,Clear,clear sky,9
Nyárjas,46.857778,19.923611,2026-03-06 09:56:42.991022,12.05,10.36,12.05,13.84,1027,40,2.57,110,0,0.0,Clear,clear sky,9
Pogonyipuszta,48.296389,20.381667,2026-03-06 09:56:44.148724,13.31,12.05,13.31,13.31,1027,52,0.4,4,5,0.0,Clear,clear sky,9
Sióvölgy,46.911103,18.076964,2026-03-06 09:56:45.310721,9.97,8.97,9.97,9.97,1026,72,2.24,110,8,0.0,Clear,clear sky,9
Répáspuszta,46.430278,17.847222,2026-03-06 09:56:46.482678,12.56,11.28,12.56,12.56,1026,54,2.48,129,2,0.0,Clear,clear sky,9
Virányos,48.066667,21.527222,2026-03-06 09:56:47.648181,11.15,9.47,11.15,11.15,1027,44,1.79,32,10,0.0,Clear,clear sky,9
Füzesbokor,47.988611,21.6475,2026-03-06 09:56:48.811353,11.13,9.45,11.13,11.13,1027,44,2.79,21,13,0.0,Clouds,few clouds,9
Kunfehértó,46.355833,19.417222,2026-03-06 09:56:49.968557,12.92,11.49,12.92,12.92,1027,47,3.0,116,42,0.0,Clouds,scattered clouds,9
Erdőszél,46.329444,19.395,2026-03-06 09:56:51.141617,12.83,11.4,12.83,12.83,1026,47,2.97,119,39,0.0,Clouds,scattered clouds,9
Jánoshalma,46.293056,19.330278,2026-03-06 09:56:52.311124,12.99,11.6,12.99,12.99,1026,48,2.95,119,35,0.0,Clouds,scattered clouds,9
Mélykút,46.213056,19.370556,2026-03-06 09:56:53.477845,13.06,11.67,13.06,13.06,1026,48,2.95,117,35,0.0,Clouds,scattered clouds,9
Bácsalmás,46.118056,19.346389,2026-03-06 09:56:54.654203,13.16,11.78,13.16,13.16,1026,48,2.95,116,27,0.0,Clouds,scattered clouds,9
Almás,46.116216,19.328803,2026-03-06 09:56:55.813190,13.16,11.78,13.16,13.16,1026,48,2.95,116,27,0.0,Clouds,scattered clouds,9
Bácsbokod-Bácsborsód,46.115833,19.16,2026-03-06 09:56:56.972381,13.22,11.88,13.22,13.22,1026,49,2.92,123,14,0.0,Clouds,few clouds,9
Baja,46.187014,18.957602,2026-03-06 09:56:58.131101,13.41,12.11,13.41,13.41,1026,50,2.81,127,12,0.0,Clouds,few clouds,9
Harkakötöny,46.458333,19.601944,2026-03-06 09:56:59.293144,10.95,9.25,10.95,10.95,1027,44,3.02,108,40,0.0,Clouds,scattered clouds,9
Tajó,46.473056,19.650556,2026-03-06 09:57:00.450314,10.99,9.27,10.99,10.99,1027,43,3.01,107,38,0.0,Clouds,scattered clouds,9
Kiskunmajsa,46.501667,19.728056,2026-03-06 09:57:01.610849,13.83,12.37,13.83,13.83,1027,42,2.98,104,34,0.0,Clouds,scattered clouds,9
Jászszentlászló,46.565833,19.753611,2026-03-06 09:57:02.768475,13.85,12.34,13.85,13.85,1027,40,2.98,104,27,0.0,Clouds,scattered clouds,9
Galambos,46.625,19.801111,2026-03-06 09:57:03.926726,13.88,12.37,13.88,16.02,1027,40,2.98,104,23,0.0,Clouds,few clouds,9
Pestszentimre,47.402222,19.188611,2026-03-06 09:57:05.087077,12.7,11.07,12.18,13.79,1027,40,4.12,130,0,0.0,Clear,clear sky,9
Gyál felső,47.390278,19.204722,2026-03-06 09:57:06.247726,12.41,10.67,12.19,13.8,1027,37,4.12,130,0,0.0,Clear,clear sky,9
Gyál,47.376667,19.219444,2026-03-06 09:57:07.405818,12.41,10.67,12.21,13.83,1027,37,4.12,130,0,0.0,Clear,clear sky,9
Ócsa,47.301389,19.232222,2026-03-06 09:57:08.570310,12.37,10.63,12.23,13.84,1027,37,4.12,130,0,0.0,Clear,clear sky,9
Inárcs-Kakucs,47.247222,19.317778,2026-03-06 09:57:09.732455,12.23,10.61,12.23,12.23,1027,42,2.63,126,29,0.0,Clouds,scattered clouds,9
Dabas,47.194722,19.328889,2026-03-06 09:57:10.897212,12.24,10.62,12.24,12.24,1027,42,2.75,126,27,0.0,Clouds,scattered clouds,9
Gyón,47.178333,19.355556,2026-03-06 09:57:12.056930,12.21,10.58,12.21,12.21,1027,42,2.79,126,28,0.0,Clouds,scattered clouds,9
Hernád,47.161389,19.4025,2026-03-06 09:57:13.222312,12.65,11.04,12.65,12.65,1027,41,2.85,124,20,0.0,Clouds,few clouds,9
Bakonygyirót,47.416389,17.811944,2026-03-06 09:57:14.380013,12.59,11.29,12.59,13.71,1026,53,2.57,154,8,0.0,Clear,clear sky,9
Vinye,47.360317,17.819635,2026-03-06 09:57:15.542632,13.03,11.8,11.91,13.03,1026,54,2.76,152,8,0.0,Clear,clear sky,9
Nemesgörzsöny,47.402924,17.376385,2026-03-06 09:57:16.702526,14.16,13.04,14.16,14.16,1026,54,0.51,0,3,0.0,Clear,clear sky,9
Rábahíd,47.438618,17.337525,2026-03-06 09:57:17.862756,14.15,13.03,14.15,14.15,1026,54,0.51,0,2,0.0,Clear,clear sky,9
Öskü,47.162222,18.076389,2026-03-06 09:57:19.030006,9.64,8.52,9.64,9.64,1026,52,2.33,131,9,0.0,Clear,clear sky,9
Márkó,47.1275,17.813889,2026-03-06 09:57:20.197389,10.98,9.54,10.98,10.98,1026,54,2.25,128,6,0.0,Clear,clear sky,9
Nemeskocs,47.203333,17.188889,2026-03-06 09:57:21.358114,14.11,13.14,14.11,14.11,1026,60,3.13,173,2,0.0,Clear,clear sky,9
Zalagyömörő,47.011111,17.220833,2026-03-06 09:57:22.522555,12.17,11.01,12.17,12.17,1026,60,3.24,162,1,0.0,Clear,clear sky,9
Rigács,47.061667,17.199167,2026-03-06 09:57:23.679700,12.12,10.95,12.12,12.12,1026,60,3.28,164,1,0.0,Clear,clear sky,9
Kemenespálfa,47.139722,17.183056,2026-03-06 09:57:24.839157,12.16,11.0,12.16,12.16,1026,60,3.26,170,1,0.0,Clear,clear sky,9
Lentiszombathely,46.611389,16.5725,2026-03-06 09:57:25.997217,11.24,10.04,11.24,14.95,1026,62,2.46,159,0,0.0,Clear,clear sky,9
Ortaháza,46.626667,16.685833,2026-03-06 09:57:27.155477,12.27,11.17,12.27,12.27,1026,62,2.18,158,0,0.0,Clear,clear sky,9
Rádiháza,46.654722,16.765833,2026-03-06 09:57:28.325367,12.18,11.1,12.18,12.18,1026,63,2.17,158,0,0.0,Clear,clear sky,9
Baktüttös,46.690833,16.826389,2026-03-06 09:57:29.486826,11.6,10.46,11.6,11.6,1026,63,2.46,156,0,0.0,Clear,clear sky,9
Budafa,46.851667,16.624722,2026-03-06 09:57:30.644823,12.22,11.14,12.22,12.22,1026,63,2.65,164,0,0.0,Clear,clear sky,9
Zalapatakalja,46.845556,16.603889,2026-03-06 09:57:31.812438,12.22,11.14,12.22,12.22,1026,63,2.7,166,0,0.0,Clear,clear sky,9
Tormásliget,47.430556,16.781667,2026-03-06 09:57:32.972827,11.97,11.34,11.97,11.97,1025,81,4.02,175,1,0.0,Clear,clear sky,9
Belecska,46.64,18.411389,2026-03-06 09:57:34.138006,12.87,11.54,12.87,12.87,1026,51,2.76,116,8,0.0,Clear,clear sky,9
Almár,47.956111,20.356944,2026-03-06 09:57:35.298099,13.49,12.02,13.12,14.8,1026,43,0.39,230,1,0.0,Clear,clear sky,9
Vasútmúzeum,47.543889,19.099444,2026-03-06 09:57:36.457615,13.05,11.53,12.23,13.84,1027,43,4.12,130,0,0.0,Clear,clear sky,9
Abda,47.690833,17.540556,2026-03-06 09:57:37.618627,13.09,11.92,13.09,13.09,1026,56,2.19,136,5,0.0,Clear,clear sky,9
Vadaspark,47.526111,18.949167,2026-03-06 09:57:38.775789,11.14,9.46,10.42,12.03,1027,44,1.79,133,33,0.0,Clouds,scattered clouds,9
Barosstelep,47.398889,18.989167,2026-03-06 09:57:39.937055,13.39,11.91,12.29,13.9,1027,43,2.32,124,35,0.0,Clouds,scattered clouds,9
Fegyvernek-Örményes,47.194444,20.5575,2026-03-06 09:57:41.101829,11.02,9.3,11.02,11.02,1027,43,2.7,57,2,0.0,Clear,clear sky,9
Zagyvapálfalva,48.068889,19.785,2026-03-06 09:57:42.266471,14.47,13.41,14.47,14.47,1027,55,0.28,82,5,0.0,Clear,clear sky,9
Salgótarján,48.105556,19.807222,2026-03-06 09:57:43.425464,14.34,13.27,14.34,14.34,1027,55,0.3,60,4,0.0,Clear,clear sky,9
Szabadisóstó,46.933889,18.118056,2026-03-06 09:57:44.586630,9.95,8.93,9.95,9.95,1026,72,2.26,111,9,0.0,Clear,clear sky,9
Siófok,46.907778,18.053889,2026-03-06 09:57:45.748868,9.95,8.95,9.95,9.95,1026,72,2.24,110,8,0.0,Clear,clear sky,9
Balatonszéplak felső,46.898056,18.018056,2026-03-06 09:57:46.931533,9.95,8.94,9.95,9.95,1026,72,2.25,109,7,0.0,Clear,clear sky,9
Balatonszéplak alsó,46.891944,17.993333,2026-03-06 09:57:48.100985,9.95,8.94,9.95,9.95,1026,72,2.25,108,7,0.0,Clear,clear sky,9
Zamárdi felső,46.886111,17.969444,2026-03-06 09:57:49.259783,9.96,8.96,9.96,9.96,1026,72,2.24,107,7,0.0,Clear,clear sky,9
Zamárdi,46.88,17.944722,2026-03-06 09:57:50.431344,9.9,8.89,9.9,9.9,1026,72,2.24,107,7,0.0,Clear,clear sky,9
Szántód,46.861944,17.899167,2026-03-06 09:57:51.592658,9.97,8.95,9.97,9.97,1026,72,2.27,107,5,0.0,Clear,clear sky,9
Szőny-Déli,47.735278,18.141944,2026-03-06 09:57:52.751252,13.12,11.82,13.12,13.12,1026,51,2.81,140,8,0.0,Clear,clear sky,9
Várpalota,47.194444,18.149167,2026-03-06 09:57:53.917361,11.7,10.28,11.7,11.7,1026,52,2.42,131,11,0.0,Clouds,few clouds,9
Pétfürdő,47.1675,18.121389,2026-03-06 09:57:55.077681,9.77,8.63,9.77,9.77,1026,52,2.38,131,10,0.0,Clear,clear sky,9
Hajmáskér,47.141111,18.009444,2026-03-06 09:57:56.238752,9.55,8.4,9.55,9.55,1026,53,2.34,132,9,0.0,Clear,clear sky,9
Veszprém,47.118889,17.91,2026-03-06 09:57:57.397705,9.34,8.25,9.34,9.34,1026,54,2.22,126,7,0.0,Clear,clear sky,9
Herend,47.136944,17.760278,2026-03-06 09:57:58.563580,10.89,9.44,10.89,10.89,1026,54,2.29,129,6,0.0,Clear,clear sky,9
Városlőd,47.144167,17.652778,2026-03-06 09:57:59.722678,12.98,11.77,12.98,12.98,1026,55,2.69,143,5,0.0,Clear,clear sky,9
Városlőd-Kislőd,47.133889,17.631111,2026-03-06 09:58:00.884284,13.09,11.89,13.09,13.09,1026,55,2.68,141,5,0.0,Clear,clear sky,9
Ajka,47.105902,17.572938,2026-03-06 09:58:02.041538,13.39,12.22,13.39,13.39,1026,55,3.07,148,4,0.0,Clear,clear sky,9
Ajka-Gyártelep,47.096806,17.555219,2026-03-06 09:58:03.199401,13.44,12.28,13.44,13.44,1026,55,3.07,148,4,0.0,Clear,clear sky,9
Devecser,47.1125,17.435278,2026-03-06 09:58:04.371181,13.84,12.74,13.84,13.84,1026,56,3.32,155,3,0.0,Clear,clear sky,9
Somlóvásárhely,47.124444,17.369167,2026-03-06 09:58:05.536842,13.95,12.89,13.95,13.95,1026,57,3.35,163,3,0.0,Clear,clear sky,9
Tüskevár,47.128611,17.331389,2026-03-06 09:58:06.700772,13.99,12.96,13.99,13.99,1026,58,3.32,165,3,0.0,Clear,clear sky,9
Karakószörcsök,47.133611,17.287778,2026-03-06 09:58:07.855822,12.09,10.87,12.09,12.09,1026,58,3.3,167,2,0.0,Clear,clear sky,9
Kerta,47.151944,17.237222,2026-03-06 09:58:09.016620,12.18,10.99,12.18,12.18,1026,59,3.22,171,2,0.0,Clear,clear sky,9
Boba,47.183333,17.191389,2026-03-06 09:58:10.176005,12.13,10.97,12.13,12.13,1026,60,3.18,172,2,0.0,Clear,clear sky,9
Börgönd,47.140278,18.515,2026-03-06 09:58:11.340725,12.51,11.07,12.51,12.51,1026,48,2.36,118,10,0.0,Clear,clear sky,9
Belsőbáránd,47.102778,18.499722,2026-03-06 09:58:12.505031,12.46,11.01,12.46,12.46,1026,48,2.33,117,11,0.0,Clouds,few clouds,9
Zichyújfalu,47.124444,18.6725,2026-03-06 09:58:13.667644,12.58,11.12,12.58,12.58,1027,47,2.5,121,12,0.0,Clouds,few clouds,9
Seregélyes,47.121111,18.580556,2026-03-06 09:58:14.830449,12.67,11.25,12.67,12.67,1026,48,2.38,118,10,0.0,Clear,clear sky,9
Polgárdi-Ipartelepek,47.079167,18.314444,2026-03-06 09:58:15.990665,9.58,8.5,9.58,9.58,1026,48,2.26,115,11,0.0,Clouds,few clouds,9
Polgárdi,47.07,18.284167,2026-03-06 09:58:17.149335,9.58,8.5,9.58,9.58,1026,48,2.26,115,11,0.0,Clouds,few clouds,9
Füle,47.05,18.255278,2026-03-06 09:58:18.307783,9.55,8.46,9.55,9.55,1026,48,2.27,114,11,0.0,Clouds,few clouds,9
Zánka-Erzsébettábor,46.8775,17.709167,2026-03-06 09:58:19.467670,9.9,8.79,9.9,9.9,1026,56,2.37,109,3,0.0,Clear,clear sky,9
Csajág,47.033889,18.186389,2026-03-06 09:58:20.635073,9.79,8.77,9.79,9.79,1026,72,2.23,113,10,0.0,Clear,clear sky,9
Balatonakarattya,47.017222,18.167778,2026-03-06 09:58:21.795224,9.64,8.59,9.64,9.64,1026,72,2.23,113,10,0.0,Clear,clear sky,9
Csittényhegy,47.025278,18.1375,2026-03-06 09:58:22.957088,9.86,8.86,9.86,9.86,1026,72,2.21,113,10,0.0,Clear,clear sky,9
Balatonkenese,47.0325,18.105556,2026-03-06 09:58:24.117804,9.94,8.97,9.94,9.94,1026,72,2.2,112,10,0.0,Clear,clear sky,9
Balatonfűzfő,47.060278,18.0425,2026-03-06 09:58:25.277163,9.97,9.04,9.97,9.97,1026,72,2.15,115,9,0.0,Clear,clear sky,9
Balatonalmádi,47.028333,18.015,2026-03-06 09:58:26.435959,9.94,9.0,9.94,9.94,1026,72,2.15,112,9,0.0,Clear,clear sky,9
Káptalanfüred,47.008889,18.003889,2026-03-06 09:58:27.597242,9.97,9.03,9.97,9.97,1026,72,2.16,109,8,0.0,Clear,clear sky,9
Alsóörs,46.985278,17.974722,2026-03-06 09:58:28.757916,9.98,9.04,9.98,9.98,1026,72,2.16,109,8,0.0,Clear,clear sky,9
Csopak,46.974722,17.931111,2026-03-06 09:58:29.923922,9.85,8.88,9.85,9.85,1026,72,2.18,106,7,0.0,Clear,clear sky,9
Balatonarács,46.9625,17.8975,2026-03-06 09:58:31.078988,9.75,8.76,9.75,9.75,1026,72,2.18,106,7,0.0,Clear,clear sky,9
Balatonfüred,46.955833,17.883056,2026-03-06 09:58:32.238266,9.82,8.81,9.82,9.82,1026,72,2.22,105,6,0.0,Clear,clear sky,9
Aszófő,46.925556,17.8325,2026-03-06 09:58:33.401443,9.92,8.9,9.92,9.92,1026,72,2.26,105,5,0.0,Clear,clear sky,9
Örvényes,46.9125,17.818056,2026-03-06 09:58:34.563999,9.94,8.92,9.94,9.94,1026,72,2.26,105,5,0.0,Clear,clear sky,9
Balatonudvari,46.904722,17.808056,2026-03-06 09:58:35.725660,9.97,8.94,9.97,9.97,1026,72,2.28,106,5,0.0,Clear,clear sky,9
Fövenyes,46.893611,17.789444,2026-03-06 09:58:36.886664,9.99,8.95,9.99,9.99,1026,54,2.3,106,5,0.0,Clear,clear sky,9
Balatonakali-Dörgicse,46.88,17.747778,2026-03-06 09:58:38.049611,9.98,8.92,9.98,9.98,1026,54,2.32,107,4,0.0,Clear,clear sky,9
Zánka-Köveskál,46.872778,17.687778,2026-03-06 09:58:39.212578,9.97,8.86,9.97,9.97,1026,56,2.4,110,3,0.0,Clear,clear sky,9
Balatonszepezd,46.851111,17.663056,2026-03-06 09:58:40.375026,12.43,11.22,12.43,12.43,1026,57,2.39,109,3,0.0,Clear,clear sky,9
Szepezdfürdő,46.839722,17.649444,2026-03-06 09:58:41.543625,11.39,10.07,11.39,11.39,1026,57,2.4,110,2,0.0,Clear,clear sky,9
Révfülöp,46.829167,17.632222,2026-03-06 09:58:42.705689,11.39,10.07,11.39,11.39,1026,57,2.4,110,2,0.0,Clear,clear sky,9
Balatonrendes,46.824722,17.582778,2026-03-06 09:58:43.866741,12.04,10.84,12.04,12.04,1026,59,2.35,111,1,0.0,Clear,clear sky,9
Ábrahámhegy,46.815,17.572222,2026-03-06 09:58:45.031648,12.04,10.84,12.04,12.04,1026,59,2.35,111,1,0.0,Clear,clear sky,9
Badacsonyörs,46.805556,17.531667,2026-03-06 09:58:46.190882,12.29,11.14,12.29,12.29,1026,60,2.34,113,1,0.0,Clear,clear sky,9
Kisújszállás,47.223889,20.751111,2026-03-06 09:58:47.353113,12.23,10.63,12.23,12.23,1027,43,2.32,50,1,0.0,Clear,clear sky,9
Karcag,47.303333,20.928056,2026-03-06 09:58:48.510786,12.0,10.38,12.0,12.0,1027,43,2.05,44,2,0.0,Clear,clear sky,9
Püspökladány,47.3275,21.128889,2026-03-06 09:58:49.667883,11.87,10.21,11.87,11.87,1027,42,2.14,40,5,0.0,Clear,clear sky,9
Kaba,47.368889,21.259444,2026-03-06 09:58:50.835556,11.1,9.34,11.1,11.1,1027,41,2.59,33,8,0.0,Clear,clear sky,9
Hajdúszoboszló,47.429444,21.406944,2026-03-06 09:58:51.999929,11.09,9.3,11.09,11.09,1027,40,2.06,50,0,0.0,Clear,clear sky,9
Ebes,47.462778,21.488889,2026-03-06 09:58:53.162454,11.04,9.24,11.04,11.04,1027,40,2.06,50,0,0.0,Clear,clear sky,9
Debrecen,47.520278,21.628611,2026-03-06 09:58:54.324908,10.92,9.11,10.92,10.92,1027,40,2.06,50,0,0.0,Clear,clear sky,9
Debrecen-Csapókert,47.540556,21.648056,2026-03-06 09:58:55.492903,10.87,9.06,10.87,10.87,1027,40,2.06,50,0,0.0,Clear,clear sky,9
Apafa,47.584045,21.655858,2026-03-06 09:58:56.652738,10.83,9.01,10.83,10.83,1027,40,2.06,50,0,0.0,Clear,clear sky,9
Bocskaikert,47.6425,21.666389,2026-03-06 09:58:57.825684,10.76,8.94,10.76,10.76,1027,40,2.06,50,0,0.0,Clear,clear sky,9
Hajdúhadház,47.686944,21.679167,2026-03-06 09:58:59.000466,10.73,8.93,10.73,10.73,1027,41,3.33,21,12,0.0,Clouds,few clouds,9
Téglás,47.714722,21.684722,2026-03-06 09:59:00.159559,10.8,9.01,10.8,10.8,1027,41,3.3,21,12,0.0,Clouds,few clouds,9
Újfehértó,47.814444,21.706389,2026-03-06 09:59:01.319964,11.12,9.38,11.12,11.12,1027,42,3.2,20,14,0.0,Clouds,few clouds,9
Nyíregyháza,47.946667,21.705556,2026-03-06 09:59:02.479399,11.1,9.39,11.1,11.1,1027,43,3.03,20,14,0.0,Clouds,few clouds,9
Sóstó,47.998051,21.729047,2026-03-06 09:59:03.644980,11.05,9.33,11.05,11.05,1027,43,3.13,17,14,0.0,Clouds,few clouds,9
Sóstóhegy,48.012222,21.742778,2026-03-06 09:59:04.810215,11.13,9.42,11.13,11.13,1027,43,3.1,17,13,0.0,Clouds,few clouds,9
Kemecse,48.065556,21.801667,2026-03-06 09:59:05.980415,11.11,9.43,11.11,11.11,1027,44,3.17,16,12,0.0,Clouds,few clouds,9
Nyírbogdány,48.082222,21.855278,2026-03-06 09:59:07.139862,11.06,9.37,11.06,11.06,1027,44,3.17,14,11,0.0,Clouds,few clouds,9
Kék,48.093333,21.883889,2026-03-06 09:59:08.300480,11.06,9.37,11.06,11.06,1027,44,3.13,13,11,0.0,Clouds,few clouds,9
Demecser,48.111667,21.926667,2026-03-06 09:59:09.465142,11.05,9.36,11.05,11.05,1027,44,3.04,12,10,0.0,Clear,clear sky,9
Gégény,48.128333,21.951944,2026-03-06 09:59:10.627098,11.02,9.35,11.02,11.02,1027,45,2.95,11,10,0.0,Clear,clear sky,9
Pátroha,48.158611,21.996667,2026-03-06 09:59:11.803176,11.03,9.36,11.03,11.03,1027,45,2.84,10,11,0.0,Clouds,few clouds,9
Ajak,48.1865,22.048972,2026-03-06 09:59:12.965223,11.01,9.37,11.01,11.01,1027,46,2.74,9,13,0.0,Clouds,few clouds,9
Kisvárda,48.208333,22.078333,2026-03-06 09:59:14.132917,11.0,9.36,11.0,11.0,1027,46,2.55,7,19,0.0,Clouds,few clouds,9
Kisvárda-Hármasút,48.228333,22.091944,2026-03-06 09:59:15.295597,11.0,9.36,11.0,11.0,1027,46,2.55,7,19,0.0,Clouds,few clouds,9
Fényeslitke,48.267222,22.107222,2026-03-06 09:59:16.456250,10.95,9.33,10.95,10.95,1027,47,2.44,5,25,0.0,Clouds,scattered clouds,9
Komoró,48.305278,22.118056,2026-03-06 09:59:17.632073,10.97,9.35,10.97,10.97,1027,47,2.43,4,26,0.0,Clouds,scattered clouds,9
Tuzsér,48.342222,22.131667,2026-03-06 09:59:18.791948,10.93,9.31,10.93,10.93,1027,47,2.39,2,27,0.0,Clouds,scattered clouds,9
Tiszabezdéd,48.371389,22.145,2026-03-06 09:59:19.959250,10.95,9.35,10.95,10.95,1027,48,2.28,360,30,0.0,Clouds,scattered clouds,9
Záhony,48.402222,22.183611,2026-03-06 09:59:21.124927,10.95,9.35,10.95,10.95,1027,48,2.16,358,31,0.0,Clouds,scattered clouds,9
Karcag-Vásártér,47.3225,20.9075,2026-03-06 09:59:22.283244,12.0,10.38,12.0,12.0,1027,43,2.05,44,2,0.0,Clear,clear sky,9
Berekfürdő,47.374722,20.827222,2026-03-06 09:59:23.445634,12.01,10.39,12.01,12.01,1027,43,2.18,42,2,0.0,Clear,clear sky,9
Kunmadaras,47.415278,20.793056,2026-03-06 09:59:24.608110,11.97,10.37,11.97,11.97,1027,44,2.27,40,2,0.0,Clear,clear sky,9
Tiszaszentimre,47.490833,20.733056,2026-03-06 09:59:25.770353,11.97,10.4,11.97,11.97,1027,45,2.35,37,3,0.0,Clear,clear sky,9
Tiszaszőlős,47.555556,20.728056,2026-03-06 09:59:26.934545,11.89,10.34,11.89,11.89,1027,46,2.24,37,3,0.0,Clear,clear sky,9
Hosszúhát,47.235556,21.101944,2026-03-06 09:59:28.091885,11.97,10.29,11.97,11.97,1027,41,2.44,40,5,0.0,Clear,clear sky,9
Szerep,47.234444,21.145833,2026-03-06 09:59:29.250067,11.95,10.27,11.95,11.95,1027,41,2.51,39,5,0.0,Clear,clear sky,9
Sárrétudvari,47.231667,21.180833,2026-03-06 09:59:30.416267,11.92,10.21,11.92,11.92,1027,40,2.6,38,6,0.0,Clear,clear sky,9
Biharnagybajom,47.208889,21.221944,2026-03-06 09:59:31.574842,11.92,10.21,11.92,11.92,1027,40,2.85,36,7,0.0,Clear,clear sky,9
Füzesgyarmat,47.113056,21.194444,2026-03-06 09:59:32.734335,12.06,10.34,12.06,12.06,1027,39,2.94,38,4,0.0,Clear,clear sky,9
Füzesgyarmatfürdő,47.093787,21.201582,2026-03-06 09:59:33.893971,12.06,10.34,12.06,12.06,1027,39,2.94,38,4,0.0,Clear,clear sky,9
Báránd,47.299722,21.235278,2026-03-06 09:59:35.053154,11.85,10.16,11.85,11.85,1027,41,2.62,35,7,0.0,Clear,clear sky,9
Sáp,47.259722,21.360556,2026-03-06 09:59:36.217292,11.81,10.09,11.81,11.81,1027,40,3.01,34,8,0.0,Clear,clear sky,9
Berettyóújfalu,47.211944,21.535556,2026-03-06 09:59:37.378475,11.69,9.93,11.69,11.69,1027,39,3.34,32,8,0.0,Clear,clear sky,9
Mezőpeterd,47.176111,21.625278,2026-03-06 09:59:38.550189,12.5,10.82,12.28,12.5,1027,39,3.39,32,10,0.0,Clear,clear sky,9
Biharkeresztes,47.135556,21.721389,2026-03-06 09:59:39.710725,12.47,10.76,12.25,12.47,1027,38,2.57,0,0,0.0,Clear,clear sky,9
Tócóvölgy,47.529444,21.588889,2026-03-06 09:59:40.873844,10.97,9.17,10.97,10.97,1027,40,2.06,50,0,0.0,Clear,clear sky,9
Sáregres,46.7825,18.588889,2026-03-06 09:59:42.038653,12.89,11.54,12.89,12.89,1026,50,2.59,125,11,0.0,Clouds,few clouds,9
Simontornya,46.756582,18.540674,2026-03-06 09:59:43.207751,12.8,11.42,12.8,12.8,1026,49,2.58,123,10,0.0,Clear,clear sky,9
Tolnanémedi,46.727778,18.475833,2026-03-06 09:59:44.370195,12.87,11.52,12.87,12.87,1026,50,2.61,122,9,0.0,Clear,clear sky,9
Pincehely,46.681389,18.43,2026-03-06 09:59:45.527187,12.73,11.36,12.73,12.73,1026,50,2.71,118,8,0.0,Clear,clear sky,9
Keszőhidegkút-Gyönk,46.597778,18.426111,2026-03-06 09:59:46.687160,12.8,11.47,12.8,12.8,1026,51,2.78,115,8,0.0,Clear,clear sky,9
Szárazd,46.575556,18.420833,2026-03-06 09:59:47.860592,12.85,11.55,12.85,12.85,1026,52,2.79,114,8,0.0,Clear,clear sky,9
Regöly,46.568889,18.396111,2026-03-06 09:59:49.020589,12.85,11.55,12.85,12.85,1026,52,2.79,114,8,0.0,Clear,clear sky,9
Szakály-Hőgyész,46.523611,18.389444,2026-03-06 09:59:50.185926,12.78,11.47,12.78,12.78,1026,52,2.81,113,7,0.0,Clear,clear sky,9
Dúzs,46.493889,18.377222,2026-03-06 09:59:51.344608,12.85,11.55,12.85,12.85,1026,52,2.8,113,7,0.0,Clear,clear sky,9
Csibrák,46.466667,18.336389,2026-03-06 09:59:52.505741,12.94,11.65,12.94,12.94,1026,52,2.78,113,6,0.0,Clear,clear sky,9
Kurd,46.449167,18.319167,2026-03-06 09:59:53.669987,12.63,11.33,12.63,12.63,1026,53,2.74,114,6,0.0,Clear,clear sky,9
Döbrököz,46.418889,18.255,2026-03-06 09:59:54.845859,12.96,11.67,12.96,12.96,1026,52,2.65,116,5,0.0,Clear,clear sky,9
Dombóvár,46.37,18.149722,2026-03-06 09:59:56.014004,13.07,11.76,13.07,13.07,1026,51,2.32,123,4,0.0,Clear,clear sky,9
Dombóvár alsó,46.363889,18.134167,2026-03-06 09:59:57.176012,13.07,11.76,13.07,13.07,1026,51,2.32,123,4,0.0,Clear,clear sky,9
Somoskőújfalu,48.154722,19.815556,2026-03-06 09:59:58.338449,13.84,12.72,13.84,13.84,1027,55,0.29,55,3,0.0,Clear,clear sky,9
Jászfényszaru,47.593056,19.754444,2026-03-06 09:59:59.499664,12.35,10.82,12.35,12.35,1027,45,1.61,127,6,0.0,Clear,clear sky,9
Pusztamonostor,47.564444,19.794167,2026-03-06 10:00:00.926887,13.83,12.42,13.83,13.83,1027,44,1.6,120,6,0.0,Clear,clear sky,9
Jászberény,47.494444,19.893333,2026-03-06 10:00:02.471122,13.93,12.53,13.93,13.93,1027,44,1.78,104,5,0.0,Clear,clear sky,9
Meggyespele,47.441944,19.938889,2026-03-06 10:00:04.238454,13.95,12.39,13.95,13.95,1027,38,1.94,93,5,0.0,Clear,clear sky,9
Portelek,47.418056,19.958889,2026-03-06 10:00:05.512583,13.97,12.41,13.97,13.97,1027,38,2.05,93,5,0.0,Clear,clear sky,9
Jászboldogháza-Jánoshida,47.366944,20.001389,2026-03-06 10:00:06.676933,13.96,12.4,13.96,13.96,1027,38,2.24,93,5,0.0,Clear,clear sky,9
Jászárokszállás,47.635556,19.971111,2026-03-06 10:00:07.836097,12.35,10.84,12.35,12.35,1027,46,1.07,124,5,0.0,Clear,clear sky,9
Jászdózsa,47.563056,20.028056,2026-03-06 10:00:08.997898,12.36,10.85,12.36,12.36,1027,46,1.2,100,4,0.0,Clear,clear sky,9
Jászapáti,47.513611,20.155,2026-03-06 10:00:10.160463,12.33,10.79,12.33,12.33,1027,45,1.52,76,4,0.0,Clear,clear sky,9
Jászkisér,47.456111,20.203333,2026-03-06 10:00:11.316830,12.37,10.84,12.37,12.37,1027,45,1.89,71,3,0.0,Clear,clear sky,9
Jászladány,47.373333,20.159167,2026-03-06 10:00:12.476649,14.01,12.59,11.01,14.01,1027,43,2.37,79,3,0.0,Clear,clear sky,9
Szászberek,47.320556,20.090833,2026-03-06 10:00:13.633645,13.99,12.44,11.01,14.0,1027,38,2.5,85,4,0.0,Clear,clear sky,9
Gyöngyöshalász,47.743056,19.932222,2026-03-06 10:00:14.795933,12.14,10.66,12.14,12.14,1027,48,1.05,163,6,0.0,Clear,clear sky,9
Gyöngyös,47.783056,19.937222,2026-03-06 10:00:15.950922,11.77,10.28,11.77,11.77,1027,49,0.97,168,5,0.0,Clear,clear sky,9
Erdőtelek,47.683333,20.3025,2026-03-06 10:00:17.113156,11.97,10.45,11.97,11.97,1027,47,0.49,116,2,0.0,Clear,clear sky,9
Heves,47.609444,20.306111,2026-03-06 10:00:18.272159,12.12,10.59,12.12,12.12,1027,46,0.96,73,2,0.0,Clear,clear sky,9
Hevesvezekény,47.562222,20.365833,2026-03-06 10:00:19.434712,12.12,10.59,12.12,12.12,1027,46,1.23,62,2,0.0,Clear,clear sky,9
Tarnaszentmiklós,47.546944,20.390833,2026-03-06 10:00:20.595210,12.16,10.63,12.16,12.16,1027,46,1.43,59,2,0.0,Clear,clear sky,9
Kisköre,47.495556,20.481667,2026-03-06 10:00:21.748045,12.14,10.61,12.14,12.14,1027,46,1.94,48,2,0.0,Clear,clear sky,9
Abádszalók,47.455278,20.553056,2026-03-06 10:00:22.904782,12.13,10.6,12.13,12.13,1027,46,2.12,47,2,0.0,Clear,clear sky,9
Kunhegyes,47.376667,20.641111,2026-03-06 10:00:24.077511,12.13,10.57,12.13,12.13,1027,45,2.47,43,2,0.0,Clear,clear sky,9
Kenderes,47.254444,20.686111,2026-03-06 10:00:25.310098,12.26,10.66,12.26,12.26,1027,43,2.49,51,1,0.0,Clear,clear sky,9
Maklár,47.808056,20.404722,2026-03-06 10:00:26.544246,13.46,12.17,13.46,13.46,1026,50,0.58,159,3,0.0,Clear,clear sky,9
Andornaktálya,47.852203,20.402295,2026-03-06 10:00:27.698188,13.43,12.16,13.4,15.08,1026,51,0.64,173,2,0.0,Clear,clear sky,9
Eger,47.891667,20.381667,2026-03-06 10:00:28.908939,13.45,12.18,13.31,14.99,1026,51,0.59,197,2,0.0,Clear,clear sky,9
Egervár,47.908056,20.380556,2026-03-06 10:00:30.191980,13.3,11.65,13.13,14.81,1026,37,0.56,202,2,0.0,Clear,clear sky,9
Eger-Felnémet,47.936667,20.370556,2026-03-06 10:00:31.373837,13.45,11.82,13.18,14.86,1026,37,0.5,208,2,0.0,Clear,clear sky,9
Szarvaskő,47.988611,20.3325,2026-03-06 10:00:32.537772,12.77,11.07,12.77,14.45,1026,37,0.32,244,1,0.0,Clear,clear sky,9
Mónosbél,48.031944,20.33,2026-03-06 10:00:33.692779,12.59,10.87,12.59,14.27,1026,37,0.27,292,2,0.0,Clear,clear sky,9
Bélapátfalva,48.055556,20.340556,2026-03-06 10:00:34.855757,12.3,10.55,12.3,13.98,1026,37,0.31,312,2,0.0,Clear,clear sky,9
Bélapátfalvi Cementgyár,48.058056,20.355,2026-03-06 10:00:36.013373,12.25,10.5,12.25,13.93,1026,37,0.31,312,2,0.0,Clear,clear sky,9
Szilvásvárad,48.11345,20.37919,2026-03-06 10:00:37.168370,12.12,10.35,12.12,13.8,1026,37,0.38,337,3,0.0,Clear,clear sky,9
Hejőkeresztúr,47.960278,20.869444,2026-03-06 10:00:38.345825,11.66,10.06,9.05,11.66,1027,45,1.85,41,6,0.0,Clear,clear sky,9
Tiszaújváros,47.926111,21.030556,2026-03-06 10:00:39.504138,11.71,10.11,9.1,11.71,1027,45,2.01,27,7,0.0,Clear,clear sky,9
Miskolc-Gömöri,48.106667,20.800278,2026-03-06 10:00:40.662164,13.31,11.71,11.56,14.58,1027,39,1.6,36,6,0.0,Clear,clear sky,9
Sajókeresztúr,48.168008,20.774014,2026-03-06 10:00:41.818776,14.52,13.41,11.51,14.52,1027,53,1.46,32,6,0.0,Clear,clear sky,9
Sajóecseg,48.186111,20.766667,2026-03-06 10:00:42.976294,13.94,12.77,11.55,14.56,1027,53,1.44,30,6,0.0,Clear,clear sky,9
Sajószentpéter,48.222222,20.708056,2026-03-06 10:00:44.133422,13.44,12.2,13.44,14.47,1027,52,1.29,30,6,0.0,Clear,clear sky,9
Kazincbarcika,48.264444,20.6275,2026-03-06 10:00:45.290147,13.45,12.21,13.45,13.45,1027,52,0.83,30,6,0.0,Clear,clear sky,9
Sajókaza,48.272778,20.581944,2026-03-06 10:00:46.449136,13.44,12.22,13.44,13.44,1027,53,0.77,26,6,0.0,Clear,clear sky,9
Vadna,48.276389,20.555278,2026-03-06 10:00:47.609706,13.42,12.2,13.42,13.42,1027,53,0.77,26,6,0.0,Clear,clear sky,9
Dubicsány,48.280833,20.504722,2026-03-06 10:00:48.773717,13.41,12.19,13.41,13.41,1026,53,0.63,15,6,0.0,Clear,clear sky,9
Raposka,46.851389,17.412778,2026-03-06 10:00:49.934855,12.06,10.89,12.06,12.06,1026,60,2.37,125,1,0.0,Clear,clear sky,9
Ivacs,47.641944,19.273889,2026-03-06 10:00:51.092729,12.43,10.88,11.85,13.46,1027,44,1.97,135,8,0.0,Clear,clear sky,9
Kisköre-Tiszahíd,47.480835,20.507698,2026-03-06 10:00:52.251419,13.88,12.42,13.88,13.88,1027,42,1.79,83,2,0.0,Clear,clear sky,9
Rozsály,47.912778,22.7825,2026-03-06 10:00:53.411668,10.03,8.26,10.03,10.03,1027,45,1.75,8,50,0.0,Clouds,scattered clouds,9
Pusztakettős,47.453611,20.749722,2026-03-06 10:00:54.594182,13.88,12.42,13.88,13.88,1027,42,2.35,38,2,0.0,Clear,clear sky,9
Kisvác,47.795278,19.113611,2026-03-06 10:00:55.763954,12.72,11.35,12.56,12.72,1027,50,2.05,132,8,0.0,Clear,clear sky,9
Tiszafüred-Gyártelep,47.6075,20.736111,2026-03-06 10:00:56.932345,13.85,12.39,13.85,13.85,1027,42,2.08,37,3,0.0,Clear,clear sky,9
Újkenéz,48.251111,22.221667,2026-03-06 10:00:58.089752,10.86,9.2,10.86,10.86,1027,46,2.11,7,35,0.0,Clouds,scattered clouds,9
Püspökladány-Vásártér,47.319167,21.096111,2026-03-06 10:00:59.248257,11.89,10.23,11.89,11.89,1027,42,2.22,40,5,0.0,Clear,clear sky,9
Végegyháza alsó,46.3675,20.866944,2026-03-06 10:01:00.406409,14.49,13.04,14.49,14.49,1027,40,3.78,48,2,0.0,Clear,clear sky,9
Orosháza felső,46.553611,20.655278,2026-03-06 10:01:01.581403,14.39,12.93,14.39,14.39,1027,40,3.57,59,3,0.0,Clear,clear sky,9
Ambrózfalva,46.353056,20.740556,2026-03-06 10:01:02.735911,13.2,11.62,13.2,13.2,1027,40,3.64,52,3,0.0,Clear,clear sky,9
Alsónyék,46.199444,18.738056,2026-03-06 10:01:03.898152,15.82,14.87,15.82,15.82,1026,54,2.68,123,7,0.0,Clear,clear sky,9
Tompapuszta,46.321389,20.966389,2026-03-06 10:01:05.052685,14.48,14.59,12.06,14.48,1027,100,3.86,43,2,0.0,Clear,clear sky,9
Halászlak,46.911879,20.56228,2026-03-06 10:01:06.214997,14.42,12.99,14.42,14.42,1027,41,3.09,63,2,0.0,Clear,clear sky,9
Sirató,46.840556,20.61,2026-03-06 10:01:07.383885,14.43,13.0,14.43,14.43,1027,41,3.28,62,2,0.0,Clear,clear sky,9
Csabacsűd felső,46.829167,20.649167,2026-03-06 10:01:08.546034,14.42,12.99,14.42,14.42,1027,41,3.3,60,2,0.0,Clear,clear sky,9
Orosháza-Üveggyár,46.579979,20.683644,2026-03-06 10:01:09.710637,14.38,12.92,14.38,14.38,1027,40,3.61,58,3,0.0,Clear,clear sky,9
Gyulai városerdő,46.69482,21.32281,2026-03-06 10:01:10.865789,12.53,10.88,12.53,12.53,1027,40,3.62,32,3,0.0,Clear,clear sky,9
Kórógyszentgyörgy,46.564377,20.224998,2026-03-06 10:01:12.022395,13.38,11.92,13.34,15.58,1027,44,3.05,81,5,0.0,Clear,clear sky,9
Kunszállás,46.784444,19.767222,2026-03-06 10:01:13.179805,14.38,12.87,14.38,15.42,1027,38,3.01,109,19,0.0,Clouds,few clouds,9
Selymes,46.655321,19.8534,2026-03-06 10:01:14.334369,14.44,12.93,14.44,15.48,1027,38,2.97,103,19,0.0,Clouds,few clouds,9
Petőfiszállási tanyák,46.587805,19.874509,2026-03-06 10:01:15.489682,14.48,12.98,14.48,15.52,1027,38,2.96,100,18,0.0,Clouds,few clouds,9
Kisteleki szőlők,46.514199,19.92868,2026-03-06 10:01:16.646820,14.47,12.99,14.47,15.51,1027,39,2.93,95,16,0.0,Clouds,few clouds,9
Kapitányság,46.435336,19.987564,2026-03-06 10:01:17.815903,11.13,9.5,11.13,11.13,1027,46,2.9,90,16,0.0,Clouds,few clouds,9
Őszeszék,46.39025,20.016017,2026-03-06 10:01:18.982869,11.16,9.53,11.16,11.16,1027,46,2.89,87,17,0.0,Clouds,few clouds,9
Vilmaszállás,46.366389,20.030833,2026-03-06 10:01:20.140633,11.14,9.51,11.14,11.14,1027,46,2.24,85,19,0.0,Clouds,few clouds,9
Jánosszállás,46.334359,20.051199,2026-03-06 10:01:21.308745,11.17,9.54,11.17,11.17,1027,46,2.87,85,20,0.0,Clouds,few clouds,9
Felsőpakony,47.343056,19.230556,2026-03-06 10:01:22.549694,12.46,10.73,12.25,13.86,1027,37,4.12,130,0,0.0,Clear,clear sky,9
Felsőméntelek,46.987074,19.557745,2026-03-06 10:01:24.183277,11.88,10.17,11.88,11.88,1027,40,2.57,110,0,0.0,Clear,clear sky,9
Alsóméntelek,46.961558,19.579121,2026-03-06 10:01:25.504898,11.91,10.2,11.91,11.91,1027,40,2.57,110,0,0.0,Clear,clear sky,9
Nagynyír,46.943319,19.585447,2026-03-06 10:01:26.659098,11.9,10.19,11.9,11.9,1027,40,2.57,110,0,0.0,Clear,clear sky,9
Úrihegy,46.917778,19.621389,2026-03-06 10:01:27.813747,11.93,10.22,11.93,14.26,1027,40,2.57,110,0,0.0,Clear,clear sky,9
Miklóstelep,46.913412,19.630913,2026-03-06 10:01:28.970579,11.94,10.23,11.94,14.28,1027,40,2.57,110,0,0.0,Clear,clear sky,9
Tiszajenő alsó,47.016944,20.134444,2026-03-06 10:01:30.146312,13.34,11.9,11.02,13.34,1027,45,3.09,80,0,0.0,Clear,clear sky,9
Óbög,46.987222,20.111111,2026-03-06 10:01:31.324055,12.61,11.1,11.01,13.32,1027,45,3.09,80,0,0.0,Clear,clear sky,9
Árpádszállás,46.866456,19.989163,2026-03-06 10:01:32.484323,14.81,13.23,13.25,15.48,1027,34,2.9,98,2,0.0,Clear,clear sky,9
Tőserdő,46.851111,19.980278,2026-03-06 10:01:33.652629,14.78,13.2,13.27,15.5,1027,34,2.92,98,2,0.0,Clear,clear sky,9
Tiszaalpár felső,46.836256,19.976753,2026-03-06 10:01:34.813010,14.8,13.22,13.28,15.52,1027,34,2.92,98,2,0.0,Clear,clear sky,9
Borsihalom,46.773056,19.92,2026-03-06 10:01:35.974304,14.62,13.05,13.27,15.51,1027,35,2.95,101,7,0.0,Clear,clear sky,9
Petőfiváros,46.725556,19.848611,2026-03-06 10:01:37.130825,14.43,12.92,14.43,15.48,1027,38,2.98,105,16,0.0,Clouds,few clouds,9
Csorna,47.601944,17.248889,2026-03-06 10:01:38.288191,12.22,11.06,12.22,12.22,1026,60,2.49,162,2,0.0,Clear,clear sky,9
Szorgalmatos,47.986667,21.366389,2026-03-06 10:01:39.446190,11.19,9.57,11.19,11.19,1027,46,1.53,41,9,0.0,Clear,clear sky,9
Fótfürdő,47.6225,19.200556,2026-03-06 10:01:40.607856,12.52,10.92,11.85,13.46,1027,42,1.76,132,12,0.0,Clouds,few clouds,9
Fenyveshegy,47.818333,19.068056,2026-03-06 10:01:41.763829,12.79,11.43,12.79,12.79,1027,50,1.97,130,11,0.0,Clouds,few clouds,9
Hűvösvölgy,47.541202,18.96351,2026-03-06 10:01:42.919379,12.09,10.5,11.39,13.0,1027,44,1.79,143,32,0.0,Clouds,scattered clouds,9
Hárshegy,47.535318,18.961433,2026-03-06 10:01:44.068178,12.09,10.5,11.39,13.0,1027,44,1.79,143,32,0.0,Clouds,scattered clouds,9
Szépjuhászné,47.528277,18.955246,2026-03-06 10:01:45.224074,11.22,9.55,10.5,12.11,1027,44,1.79,143,33,0.0,Clouds,scattered clouds,9
Jánoshegy,47.51433,18.95047,2026-03-06 10:01:46.380520,11.15,9.47,10.41,12.02,1027,44,1.79,143,33,0.0,Clouds,scattered clouds,9
Virágvölgy,47.505965,18.95876,2026-03-06 10:01:47.560583,10.86,9.15,10.1,11.71,1027,44,1.79,143,34,0.0,Clouds,scattered clouds,9
Csillebérc,47.498196,18.961694,2026-03-06 10:01:48.718878,10.64,8.91,9.86,11.48,1027,44,1.79,143,34,0.0,Clouds,scattered clouds,9
Normafa,47.5,18.970558,2026-03-06 10:01:49.880374,10.7,8.97,9.92,11.53,1027,44,1.79,143,34,0.0,Clouds,scattered clouds,9
Széchenyihegy,47.49413,18.977049,2026-03-06 10:01:51.058879,10.75,9.03,9.94,11.55,1027,44,1.79,143,33,0.0,Clouds,scattered clouds,9
Balatonfőkajár felső,47.031389,18.215278,2026-03-06 10:01:52.232229,9.62,8.55,9.62,9.62,1026,71,2.25,113,10,0.0,Clear,clear sky,9
Piroska,47.148333,20.129722,2026-03-06 10:01:53.394630,12.33,10.79,11.02,14.01,1027,45,3.09,80,0,0.0,Clear,clear sky,9
Somodor,46.4725,17.836667,2026-03-06 10:01:54.564781,12.61,11.34,12.61,12.61,1026,54,2.56,127,2,0.0,Clear,clear sky,9
Középmező,45.995833,18.668889,2026-03-06 10:01:55.759206,15.81,14.96,14.5,15.81,1026,58,2.67,117,7,0.0,Clear,clear sky,9
Jobbágyi,47.828889,19.6875,2026-03-06 10:01:56.915165,12.13,10.65,12.13,12.13,1027,48,1.23,157,6,0.0,Clear,clear sky,9
Ferihegy,47.437222,19.223889,2026-03-06 10:01:58.075212,12.51,10.86,12.08,13.7,1027,40,4.12,130,0,0.0,Clear,clear sky,9
Máriapócs,47.852778,22.019167,2026-03-06 10:01:59.240928,10.8,9.03,10.8,10.8,1027,42,3.0,13,12,0.0,Clouds,few clouds,9
Máriaudvar,47.751944,19.165,2026-03-06 10:02:00.408194,12.75,11.33,12.59,12.75,1027,48,1.99,133,9,0.0,Clear,clear sky,9
Nagyberki,46.353333,18.004167,2026-03-06 10:02:01.565816,12.88,11.58,12.88,12.88,1026,52,2.16,130,2,0.0,Clear,clear sky,9
Badacsonytomaj,46.804722,17.518056,2026-03-06 10:02:02.725915,12.29,11.14,12.29,12.29,1026,60,2.34,113,1,0.0,Clear,clear sky,9
Badacsony,46.788611,17.506389,2026-03-06 10:02:03.896903,12.11,10.94,12.11,12.11,1026,60,2.26,112,1,0.0,Clear,clear sky,9
Badacsonylábdihegy,46.793889,17.470833,2026-03-06 10:02:05.060716,12.08,10.91,12.08,12.08,1026,60,2.26,112,1,0.0,Clear,clear sky,9
Badacsonytördemic-Szigliget,46.809722,17.469167,2026-03-06 10:02:06.222002,12.03,10.86,12.03,12.03,1026,60,2.32,114,1,0.0,Clear,clear sky,9
Nemesgulács-Kisapáti,46.836944,17.476389,2026-03-06 10:02:07.381700,15.47,14.64,12.07,15.47,1026,60,2.4,118,1,0.0,Clear,clear sky,9
Tapolca,46.877778,17.428611,2026-03-06 10:02:08.543271,15.38,14.54,11.99,15.38,1026,60,2.48,129,1,0.0,Clear,clear sky,9
Uzsabánya alsó,46.898333,17.345278,2026-03-06 10:02:09.706382,11.79,10.59,11.79,11.79,1026,60,2.64,139,1,0.0,Clear,clear sky,9
Uzsa,46.920278,17.331667,2026-03-06 10:02:10.866137,11.75,10.55,11.75,11.75,1026,60,2.76,143,1,0.0,Clear,clear sky,9
Sümegi Bazaltbánya,46.9525,17.2925,2026-03-06 10:02:12.021121,12.04,10.87,12.04,12.04,1026,60,2.92,149,1,0.0,Clear,clear sky,9
Sümeg,46.981111,17.270833,2026-03-06 10:02:13.180687,12.21,11.05,12.21,12.21,1026,60,3.08,156,1,0.0,Clear,clear sky,9
Gógánfa,47.021111,17.207778,2026-03-06 10:02:14.344840,12.17,11.01,12.17,12.17,1026,60,3.24,162,1,0.0,Clear,clear sky,9
Ukk,47.041944,17.195833,2026-03-06 10:02:15.524963,12.21,11.05,12.21,12.21,1026,60,3.3,165,1,0.0,Clear,clear sky,9
Nemeskeresztúr,47.093611,17.183611,2026-03-06 10:02:16.680438,12.11,10.94,12.11,12.11,1026,60,3.28,169,1,0.0,Clear,clear sky,9
Jánosháza,47.115833,17.171667,2026-03-06 10:02:17.841943,12.16,11.0,12.16,12.16,1026,60,3.26,170,1,0.0,Clear,clear sky,9
Keszthely,46.758333,17.248056,2026-03-06 10:02:19.000048,12.08,10.96,12.08,12.08,1026,62,1.03,0,0,0.0,Clear,clear sky,9
Alsógyenes,46.765844,17.276435,2026-03-06 10:02:20.181037,12.08,10.96,12.08,12.08,1026,62,1.03,0,0,0.0,Clear,clear sky,9
Gyenesdiás,46.763333,17.292778,2026-03-06 10:02:21.346670,12.08,10.96,12.08,12.08,1026,62,1.03,0,0,0.0,Clear,clear sky,9
Vonyarcvashegy,46.755278,17.318333,2026-03-06 10:02:22.504164,12.09,10.97,12.09,12.09,1026,62,1.03,0,0,0.0,Clear,clear sky,9
Balatongyörök,46.751944,17.354444,2026-03-06 10:02:23.665939,12.11,11.0,12.11,12.11,1026,62,1.03,0,0,0.0,Clear,clear sky,9
Becehegy,46.776111,17.372778,2026-03-06 10:02:24.819837,12.08,10.96,12.08,12.08,1026,62,1.03,0,0,0.0,Clear,clear sky,9
Balatonederics,46.8025,17.385,2026-03-06 10:02:25.990409,12.03,10.86,12.03,12.03,1026,60,2.27,124,0,0.0,Clear,clear sky,9
Dabronc,47.025766,17.167006,2026-03-06 10:02:27.145160,12.22,11.06,12.22,12.22,1026,60,3.27,164,1,0.0,Clear,clear sky,9
Türje,46.994444,17.093611,2026-03-06 10:02:28.301612,12.23,11.1,12.23,12.23,1026,61,3.31,163,0,0.0,Clear,clear sky,9
Zalabér-Batyk,46.983056,17.040833,2026-03-06 10:02:29.461186,12.36,11.27,12.36,12.36,1026,62,3.38,164,0,0.0,Clear,clear sky,9
Pakod,46.959167,16.996667,2026-03-06 10:02:30.616467,12.26,11.16,12.26,12.26,1026,62,3.39,164,0,0.0,Clear,clear sky,9
Pókaszepetk,46.924444,16.972222,2026-03-06 10:02:31.777882,12.39,11.3,12.39,12.39,1026,62,3.37,160,0,0.0,Clear,clear sky,9
Kemendollár,46.905833,16.946667,2026-03-06 10:02:32.938174,11.91,10.78,11.91,11.91,1026,62,3.36,161,0,0.0,Clear,clear sky,9
Zalaegerszeg,46.833056,16.848333,2026-03-06 10:02:34.099986,11.73,10.6,11.73,11.73,1026,63,2.94,159,0,0.0,Clear,clear sky,9
Bocfölde,46.780278,16.853611,2026-03-06 10:02:35.268792,11.79,10.67,11.79,11.79,1026,63,2.89,156,0,0.0,Clear,clear sky,9
Sárhida,46.755833,16.851389,2026-03-06 10:02:36.426892,11.75,10.63,11.75,11.75,1026,63,2.7,156,0,0.0,Clear,clear sky,9
Bak,46.7325,16.849167,2026-03-06 10:02:37.588341,11.77,10.65,11.77,11.77,1026,63,2.63,156,0,0.0,Clear,clear sky,9
Tófej,46.670833,16.801944,2026-03-06 10:02:38.747210,11.61,10.47,11.61,11.61,1026,63,2.36,156,0,0.0,Clear,clear sky,9
Gutorfölde,46.646944,16.739722,2026-03-06 10:02:39.930771,12.18,11.1,12.18,12.18,1026,63,2.17,158,0,0.0,Clear,clear sky,9
Csömödér-Páka,46.608056,16.641111,2026-03-06 10:02:41.088971,11.29,10.09,11.29,15.57,1026,62,2.23,158,0,0.0,Clear,clear sky,9
Iklódbördőce,46.603056,16.604722,2026-03-06 10:02:42.248208,11.29,10.09,11.29,15.56,1026,62,2.38,159,0,0.0,Clear,clear sky,9
Lenti,46.621389,16.528611,2026-03-06 10:02:43.404671,11.23,10.03,11.23,15.51,1026,62,2.53,160,0,0.0,Clear,clear sky,9
Rédics,46.618056,16.471111,2026-03-06 10:02:44.566322,11.23,10.05,11.23,15.5,1026,63,2.57,159,0,0.0,Clear,clear sky,9
Zalalövő,46.845556,16.576389,2026-03-06 10:02:45.727875,12.18,11.1,12.18,12.18,1026,63,2.72,166,0,0.0,Clear,clear sky,9
Zalaegerszeg-Ola,46.849167,16.844722,2026-03-06 10:02:46.886178,12.25,11.18,12.25,12.25,1026,63,2.94,159,0,0.0,Clear,clear sky,9
Andráshida,46.863116,16.7792,2026-03-06 10:02:48.041389,12.22,11.14,12.22,12.22,1026,63,2.93,160,0,0.0,Clear,clear sky,9
Bagod,46.875,16.746111,2026-03-06 10:02:49.198533,12.33,11.26,12.33,12.33,1026,63,2.8,162,0,0.0,Clear,clear sky,9
Zalaszentgyörgy,46.872222,16.7125,2026-03-06 10:02:50.375729,12.29,11.22,12.29,12.29,1026,63,2.77,162,0,0.0,Clear,clear sky,9
Zalacséb-Salomvár,46.858056,16.662222,2026-03-06 10:02:51.535369,12.07,10.98,12.07,12.07,1026,63,2.76,163,0,0.0,Clear,clear sky,9
Kópháza,47.631389,16.6375,2026-03-06 10:02:52.703225,11.77,10.65,11.77,12.43,1025,63,4.7,164,1,0.0,Clear,clear sky,9
Nagycenk,47.601111,16.690278,2026-03-06 10:02:53.865205,11.88,10.77,11.88,12.54,1025,63,4.63,166,1,0.0,Clear,clear sky,9
Sopronkövesd,47.548333,16.748056,2026-03-06 10:02:55.023260,12.37,11.75,11.71,12.37,1025,80,4.44,170,1,0.0,Clear,clear sky,9
Lövő,47.509444,16.7775,2026-03-06 10:02:56.182127,12.41,11.8,11.75,12.41,1025,80,4.25,171,1,0.0,Clear,clear sky,9
Újkér,47.457778,16.786667,2026-03-06 10:02:57.343753,12.43,11.82,12.43,12.43,1025,80,4.1,174,1,0.0,Clear,clear sky,9
Bük,47.388611,16.752222,2026-03-06 10:02:58.507119,12.49,11.88,12.49,12.49,1025,80,3.85,178,1,0.0,Clear,clear sky,9
Acsád,47.308333,16.734722,2026-03-06 10:02:59.671027,12.24,11.61,12.24,12.24,1025,80,3.5,179,0,0.0,Clear,clear sky,9
Salköveskút-Vassurány,47.291389,16.704167,2026-03-06 10:03:00.828179,12.25,11.62,12.25,12.25,1025,80,3.42,179,0,0.0,Clear,clear sky,9
Zalaszentiván,46.8875,16.909444,2026-03-06 10:03:01.989040,12.89,11.85,12.89,12.89,1026,62,3.24,160,0,0.0,Clear,clear sky,9
Alsónemesapáti,46.854167,16.936389,2026-03-06 10:03:03.151280,12.88,11.87,12.88,12.88,1026,63,3.3,158,0,0.0,Clear,clear sky,9
Józsa,47.600833,21.584444,2026-03-06 10:03:04.310121,11.86,10.02,11.86,11.86,1027,35,2.06,0,0,0.0,Clear,clear sky,9
Hajdúszentgyörgy,47.608056,21.578333,2026-03-06 10:03:05.467925,11.83,9.98,11.83,11.83,1027,35,2.06,0,0,0.0,Clear,clear sky,9
Zelemér,47.627778,21.578333,2026-03-06 10:03:06.636061,11.78,9.93,11.78,11.78,1027,35,2.06,0,0,0.0,Clear,clear sky,9
Hajdúböszörmény,47.668056,21.524167,2026-03-06 10:03:07.803819,11.81,10.12,11.81,11.81,1027,41,2.89,25,9,0.0,Clear,clear sky,9
Hajdúvid,47.749444,21.508056,2026-03-06 10:03:08.959785,11.29,9.6,11.29,11.29,1027,43,2.59,27,9,0.0,Clear,clear sky,9
Hajdúdorog,47.805556,21.493056,2026-03-06 10:03:10.134562,11.24,9.57,11.24,11.24,1027,44,2.48,28,10,0.0,Clear,clear sky,9
Hajdúnánás,47.831944,21.426667,2026-03-06 10:03:11.297377,11.32,9.68,11.32,11.32,1027,45,2.12,32,9,0.0,Clear,clear sky,9
Hajdúnánás-Vásártér,47.843056,21.407222,2026-03-06 10:03:12.476598,11.32,9.68,11.32,11.32,1027,45,2.12,32,9,0.0,Clear,clear sky,9
Tedej,47.903611,21.404444,2026-03-06 10:03:13.639232,11.25,9.61,11.25,11.25,1027,45,1.92,34,9,0.0,Clear,clear sky,9
Tiszavasvári,47.945278,21.374722,2026-03-06 10:03:14.798916,11.22,9.6,11.22,11.22,1027,46,1.72,38,9,0.0,Clear,clear sky,9
Egyházerdő,47.9725,21.365,2026-03-06 10:03:15.954592,11.22,9.6,11.22,11.22,1027,46,1.63,39,9,0.0,Clear,clear sky,9
Tiszalök,48.013056,21.369167,2026-03-06 10:03:17.112570,11.16,9.53,11.16,11.16,1027,46,1.43,43,9,0.0,Clear,clear sky,9
Hajnalos,47.998889,21.414167,2026-03-06 10:03:18.271182,11.2,9.55,11.2,11.2,1027,45,1.65,38,9,0.0,Clear,clear sky,9
Kisfástanya,47.989167,21.47,2026-03-06 10:03:19.433898,11.16,9.51,11.16,11.16,1027,45,1.79,34,10,0.0,Clear,clear sky,9
Tiszaeszlár,48.010556,21.491944,2026-03-06 10:03:20.595080,11.18,9.53,11.18,11.18,1027,45,1.85,32,10,0.0,Clear,clear sky,9
Bashalom,48.026111,21.514722,2026-03-06 10:03:21.753677,11.19,9.54,11.19,11.19,1027,45,1.74,34,10,0.0,Clear,clear sky,9
Sáránd,47.415556,21.625,2026-03-06 10:03:22.939768,12.01,10.18,12.01,12.01,1027,35,2.06,0,0,0.0,Clear,clear sky,9
Derecske,47.365,21.584167,2026-03-06 10:03:24.098022,12.08,10.26,12.08,12.08,1027,35,2.06,0,0,0.0,Clear,clear sky,9
Derecske-Vásártér,47.352222,21.58,2026-03-06 10:03:25.263852,12.08,10.26,12.08,12.08,1027,35,2.06,0,0,0.0,Clear,clear sky,9
Konyár,47.323611,21.666111,2026-03-06 10:03:26.421647,12.05,10.22,12.05,12.05,1027,35,2.06,0,0,0.0,Clear,clear sky,9
Konyári Sóstófürdő,47.324167,21.744444,2026-03-06 10:03:27.580314,12.06,10.37,12.06,12.06,1027,40,3.26,30,9,0.0,Clear,clear sky,9
Pocsaj-Esztár,47.288333,21.793056,2026-03-06 10:03:28.745428,12.05,10.36,12.05,12.46,1027,40,3.22,30,9,0.0,Clear,clear sky,9
Kismarja,47.243889,21.813889,2026-03-06 10:03:29.909216,12.46,10.81,12.24,12.46,1027,40,3.26,31,11,0.0,Clouds,few clouds,9
Nagykereki,47.191667,21.8,2026-03-06 10:03:31.072155,12.45,10.74,12.23,12.45,1027,38,3.32,30,12,0.0,Clouds,few clouds,9
Debrecen-Szabadságtelep,47.527778,21.658611,2026-03-06 10:03:32.239115,11.89,10.05,11.89,11.89,1027,35,2.06,0,0,0.0,Clear,clear sky,9
Kondoroskert,47.525556,21.713889,2026-03-06 10:03:33.397060,11.92,10.08,11.92,11.92,1027,35,2.06,0,0,0.0,Clear,clear sky,9
Nagycsere,47.523889,21.763056,2026-03-06 10:03:34.552715,11.9,10.06,11.9,11.9,1027,35,2.06,0,0,0.0,Clear,clear sky,9
Haláp,47.521667,21.818333,2026-03-06 10:03:35.712018,11.9,10.06,11.9,11.9,1027,35,2.06,0,0,0.0,Clear,clear sky,9
Vámospércs,47.518056,21.893889,2026-03-06 10:03:36.870998,11.84,10.15,11.84,11.84,1027,41,3.25,23,10,0.0,Clear,clear sky,9
Szentannapuszta,47.52,21.965833,2026-03-06 10:03:38.029437,11.79,10.1,11.79,11.79,1027,41,3.13,24,10,0.0,Clear,clear sky,9
Nyírábrány,47.523889,22.016944,2026-03-06 10:03:39.188132,11.26,9.51,11.26,11.26,1027,41,3.06,24,10,0.0,Clear,clear sky,9
Dombostanya,47.602778,21.706389,2026-03-06 10:03:40.351269,11.82,9.97,11.82,11.82,1027,35,2.06,0,0,0.0,Clear,clear sky,9
Hajdúsámson,47.608056,21.755278,2026-03-06 10:03:41.507068,11.82,9.97,11.82,11.82,1027,35,2.06,0,0,0.0,Clear,clear sky,9
Tamásipuszta,47.632778,21.796111,2026-03-06 10:03:42.669236,11.77,10.07,11.77,11.77,1027,41,3.4,20,12,0.0,Clouds,few clouds,9
Aradványpuszta,47.662778,21.8425,2026-03-06 10:03:43.828803,11.72,10.02,11.72,11.72,1027,41,3.37,19,12,0.0,Clouds,few clouds,9
Nyíradony,47.699444,21.903333,2026-03-06 10:03:44.998574,11.08,9.34,11.08,11.08,1027,42,3.22,17,13,0.0,Clouds,few clouds,9
Nyírmihálydi,47.7375,21.958889,2026-03-06 10:03:46.167733,11.03,9.29,11.03,11.03,1027,42,3.16,16,13,0.0,Clouds,few clouds,9
Nyírgelse,47.750833,21.987778,2026-03-06 10:03:47.342917,10.95,9.2,10.95,10.95,1027,42,3.1,15,12,0.0,Clouds,few clouds,9
Nyírbogát,47.793056,22.066389,2026-03-06 10:03:48.500401,10.96,9.23,10.96,10.96,1027,43,2.92,14,9,0.0,Clear,clear sky,9
Nagykálló,47.871111,21.825833,2026-03-06 10:03:49.657933,11.2,9.5,11.2,11.2,1027,43,3.31,15,15,0.0,Clouds,few clouds,9
Kállósemjén,47.854722,21.935,2026-03-06 10:03:50.819897,11.12,9.41,11.12,11.12,1027,43,3.19,14,14,0.0,Clouds,few clouds,9
Nyírbátor,47.8425,22.131111,2026-03-06 10:03:51.975705,10.89,9.16,10.89,10.89,1027,43,2.85,14,8,0.0,Clear,clear sky,9
Nyírcsászári,47.865556,22.179167,2026-03-06 10:03:53.141425,10.9,9.17,10.9,10.9,1027,43,2.72,14,9,0.0,Clear,clear sky,9
Hodász,47.896111,22.213611,2026-03-06 10:03:54.298896,10.84,9.1,10.84,10.84,1027,43,2.59,14,13,0.0,Clouds,few clouds,9
Nyírmeggyes,47.9225,22.256667,2026-03-06 10:03:55.455981,10.88,9.17,10.88,10.88,1027,44,2.45,14,18,0.0,Clouds,few clouds,9
Mátészalka,47.951389,22.313333,2026-03-06 10:03:56.612788,10.91,9.21,10.91,10.91,1027,44,2.35,14,22,0.0,Clouds,few clouds,9
Kocsord,47.941944,22.375833,2026-03-06 10:03:57.796809,11.0,9.3,11.0,11.0,1027,44,2.23,15,34,0.0,Clouds,scattered clouds,9
Kocsord alsó,47.946389,22.400556,2026-03-06 10:03:58.962554,11.0,9.3,11.0,11.0,1027,44,2.23,15,34,0.0,Clouds,scattered clouds,9
Győrtelek,47.936667,22.424722,2026-03-06 10:04:00.117932,11.01,9.32,11.01,11.01,1027,44,2.18,15,39,0.0,Clouds,scattered clouds,9
Győrtelek alsó,47.921111,22.443333,2026-03-06 10:04:01.273803,10.99,9.29,10.99,10.99,1027,44,2.18,15,43,0.0,Clouds,scattered clouds,9
Ököritófülpös,47.911389,22.495,2026-03-06 10:04:02.441629,10.98,9.28,10.98,10.98,1027,44,2.14,15,47,0.0,Clouds,scattered clouds,9
Porcsalma-Tyukod,47.868056,22.568333,2026-03-06 10:04:03.610023,11.17,9.49,10.05,11.17,1027,44,2.07,14,54,0.0,Clouds,broken clouds,9
Csenger,47.826111,22.666389,2026-03-06 10:04:04.766142,11.16,9.48,10.04,11.16,1027,44,1.98,13,54,0.0,Clouds,broken clouds,9
Kisfái,46.888303,19.807366,2026-03-06 10:04:05.940924,13.37,11.78,13.02,14.36,1027,39,2.06,90,0,0.0,Clear,clear sky,9
Nyárlőrinci szőlők,46.8775,19.828333,2026-03-06 10:04:07.103978,13.61,12.04,13.03,15.4,1027,39,2.06,90,0,0.0,Clear,clear sky,9
Nyárlőrinc alsó,46.863889,19.878889,2026-03-06 10:04:08.259556,13.68,12.12,13.05,15.42,1027,39,2.06,90,0,0.0,Clear,clear sky,9
Tiszaug-Tiszahídfő,46.866106,20.052098,2026-03-06 10:04:09.423142,14.12,12.63,13.2,14.54,1027,40,2.89,96,2,0.0,Clear,clear sky,9
Csongrádi úti tanyák,46.690278,19.921667,2026-03-06 10:04:10.578892,14.48,12.98,13.16,14.49,1028,38,2.96,99,10,0.0,Clear,clear sky,9
Kettőshalom,46.689167,20.0225,2026-03-06 10:04:11.743613,14.91,13.34,13.33,15.57,1027,34,2.96,94,4,0.0,Clear,clear sky,9
Csongrád alsó,46.711389,20.126389,2026-03-06 10:04:12.910897,15.25,13.67,13.33,15.57,1027,32,2.98,89,2,0.0,Clear,clear sky,9
Dónát,46.66988,20.368168,2026-03-06 10:04:14.071773,14.04,12.65,13.35,15.59,1027,44,3.13,79,4,0.0,Clear,clear sky,9
Pusztatemplom,46.676667,20.407222,2026-03-06 10:04:15.248049,14.08,12.69,13.34,15.57,1027,44,3.13,79,4,0.0,Clear,clear sky,9
Előhát,47.364722,20.653611,2026-03-06 10:04:16.427098,12.37,10.81,12.37,12.37,1027,44,2.5,45,2,0.0,Clear,clear sky,9
Polgárdi-Tekerespuszta,47.017778,18.297778,2026-03-06 10:04:17.597924,9.84,8.78,9.84,9.84,1026,46,2.29,114,11,0.0,Clouds,few clouds,9
Szatina-Kishajmás,46.202778,18.083611,2026-03-06 10:04:18.756443,14.25,13.09,14.25,14.25,1026,52,2.1,138,1,0.0,Clear,clear sky,9
Márok,45.886944,18.499167,2026-03-06 10:04:19.931440,14.42,13.56,14.27,15.58,1026,63,0.45,132,3,0.0,Clear,clear sky,9
Nagynyárád,45.953333,18.564722,2026-03-06 10:04:21.097222,15.02,14.17,14.34,15.65,1026,61,2.6,116,5,0.0,Clear,clear sky,9
Szászvár,46.2875,18.369722222222222,2026-03-06 10:04:22.255831,15.24,14.2,15.24,15.24,1026,53,2.55,122,5,0.0,Clear,clear sky,9
Cikó,46.263514,18.557605,2026-03-06 10:04:23.414310,15.56,14.61,15.56,15.56,1026,55,2.64,122,6,0.0,Clear,clear sky,9
Gyöngyfa-Magyarmecske,45.983889,17.958889,2026-03-06 10:04:24.575060,14.57,13.57,14.57,14.57,1026,57,3.03,131,0,0.0,Clear,clear sky,9
Nagyhát,47.581389,21.445,2026-03-06 10:04:25.730648,11.92,10.08,11.92,11.92,1027,35,2.06,0,0,0.0,Clear,clear sky,9
Balmazújváros,47.613889,21.348056,2026-03-06 10:04:26.890458,12.1,10.51,12.1,12.1,1027,44,2.22,30,7,0.0,Clear,clear sky,9
Kónya,47.600833,21.2375,2026-03-06 10:04:28.049036,11.85,10.27,11.85,11.85,1027,45,2.01,32,6,0.0,Clear,clear sky,9
Hortobágy,47.586111,21.154722,2026-03-06 10:04:29.206017,11.9,10.32,11.9,11.9,1027,45,1.88,36,6,0.0,Clear,clear sky,9
Hortobágyi Halastó,47.604167,21.074167,2026-03-06 10:04:30.372323,11.93,10.38,11.93,11.93,1027,46,1.88,37,5,0.0,Clear,clear sky,9
Ohat-Pusztakócs,47.623333,20.951111,2026-03-06 10:04:31.529628,11.96,10.44,11.96,11.96,1027,47,2.07,36,4,0.0,Clear,clear sky,9
Egyek,47.616944,20.883611,2026-03-06 10:04:32.685073,12.01,10.49,12.01,12.01,1027,47,2.12,36,4,0.0,Clear,clear sky,9
Tiszafüred,47.627778,20.756111,2026-03-06 10:04:33.874147,12.05,10.54,12.05,12.05,1027,47,2.03,37,4,0.0,Clear,clear sky,9
Poroszló,47.657778,20.654444,2026-03-06 10:04:35.043538,12.13,10.63,12.13,12.13,1027,47,1.53,45,3,0.0,Clear,clear sky,9
Kétútköz,47.694167,20.565,2026-03-06 10:04:36.202172,12.07,10.59,12.07,12.07,1027,48,0.99,63,3,0.0,Clear,clear sky,9
Egerfarmos,47.711667,20.5225,2026-03-06 10:04:37.368375,12.09,10.61,12.09,12.09,1027,48,0.76,76,3,0.0,Clear,clear sky,9
Piliscsaba,47.638056,18.829722,2026-03-06 10:04:38.525894,12.36,10.8,12.01,13.09,1026,44,0.45,258,34,0.0,Clouds,scattered clouds,9
Pilisjászfalu,47.656111,18.797778,2026-03-06 10:04:39.683839,12.61,11.05,12.26,13.34,1026,43,2.23,133,35,0.0,Clouds,scattered clouds,9
Leányvár,47.687594,18.772553,2026-03-06 10:04:40.856227,12.83,11.29,12.43,12.83,1026,43,2.21,135,36,0.0,Clouds,scattered clouds,9
Dorog,47.723333,18.732778,2026-03-06 10:04:42.018179,13.05,11.59,13.05,13.05,1026,45,2.14,139,37,0.0,Clouds,scattered clouds,9
Esztergom-Kertváros,47.743333,18.719167,2026-03-06 10:04:43.176969,13.12,11.66,13.12,13.12,1026,45,2.09,140,35,0.0,Clouds,scattered clouds,9
Esztergom,47.7775,18.743611,2026-03-06 10:04:44.336190,13.18,11.73,13.18,13.18,1026,45,1.97,138,31,0.0,Clouds,scattered clouds,9
Dunaalmás,47.733056,18.326389,2026-03-06 10:04:45.501686,12.46,10.99,12.46,12.46,1026,47,2.54,141,16,0.0,Clouds,few clouds,9
Neszmély,47.734444,18.345278,2026-03-06 10:04:46.664092,12.46,10.99,12.46,12.46,1026,47,2.54,141,16,0.0,Clouds,few clouds,9
Süttő,47.761111,18.455,2026-03-06 10:04:47.827210,12.45,10.95,12.45,12.45,1026,46,2.38,143,29,0.0,Clouds,scattered clouds,9
Piszke,47.75307,18.478017,2026-03-06 10:04:48.987558,12.5,11.01,12.5,12.5,1026,46,2.35,143,31,0.0,Clouds,scattered clouds,9
Lábatlan,47.751944,18.513333,2026-03-06 10:04:50.143963,12.5,11.01,12.5,12.5,1026,46,2.33,143,33,0.0,Clouds,scattered clouds,9
Eternitgyár,47.755544,18.530014,2026-03-06 10:04:51.306728,12.5,11.01,12.5,12.5,1026,46,2.33,143,33,0.0,Clouds,scattered clouds,9
Nyergesújfalu felső,47.762222,18.540556,2026-03-06 10:04:52.479328,12.5,11.01,12.5,12.5,1026,46,2.33,143,33,0.0,Clouds,scattered clouds,9
Nyergesújfalu,47.761111,18.561667,2026-03-06 10:04:53.643433,12.46,10.96,12.46,12.46,1026,46,2.3,142,35,0.0,Clouds,scattered clouds,9
Tokod,47.735,18.675,2026-03-06 10:04:54.805021,13.14,11.68,13.14,13.14,1026,45,2.19,140,37,0.0,Clouds,scattered clouds,9
Környe,47.541667,18.330278,2026-03-06 10:04:55.961929,12.2,10.7,12.2,12.2,1026,47,2.83,134,16,0.0,Clouds,few clouds,9
Kecskéd alsó,47.519722,18.316667,2026-03-06 10:04:57.124773,12.2,10.7,12.2,12.2,1026,47,2.91,134,14,0.0,Clouds,few clouds,9
Oroszlány,47.486944,18.308611,2026-03-06 10:04:58.291465,12.11,10.6,12.11,12.11,1026,47,2.91,133,14,0.0,Clouds,few clouds,9
Győrszabadhegy,47.663056,17.648056,2026-03-06 10:04:59.454969,14.08,12.77,14.08,14.08,1026,47,4.12,110,0,0.0,Clear,clear sky,9
Ménfőcsanak felső,47.638333,17.615,2026-03-06 10:05:00.610677,14.08,12.77,14.08,14.08,1026,47,4.12,110,0,0.0,Clear,clear sky,9
Gyömöre-Tét,47.501672,17.559596,2026-03-06 10:05:01.769928,15.03,13.82,13.91,15.03,1026,47,2.57,200,5,0.0,Clear,clear sky,9
Szerecseny,47.469167,17.5475,2026-03-06 10:05:02.924801,15.02,13.8,13.9,15.02,1026,47,2.57,200,5,0.0,Clear,clear sky,9
Gecse-Gyarmat,47.456111,17.515,2026-03-06 10:05:04.085755,15.05,13.84,13.94,15.05,1026,47,2.57,200,4,0.0,Clear,clear sky,9
Vaszar,47.4025,17.496389,2026-03-06 10:05:05.245960,15.08,13.87,15.08,15.08,1026,47,2.57,200,4,0.0,Clear,clear sky,9
Pápa,47.340556,17.458889,2026-03-06 10:05:06.411656,15.03,13.82,15.03,15.03,1026,47,2.57,200,4,0.0,Clear,clear sky,9
Mezőlak,47.324722,17.371389,2026-03-06 10:05:07.574353,15.11,13.9,15.11,15.11,1026,47,2.57,200,3,0.0,Clear,clear sky,9
Mihályháza,47.318889,17.331667,2026-03-06 10:05:08.729696,15.14,13.94,15.14,15.14,1026,47,2.57,200,3,0.0,Clear,clear sky,9
