station_name,station_lat,station_lon,observation_time,temp,feels_like,temp_min,temp_max,pressure,humidity,wind_speed,wind_deg,clouds,precipitation_1h,weather_main,weather_description,collection_hour
Búcsúszentlászló,46.793056,16.932778,2026-03-19 16:01:14.679318,11.84,10.2,11.84,11.84,1019,43,5.29,28,100,0.0,Clouds,overcast clouds,16
Angyalföld,47.549722,19.09,2026-03-19 16:01:15.877558,12.19,10.56,12.05,12.23,1018,42,4.63,110,0,0.0,Clear,clear sky,16
Felsőjánosfa,46.841389,16.544167,2026-03-19 16:01:17.081399,12.55,10.98,12.55,12.55,1019,43,4.73,34,65,0.0,Clouds,broken clouds,16
Pankasz,46.835833,16.496111,2026-03-19 16:01:18.279242,12.27,10.68,12.27,12.27,1019,43,4.71,37,60,0.0,Clouds,broken clouds,16
Nagyrákos,46.827222,16.455556,2026-03-19 16:01:19.479288,12.24,10.64,12.24,12.24,1019,43,4.69,38,58,0.0,Clouds,broken clouds,16
Őriszentpéter,46.828889,16.415278,2026-03-19 16:01:20.681977,12.36,10.8,12.36,12.36,1019,44,4.63,42,56,0.0,Clouds,broken clouds,16
Törökbálint,47.45,18.908611,2026-03-19 16:01:21.897459,11.92,10.29,11.83,12.01,1018,43,1.34,85,93,0.0,Clouds,overcast clouds,16
Bicske alsó,47.486389,18.642778,2026-03-19 16:01:23.096429,11.74,10.01,11.72,11.9,1019,40,3.33,28,75,0.0,Clouds,broken clouds,16
Bajánsenye,46.818056,16.358056,2026-03-19 16:01:24.301391,12.43,10.88,12.43,12.43,1019,44,4.68,44,57,0.0,Clouds,broken clouds,16
Aquincum,47.566218,19.048273,2026-03-19 16:01:25.512788,12.2,10.57,12.08,12.26,1018,42,0.89,102,79,0.0,Clouds,broken clouds,16
Piliscsév,47.673889,18.791389,2026-03-19 16:01:26.712946,11.69,10.01,11.66,11.85,1019,42,2.39,29,57,0.0,Clouds,broken clouds,16
Tát,47.741201,18.64783,2026-03-19 16:01:27.908416,12.07,10.35,12.07,12.07,1019,39,1.54,352,46,0.0,Clouds,scattered clouds,16
Süttő felső,47.756667,18.437222,2026-03-19 16:01:29.110726,12.71,11.05,12.71,12.71,1019,39,2.67,330,48,0.0,Clouds,scattered clouds,16
Budatétény,47.405,19.016389,2026-03-19 16:01:30.517535,12.19,10.56,12.12,12.3,1018,42,4.63,110,0,0.0,Clear,clear sky,16
Seregélyes-Szőlőhegy,47.119444,18.612222,2026-03-19 16:01:32.065700,12.4,10.74,12.4,12.4,1019,40,2.87,40,77,0.0,Clouds,broken clouds,16
Gödöllő-Állami telepek,47.564444,19.375556,2026-03-19 16:01:33.310037,11.73,9.92,11.68,11.75,1019,37,4.63,110,0,0.0,Clear,clear sky,16
Dunakeszi alsó,47.607778,19.128889,2026-03-19 16:01:34.611522,12.17,10.54,11.49,12.23,1018,42,3.14,45,76,0.0,Clouds,broken clouds,16
Vác-Alsóváros,47.773056,19.149722,2026-03-19 16:01:35.826606,12.17,10.49,11.47,12.17,1019,40,3.02,46,43,0.0,Clouds,scattered clouds,16
Szob alsó,47.816667,18.8725,2026-03-19 16:01:37.038887,11.5,9.75,11.5,11.5,1019,40,1.44,30,51,0.0,Clouds,broken clouds,16
Zalaszentmihály-Pacsa,46.7225,16.951944,2026-03-19 16:01:38.239461,11.75,10.02,11.75,11.75,1019,40,5.14,80,0,0.0,Clear,clear sky,16
Pötréte,46.682778,16.9575,2026-03-19 16:01:39.442509,11.75,10.02,11.75,11.75,1019,40,5.14,80,0,0.0,Clear,clear sky,16
Felsőrajk,46.667222,16.982778,2026-03-19 16:01:40.642844,11.81,10.09,11.81,11.81,1019,40,5.14,80,0,0.0,Clear,clear sky,16
Gelse,46.600556,16.982778,2026-03-19 16:01:41.854274,11.81,10.09,11.81,11.81,1019,40,5.14,80,0,0.0,Clear,clear sky,16
Őrtilos,46.297778,16.887778,2026-03-19 16:01:43.067797,12.64,11.13,12.64,12.64,1019,45,5.01,46,36,0.0,Clouds,scattered clouds,16
Zákány,46.251944,16.9425,2026-03-19 16:01:44.267132,12.43,10.9,12.43,12.43,1018,45,5.59,37,62,0.0,Clouds,broken clouds,16
Berzence,46.201389,17.143611,2026-03-19 16:01:45.463305,12.75,11.2,12.75,12.75,1018,43,5.67,33,100,0.0,Clouds,overcast clouds,16
Somogyudvarhely,46.163333,17.179722,2026-03-19 16:01:46.669388,12.72,11.17,12.72,12.72,1018,43,5.44,34,100,0.0,Clouds,overcast clouds,16
Bélavár,46.122778,17.207778,2026-03-19 16:01:47.870834,12.79,11.25,12.79,12.79,1018,43,4.86,36,100,0.0,Clouds,overcast clouds,16
Vízvár,46.101389,17.239444,2026-03-19 16:01:49.075339,12.69,11.16,12.69,12.69,1018,44,4.55,39,100,0.0,Clouds,overcast clouds,16
Babócsa,46.028359,17.342276,2026-03-19 16:01:50.281719,12.69,11.16,12.69,12.69,1018,44,4.0,45,98,0.0,Clouds,overcast clouds,16
Péterhida-Komlósd,46.006667,17.358056,2026-03-19 16:01:51.476558,12.74,11.22,12.74,12.74,1018,44,3.87,48,96,0.0,Clouds,overcast clouds,16
Barcs,45.951944,17.446944,2026-03-19 16:01:53.103557,12.71,11.21,12.71,12.71,1018,45,3.95,53,93,0.0,Clouds,overcast clouds,16
Barcs felső,45.958333,17.486389,2026-03-19 16:01:54.318071,12.59,11.08,12.59,12.59,1018,45,4.01,53,93,0.0,Clouds,overcast clouds,16
Középrigóc,45.970556,17.525,2026-03-19 16:01:55.532045,12.5,10.98,12.5,12.5,1018,45,4.07,53,93,0.0,Clouds,overcast clouds,16
Darány,45.992222,17.598611,2026-03-19 16:01:56.777869,12.46,10.94,12.46,12.46,1018,45,4.14,54,93,0.0,Clouds,overcast clouds,16
Kisdobsza,46.012222,17.668056,2026-03-19 16:01:57.978234,12.48,10.98,12.48,12.48,1018,46,4.18,55,92,0.0,Clouds,overcast clouds,16
Nemeske,46.023333,17.705278,2026-03-19 16:01:59.181225,12.48,10.98,12.48,12.48,1018,46,4.22,56,93,0.0,Clouds,overcast clouds,16
Molvány,46.035278,17.748611,2026-03-19 16:02:00.424255,12.45,10.95,12.45,12.45,1018,46,4.23,57,93,0.0,Clouds,overcast clouds,16
Szigetvár,46.043333,17.801944,2026-03-19 16:02:01.818460,12.41,10.91,12.41,12.41,1018,46,4.25,57,93,0.0,Clouds,overcast clouds,16
Nagypeterd,46.039444,17.871667,2026-03-19 16:02:03.021910,11.53,9.94,11.53,11.53,1018,46,4.24,58,94,0.0,Clouds,overcast clouds,16
Szentdénes,46.036667,17.926944,2026-03-19 16:02:04.240367,11.48,9.88,11.48,11.48,1018,46,4.24,58,94,0.0,Clouds,overcast clouds,16
Háros,47.412222,19.035,2026-03-19 16:02:05.439281,12.16,10.53,11.52,12.26,1018,42,4.63,110,0,0.0,Clear,clear sky,16
Nagytétény-Diósd,47.398333,18.974444,2026-03-19 16:02:06.647253,12.18,10.58,11.55,12.29,1018,43,1.34,85,95,0.0,Clouds,overcast clouds,16
Érdliget,47.390278,18.937778,2026-03-19 16:02:07.845551,12.09,10.48,11.47,12.21,1018,43,1.34,85,95,0.0,Clouds,overcast clouds,16
Érd felső,47.381111,18.922222,2026-03-19 16:02:09.041190,12.05,10.43,11.43,12.18,1018,43,1.34,85,95,0.0,Clouds,overcast clouds,16
Érd,47.369722,18.900833,2026-03-19 16:02:10.253695,12.01,10.39,11.4,12.14,1019,43,3.21,47,95,0.0,Clouds,overcast clouds,16
Százhalombatta,47.322222,18.899167,2026-03-19 16:02:11.456466,12.01,10.36,11.38,12.12,1019,42,3.09,54,94,0.0,Clouds,overcast clouds,16
Dunai Finomító,47.294444,18.878889,2026-03-19 16:02:12.651505,11.8,10.13,11.8,11.96,1019,42,2.87,49,92,0.0,Clouds,overcast clouds,16
Ercsi,47.247222,18.875278,2026-03-19 16:02:13.855229,12.03,10.33,12.03,12.19,1019,40,2.82,52,90,0.0,Clouds,overcast clouds,16
Iváncsa,47.177778,18.811944,2026-03-19 16:02:15.050476,12.22,10.54,12.22,12.22,1019,40,2.71,50,84,0.0,Clouds,broken clouds,16
Pusztaszabolcs,47.139722,18.761667,2026-03-19 16:02:16.248287,12.31,10.64,12.31,12.31,1019,40,2.87,51,81,0.0,Clouds,broken clouds,16
Szabadegyháza,47.082778,18.704167,2026-03-19 16:02:17.455448,12.3,10.63,12.3,12.3,1019,40,3.05,51,77,0.0,Clouds,broken clouds,16
Sárosd,47.039722,18.660278,2026-03-19 16:02:18.650601,12.39,10.73,12.39,12.39,1019,40,3.11,50,73,0.0,Clouds,broken clouds,16
Nagylók,46.979444,18.635833,2026-03-19 16:02:19.844918,12.23,10.55,12.23,12.23,1019,40,3.52,51,71,0.0,Clouds,broken clouds,16
Sárbogárd,46.896944,18.611944,2026-03-19 16:02:21.052736,12.45,10.8,12.45,12.45,1018,40,3.93,47,72,0.0,Clouds,broken clouds,16
Rétszilas,46.814167,18.601389,2026-03-19 16:02:22.248456,12.49,10.84,12.49,12.49,1018,40,4.39,42,78,0.0,Clouds,broken clouds,16
Nagyatád,46.228611,17.354167,2026-03-19 16:02:23.447575,12.66,11.05,12.66,12.66,1018,41,5.31,37,99,0.0,Clouds,overcast clouds,16
Budapest-Keleti,47.500278,19.084167,2026-03-19 16:02:24.647623,12.15,10.52,11.47,12.21,1019,42,4.63,110,0,0.0,Clear,clear sky,16
Ferencváros,47.468611,19.088056,2026-03-19 16:02:25.836050,12.46,10.86,12.01,12.75,1018,42,4.63,110,0,0.0,Clear,clear sky,16
Budapest-Nyugati,47.510833,19.0575,2026-03-19 16:02:27.036800,12.16,10.53,11.48,12.22,1019,42,4.63,110,0,0.0,Clear,clear sky,16
Kőbánya felső,47.491944,19.133889,2026-03-19 16:02:28.245800,12.09,10.43,11.41,12.15,1018,41,4.63,110,0,0.0,Clear,clear sky,16
Rákos,47.488889,19.174722,2026-03-19 16:02:29.440036,12.06,10.39,11.37,12.11,1019,41,4.63,110,0,0.0,Clear,clear sky,16
Rákosrendező,47.525556,19.089444,2026-03-19 16:02:30.634932,12.21,10.58,11.51,12.25,1018,42,4.63,110,0,0.0,Clear,clear sky,16
Zugló,47.511389,19.101389,2026-03-19 16:02:31.840026,12.16,10.53,11.47,12.21,1018,42,4.63,110,0,0.0,Clear,clear sky,16
Mezőtárkány,47.725,20.480278,2026-03-19 16:02:33.055652,11.01,9.32,11.01,11.01,1019,44,6.55,44,75,0.0,Clouds,broken clouds,16
Istvántelek,47.550278,19.106389,2026-03-19 16:02:34.259878,12.2,10.57,11.5,12.24,1018,42,4.63,110,0,0.0,Clear,clear sky,16
Rákospalota-Újpest,47.565833,19.111944,2026-03-19 16:02:35.460093,12.19,10.56,11.49,12.23,1018,42,4.63,110,0,0.0,Clear,clear sky,16
Kőbánya alsó,47.483056,19.127222,2026-03-19 16:02:36.659996,12.1,10.44,11.42,12.16,1018,41,4.63,110,0,0.0,Clear,clear sky,16
Kőbánya-Kispest,47.463889,19.149444,2026-03-19 16:02:37.871876,12.11,10.45,11.42,12.16,1019,41,4.63,110,0,0.0,Clear,clear sky,16
Pestszentlőrinc,47.454722,19.182778,2026-03-19 16:02:39.084107,12.06,10.39,11.36,12.1,1019,41,4.63,110,0,0.0,Clear,clear sky,16
Kispest,47.448135,19.157552,2026-03-19 16:02:40.277648,12.11,10.45,11.43,12.17,1019,41,4.63,110,0,0.0,Clear,clear sky,16
Újpest,47.558889,19.079722,2026-03-19 16:02:41.474692,12.17,10.54,11.5,12.24,1018,42,4.63,110,0,0.0,Clear,clear sky,16
Pestszentimre felső,47.413611,19.173333,2026-03-19 16:02:42.683408,12.14,10.48,11.45,12.2,1019,41,4.63,110,0,0.0,Clear,clear sky,16
Dunakeszi,47.626111,19.136111,2026-03-19 16:02:43.880401,12.06,10.42,11.4,12.14,1018,42,3.11,44,71,0.0,Clouds,broken clouds,16
Dunakeszi-Gyártelep,47.643611,19.135,2026-03-19 16:02:45.077884,12.08,10.44,11.44,12.18,1018,42,3.09,43,65,0.0,Clouds,broken clouds,16
Alsógöd,47.676944,19.134444,2026-03-19 16:02:46.285087,12.04,10.4,11.43,12.18,1018,42,3.06,42,60,0.0,Clouds,broken clouds,16
Göd,47.687778,19.1375,2026-03-19 16:02:47.479950,12.05,10.41,11.45,12.2,1018,42,3.06,42,60,0.0,Clouds,broken clouds,16
Felsőgöd,47.705556,19.143333,2026-03-19 16:02:48.684530,12.18,10.55,11.5,12.24,1019,42,3.04,43,55,0.0,Clouds,broken clouds,16
Sződ-Sződliget,47.728056,19.154722,2026-03-19 16:02:49.887902,12.16,10.53,11.49,12.23,1019,42,3.03,43,50,0.0,Clouds,scattered clouds,16
Vác,47.782778,19.133056,2026-03-19 16:02:51.083451,12.17,10.49,11.47,12.17,1019,40,3.02,46,43,0.0,Clouds,scattered clouds,16
Verőce,47.823889,19.029444,2026-03-19 16:02:52.289609,12.01,10.31,11.3,12.01,1019,40,2.25,48,49,0.0,Clouds,scattered clouds,16
Kismaros,47.8275,19.010278,2026-03-19 16:02:53.494734,11.43,9.67,11.43,11.43,1019,40,2.05,48,51,0.0,Clouds,broken clouds,16
Nagymaros-Visegrád,47.791389,18.959167,2026-03-19 16:02:54.689966,11.45,9.7,11.45,12.16,1019,40,2.09,41,52,0.0,Clouds,broken clouds,16
Nagymaros,47.780278,18.952222,2026-03-19 16:02:55.896592,11.53,9.78,11.53,12.23,1019,40,2.09,41,52,0.0,Clouds,broken clouds,16
Zebegény,47.801389,18.908889,2026-03-19 16:02:57.102182,11.5,9.75,11.5,12.21,1019,40,1.77,40,52,0.0,Clouds,broken clouds,16
Szob,47.821111,18.861944,2026-03-19 16:02:58.299364,11.46,9.71,11.46,11.46,1019,40,1.28,26,52,0.0,Clouds,broken clouds,16
Alagimajor,47.601944,19.153889,2026-03-19 16:02:59.503958,12.14,10.51,11.44,12.18,1018,42,4.63,110,0,0.0,Clear,clear sky,16
Fót,47.611389,19.181667,2026-03-19 16:03:00.721499,12.04,10.4,11.34,12.08,1018,42,3.14,47,71,0.0,Clouds,broken clouds,16
Fótújfalu,47.615,19.192778,2026-03-19 16:03:01.920750,11.93,10.28,11.23,11.97,1018,42,3.14,47,71,0.0,Clouds,broken clouds,16
Csomád,47.635556,19.222778,2026-03-19 16:03:03.131396,11.66,9.98,10.96,11.7,1019,42,3.18,50,72,0.0,Clouds,broken clouds,16
Veresegyház,47.649167,19.288611,2026-03-19 16:03:04.344750,11.82,10.15,11.79,11.85,1019,42,3.36,58,73,0.0,Clouds,broken clouds,16
Erdőkertes,47.662222,19.295833,2026-03-19 16:03:05.546028,11.77,9.99,11.74,11.81,1019,38,3.36,58,73,0.0,Clouds,broken clouds,16
Őrbottyán,47.685833,19.283611,2026-03-19 16:03:06.743894,11.69,9.93,11.66,11.71,1019,39,3.35,57,68,0.0,Clouds,broken clouds,16
Váchartyán,47.725833,19.248889,2026-03-19 16:03:07.948802,12.05,10.33,12.05,12.05,1019,39,3.3,52,54,0.0,Clouds,broken clouds,16
Magyarkút-Verőce,47.826111,19.044444,2026-03-19 16:03:09.144036,12.17,10.49,12.17,12.17,1019,40,2.25,48,49,0.0,Clouds,scattered clouds,16
Szokolya,47.871111,19.030556,2026-03-19 16:03:10.341289,10.67,8.86,10.67,10.67,1019,41,2.1,55,50,0.0,Clouds,scattered clouds,16
Berkenye,47.885278,19.071944,2026-03-19 16:03:11.547727,11.35,9.61,11.35,11.35,1019,41,2.33,56,48,0.0,Clouds,scattered clouds,16
Nógrád,47.901944,19.0475,2026-03-19 16:03:12.755228,11.03,9.26,11.03,11.03,1019,41,2.03,59,52,0.0,Clouds,broken clouds,16
Diósjenő,47.94,19.049444,2026-03-19 16:03:13.951850,10.67,8.86,10.67,10.67,1019,41,1.96,63,54,0.0,Clouds,broken clouds,16
Borsosberény,47.971389,19.093056,2026-03-19 16:03:15.161569,11.31,9.54,11.31,11.31,1019,40,2.7,68,48,0.0,Clouds,scattered clouds,16
Nagyoroszi,47.993611,19.101111,2026-03-19 16:03:16.362511,11.16,9.38,11.16,11.16,1019,40,2.69,73,51,0.0,Clouds,broken clouds,16
Drégelyvár,48.001944,19.079444,2026-03-19 16:03:17.557584,11.46,9.71,11.46,11.46,1019,40,2.1,79,60,0.0,Clouds,broken clouds,16
Drégely,48.042222,19.056111,2026-03-19 16:03:18.759996,11.83,10.11,11.83,11.83,1019,40,2.07,85,62,0.0,Clouds,broken clouds,16
Drégelypalánk,48.055,19.046111,2026-03-19 16:03:19.961982,12.02,10.32,12.02,12.02,1019,40,1.65,92,67,0.0,Clouds,broken clouds,16
Ipolyvece,48.056944,19.106389,2026-03-19 16:03:21.157090,11.91,10.2,11.91,11.91,1019,40,2.74,87,61,0.0,Clouds,broken clouds,16
Dejtár,48.045556,19.196389,2026-03-19 16:03:22.374319,11.74,10.01,11.74,11.74,1019,40,3.21,80,53,0.0,Clouds,broken clouds,16
Ipolyszög,48.054444,19.221944,2026-03-19 16:03:23.574514,11.72,9.99,11.72,11.72,1019,40,3.46,81,55,0.0,Clouds,broken clouds,16
Iklad-Domony,47.658056,19.444444,2026-03-19 16:03:24.775174,12.1,10.41,12.1,12.1,1019,40,4.03,70,91,0.0,Clouds,overcast clouds,16
Iklad-Domony felső,47.667778,19.428056,2026-03-19 16:03:25.987917,12.09,10.43,12.06,12.09,1019,41,3.82,68,85,0.0,Clouds,overcast clouds,16
Galgamácsa,47.693889,19.3925,2026-03-19 16:03:27.201204,12.05,10.38,12.05,12.05,1019,41,3.53,62,71,0.0,Clouds,broken clouds,16
Vácrátót,47.732778,19.217778,2026-03-19 16:03:28.400874,11.97,10.29,11.97,11.97,1019,41,3.2,47,50,0.0,Clouds,scattered clouds,16
Csörög,47.735833,19.196389,2026-03-19 16:03:29.608481,11.97,10.29,11.27,11.97,1019,41,3.13,45,50,0.0,Clouds,scattered clouds,16
Galgagyörk,47.735278,19.372222,2026-03-19 16:03:30.801957,11.95,10.27,11.95,11.95,1019,41,3.51,61,67,0.0,Clouds,broken clouds,16
Püspökhatvan,47.768611,19.366944,2026-03-19 16:03:31.999300,11.47,9.74,11.47,11.47,1019,41,3.49,59,57,0.0,Clouds,broken clouds,16
Acsa-Erdőkürt,47.801111,19.386111,2026-03-19 16:03:33.203911,11.31,9.57,11.31,11.31,1019,41,3.48,59,53,0.0,Clouds,broken clouds,16
Galgaguta,47.848611,19.385556,2026-03-19 16:03:34.409702,11.0,9.23,11.0,11.0,1019,41,3.46,58,44,0.0,Clouds,scattered clouds,16
Nógrádkövesd,47.879444,19.371111,2026-03-19 16:03:35.626547,11.16,9.43,11.16,11.16,1019,42,3.45,59,41,0.0,Clouds,scattered clouds,16
Magyarnándor,47.970833,19.356667,2026-03-19 16:03:36.833621,11.06,9.29,11.06,11.06,1019,41,3.45,62,36,0.0,Clouds,scattered clouds,16
Mohora,47.995556,19.347778,2026-03-19 16:03:38.032354,11.17,9.41,11.17,11.17,1019,41,3.51,65,37,0.0,Clouds,scattered clouds,16
Szügy,48.036389,19.333056,2026-03-19 16:03:39.242102,11.4,9.67,11.4,11.4,1019,41,3.7,70,42,0.0,Clouds,scattered clouds,16
Balassagyarmat,48.071111,19.293611,2026-03-19 16:03:40.448378,11.55,9.83,11.55,11.55,1019,41,3.75,75,48,0.0,Clouds,scattered clouds,16
Őrhalom,48.078773,19.403936,2026-03-19 16:03:41.662087,11.16,9.43,11.16,11.16,1019,42,3.99,71,44,0.0,Clouds,scattered clouds,16
Hugyag,48.083056,19.421111,2026-03-19 16:03:42.877574,11.16,9.43,11.16,11.16,1019,42,3.99,71,44,0.0,Clouds,scattered clouds,16
Szécsény,48.093056,19.521111,2026-03-19 16:03:44.085632,11.24,9.52,11.24,11.24,1019,42,3.86,68,41,0.0,Clouds,scattered clouds,16
Ludányhalászi,48.1325,19.529444,2026-03-19 16:03:45.280331,11.22,9.49,11.22,11.22,1019,42,4.12,71,45,0.0,Clouds,scattered clouds,16
Nógrádszakál,48.178333,19.521667,2026-03-19 16:03:46.478790,11.18,9.45,11.18,11.18,1019,42,4.23,72,48,0.0,Clouds,scattered clouds,16
Ráróspuszta,48.207222,19.541389,2026-03-19 16:03:47.683452,10.65,8.87,10.65,10.65,1019,42,4.37,76,54,0.0,Clouds,broken clouds,16
Litke,48.215833,19.598611,2026-03-19 16:03:48.889349,11.05,9.31,11.05,11.05,1019,42,4.44,73,42,0.0,Clouds,scattered clouds,16
Nyíregyháza külső,47.943056,21.740278,2026-03-19 16:03:50.085939,10.23,8.74,10.23,10.23,1018,55,6.83,8,98,0.0,Clouds,overcast clouds,16
Oros,47.945833,21.806389,2026-03-19 16:03:51.295988,10.24,8.76,10.24,10.24,1018,55,6.58,10,100,0.0,Clouds,overcast clouds,16
Napkor,47.948889,21.873056,2026-03-19 16:03:52.490254,10.26,8.78,10.26,10.26,1018,55,6.19,15,100,0.0,Clouds,overcast clouds,16
Apagy,47.953775,21.939044,2026-03-19 16:03:53.687718,10.26,8.78,10.26,10.26,1018,55,6.06,17,99,0.0,Clouds,overcast clouds,16
Levelek-Magy,47.948056,21.993611,2026-03-19 16:03:54.898438,10.22,8.68,10.22,10.22,1018,53,5.98,20,96,0.0,Clouds,overcast clouds,16
Ófehértó,47.940556,22.041389,2026-03-19 16:03:56.103196,10.14,8.57,10.14,10.14,1018,52,6.09,20,94,0.0,Clouds,overcast clouds,16
Ligettanya,47.951667,22.071389,2026-03-19 16:03:57.300769,10.08,8.5,10.08,10.08,1018,52,6.28,20,90,0.0,Clouds,overcast clouds,16
Baktalórántháza,47.988611,22.083333,2026-03-19 16:03:58.506456,10.08,8.53,10.08,10.08,1018,53,6.2,21,89,0.0,Clouds,overcast clouds,16
Vaja-Rohod,48.006389,22.164167,2026-03-19 16:03:59.704841,10.06,8.51,10.06,10.06,1018,53,6.44,19,85,0.0,Clouds,overcast clouds,16
Rákóczitanya,48.022222,22.178333,2026-03-19 16:04:00.908931,10.01,8.42,10.01,10.01,1018,52,6.59,18,83,0.0,Clouds,broken clouds,16
Nyírmada,48.059167,22.203056,2026-03-19 16:04:02.118176,10.03,8.5,10.03,10.03,1018,54,6.45,19,82,0.0,Clouds,broken clouds,16
Tunyogmatolcs,47.960244,22.442247,2026-03-19 16:04:03.322654,10.23,8.54,10.23,10.23,1018,47,6.17,357,88,0.0,Clouds,overcast clouds,16
Tunyogmatolcs alsó,47.966025,22.464713,2026-03-19 16:04:04.520232,10.23,8.54,10.23,10.23,1018,47,5.93,354,86,0.0,Clouds,overcast clouds,16
Fehérgyarmat,47.979167,22.524444,2026-03-19 16:04:05.723040,10.25,8.53,10.25,10.25,1018,46,5.41,352,77,0.0,Clouds,broken clouds,16
Penyige,47.995278,22.566944,2026-03-19 16:04:06.924946,10.28,8.56,10.28,10.28,1018,46,5.13,351,70,0.0,Clouds,broken clouds,16
Nagyszekeres,47.976111,22.6125,2026-03-19 16:04:08.119570,10.28,8.54,10.28,10.28,1018,45,4.83,352,62,0.0,Clouds,broken clouds,16
Kisszekeres,47.965833,22.629444,2026-03-19 16:04:09.324709,10.29,8.55,10.29,10.29,1018,45,4.66,350,60,0.0,Clouds,broken clouds,16
Jánkmajtis,47.941944,22.657222,2026-03-19 16:04:10.532216,10.31,8.55,10.31,10.31,1018,44,4.21,350,52,0.0,Clouds,broken clouds,16
Gacsály,47.926111,22.745,2026-03-19 16:04:11.748014,10.04,8.25,10.04,11.03,1018,44,3.43,354,37,0.0,Clouds,scattered clouds,16
Zajta,47.9025,22.796111,2026-03-19 16:04:12.951795,10.03,8.21,10.03,11.03,1018,43,2.85,357,36,0.0,Clouds,scattered clouds,16
Eperjeske alsó,48.360556,22.19,2026-03-19 16:04:14.161577,10.15,8.81,10.15,10.15,1019,61,5.76,15,75,0.0,Clouds,broken clouds,16
Mándok,48.326944,22.196389,2026-03-19 16:04:15.360619,10.11,8.77,10.11,10.11,1019,61,5.75,17,76,0.0,Clouds,broken clouds,16
Tornyospálca,48.268333,22.201944,2026-03-19 16:04:16.575392,10.13,8.77,10.13,10.13,1018,60,5.81,18,77,0.0,Clouds,broken clouds,16
Aranyosapáti,48.211303,22.253534,2026-03-19 16:04:17.786214,10.14,8.7,10.14,10.14,1018,57,6.25,18,75,0.0,Clouds,broken clouds,16
Gyüre,48.171389,22.269167,2026-03-19 16:04:18.991886,10.12,8.65,10.12,10.12,1018,56,6.49,17,78,0.0,Clouds,broken clouds,16
Varsány,48.151722,22.290047,2026-03-19 16:04:20.195395,10.1,8.58,10.1,10.1,1018,54,6.74,14,80,0.0,Clouds,broken clouds,16
Vásárosnamény,48.126667,22.306111,2026-03-19 16:04:21.389878,10.11,8.56,10.11,10.11,1018,53,6.82,13,81,0.0,Clouds,broken clouds,16
Vitka,48.095556,22.308056,2026-03-19 16:04:22.599708,10.1,8.55,10.1,10.1,1018,53,6.87,12,83,0.0,Clouds,broken clouds,16
Nagydobos,48.054167,22.311111,2026-03-19 16:04:23.812360,10.04,8.46,10.04,10.04,1018,52,6.91,11,84,0.0,Clouds,broken clouds,16
Ópályi,47.997778,22.318333,2026-03-19 16:04:25.027700,10.07,8.44,10.07,10.07,1018,50,6.91,8,85,0.0,Clouds,overcast clouds,16
Nyírcsaholy,47.908056,22.348333,2026-03-19 16:04:26.223648,10.2,8.5,10.2,10.2,1018,47,6.56,3,81,0.0,Clouds,broken clouds,16
Nagyecsed,47.864722,22.385556,2026-03-19 16:04:27.429661,10.3,8.59,10.3,10.3,1018,46,5.69,358,71,0.0,Clouds,broken clouds,16
Tiborszállás,47.815278,22.402778,2026-03-19 16:04:28.629191,10.35,8.62,10.35,10.35,1018,45,5.18,358,63,0.0,Clouds,broken clouds,16
Kiskunhalas,46.434444,19.493611,2026-03-19 16:04:29.826465,11.73,10.0,11.73,11.73,1018,40,5.32,39,98,0.0,Clouds,overcast clouds,16
Kecskemét alsó,46.895833,19.692222,2026-03-19 16:04:31.034431,11.08,9.39,10.99,11.55,1019,44,3.6,60,0,0.0,Clear,clear sky,16
Putnok,48.286667,20.4375,2026-03-19 16:04:32.250707,8.89,6.1,8.89,9.47,1019,47,5.25,64,88,0.0,Clouds,overcast clouds,16
Bánréve,48.299722,20.351944,2026-03-19 16:04:33.448179,8.88,6.14,8.88,8.88,1019,47,5.12,67,85,0.0,Clouds,overcast clouds,16
Ipolytarnóc,48.236667,19.629167,2026-03-19 16:04:34.656926,10.96,9.21,10.96,10.96,1019,42,4.56,74,40,0.0,Clouds,scattered clouds,16
Rákosliget,47.486111,19.257778,2026-03-19 16:04:35.861333,11.88,10.17,11.29,12.03,1019,40,4.12,100,0,0.0,Clear,clear sky,16
Ikrény,47.657778,17.524167,2026-03-19 16:04:37.066003,13.08,11.41,13.08,13.08,1020,37,3.07,8,51,0.0,Clouds,broken clouds,16
Rábapatona,47.648889,17.461944,2026-03-19 16:04:38.274067,13.1,11.43,13.1,13.1,1020,37,3.03,11,49,0.0,Clouds,scattered clouds,16
Enese,47.644167,17.425278,2026-03-19 16:04:39.484640,13.1,11.43,13.1,13.1,1020,37,3.01,15,46,0.0,Clouds,scattered clouds,16
Kóny,47.632222,17.357222,2026-03-19 16:04:40.683578,13.4,11.76,13.4,13.4,1020,37,3.15,16,50,0.0,Clouds,scattered clouds,16
Farád,47.595278,17.195833,2026-03-19 16:04:41.890457,13.34,11.7,13.34,13.34,1020,37,3.12,11,49,0.0,Clouds,scattered clouds,16
Rábatamási,47.592778,17.161389,2026-03-19 16:04:43.088773,13.34,11.7,13.34,13.34,1020,37,3.12,11,49,0.0,Clouds,scattered clouds,16
Szárföld,47.589167,17.123889,2026-03-19 16:04:44.292684,13.32,11.7,13.32,13.32,1020,38,3.08,10,47,0.0,Clouds,scattered clouds,16
Veszkény,47.586944,17.101389,2026-03-19 16:04:45.498227,13.33,11.63,13.33,13.33,1020,35,3.05,8,45,0.0,Clouds,scattered clouds,16
Kapuvár,47.581944,17.046944,2026-03-19 16:04:46.708023,13.31,11.61,13.31,13.31,1020,35,3.16,3,46,0.0,Clouds,scattered clouds,16
Vitnyéd-Csermajor,47.5825,16.987222,2026-03-19 16:04:47.905585,13.32,11.62,13.32,13.32,1020,35,3.13,2,41,0.0,Clouds,scattered clouds,16
Petőháza,47.595278,16.893056,2026-03-19 16:04:49.112196,13.27,11.57,13.27,13.27,1020,35,2.93,4,29,0.0,Clouds,scattered clouds,16
Fertőszentmiklós,47.6,16.858889,2026-03-19 16:04:50.324507,13.27,11.57,12.27,13.27,1020,35,2.94,5,27,0.0,Clouds,scattered clouds,16
Pinnye,47.600278,16.768611,2026-03-19 16:04:51.540335,13.15,11.43,12.15,13.15,1020,35,3.12,15,17,0.0,Clouds,few clouds,16
Fertőboz,47.625,16.691667,2026-03-19 16:04:52.749659,12.99,11.26,11.99,12.99,1020,35,3.16,19,10,0.0,Clear,clear sky,16
Sopron,47.677778,16.587222,2026-03-19 16:04:53.961731,12.69,11.03,11.69,12.69,1019,39,3.27,21,5,0.0,Clear,clear sky,16
Fertőszéplak-Fertőd,47.618889,16.850833,2026-03-19 16:04:55.178434,13.29,11.59,12.29,13.29,1020,35,2.79,6,20,0.0,Clouds,few clouds,16
Nyúl,47.587778,17.698056,2026-03-19 16:04:56.392388,13.02,11.29,13.02,13.14,1020,35,2.57,40,0,0.0,Clear,clear sky,16
Pannonhalma,47.547778,17.740833,2026-03-19 16:04:57.588870,12.96,11.23,12.96,13.08,1020,35,2.57,40,0,0.0,Clear,clear sky,16
Tarjánpuszta,47.504722,17.789167,2026-03-19 16:04:58.795405,12.73,10.97,12.73,12.84,1020,35,2.57,40,0,0.0,Clear,clear sky,16
Győrasszonyfa,47.4925,17.799167,2026-03-19 16:05:00.003065,12.66,10.9,12.66,12.77,1020,35,2.57,40,0,0.0,Clear,clear sky,16
Veszprémvarsány,47.443333,17.818333,2026-03-19 16:05:01.207065,12.71,11.0,12.71,12.83,1020,37,3.93,360,69,0.0,Clouds,broken clouds,16
Bakonyszentlászló,47.395556,17.8175,2026-03-19 16:05:02.412690,12.58,10.86,12.47,12.58,1020,37,3.95,6,77,0.0,Clouds,broken clouds,16
Porva-Csesznek,47.326944,17.841111,2026-03-19 16:05:03.615226,11.59,9.77,11.59,11.59,1020,37,3.98,14,84,0.0,Clouds,broken clouds,16
Zirc,47.266667,17.878056,2026-03-19 16:05:04.815755,10.9,9.01,10.9,10.9,1020,37,4.05,25,91,0.0,Clouds,overcast clouds,16
Eplény,47.192778,17.921667,2026-03-19 16:05:06.025914,11.03,9.18,11.03,11.03,1019,38,4.1,34,88,0.0,Clouds,overcast clouds,16
Marcaltő,47.4275,17.348889,2026-03-19 16:05:07.231476,13.17,11.46,13.17,13.17,1020,35,3.09,80,0,0.0,Clear,clear sky,16
Szany-Rábaszentandrás,47.460833,17.315278,2026-03-19 16:05:08.441112,13.17,11.46,13.17,13.17,1020,35,3.09,80,0,0.0,Clear,clear sky,16
Egyed-Rábacsanak,47.521944,17.316389,2026-03-19 16:05:09.638307,13.18,11.52,13.18,13.18,1020,37,3.56,16,70,0.0,Clouds,broken clouds,16
Rábapordány,47.557222,17.315,2026-03-19 16:05:10.850570,13.18,11.52,13.18,13.18,1020,37,3.47,16,65,0.0,Clouds,broken clouds,16
Albertfalva,47.440784,19.033965,2026-03-19 16:05:12.048688,12.06,10.44,11.54,12.69,1019,43,4.12,100,0,0.0,Clear,clear sky,16
Budafok,47.425833,19.041389,2026-03-19 16:05:13.269473,12.08,10.44,11.55,12.69,1019,42,4.12,100,0,0.0,Clear,clear sky,16
Tétényliget,47.384722,18.955278,2026-03-19 16:05:14.474388,12.18,10.58,11.57,12.71,1019,43,1.34,85,95,0.0,Clouds,overcast clouds,16
Érd alsó,47.379722,18.923056,2026-03-19 16:05:15.673866,12.05,10.43,11.43,12.18,1018,43,1.34,85,95,0.0,Clouds,overcast clouds,16
Tárnok,47.365556,18.873889,2026-03-19 16:05:16.874427,12.18,10.58,11.5,12.64,1019,43,3.18,40,95,0.0,Clouds,overcast clouds,16
Martonvásár,47.321389,18.781667,2026-03-19 16:05:18.082746,12.37,10.73,11.43,12.57,1019,41,2.92,38,92,0.0,Clouds,overcast clouds,16
Baracska,47.297222,18.753333,2026-03-19 16:05:19.277768,12.59,10.98,11.71,12.67,1019,41,2.81,36,90,0.0,Clouds,overcast clouds,16
Pettend,47.26,18.708889,2026-03-19 16:05:20.484983,12.57,10.95,12.57,12.57,1019,41,2.8,31,88,0.0,Clouds,overcast clouds,16
Kápolnásnyék,47.245556,18.692222,2026-03-19 16:05:21.687442,12.6,10.99,12.6,12.6,1019,41,2.79,31,86,0.0,Clouds,overcast clouds,16
Velence,47.226944,18.663889,2026-03-19 16:05:22.896533,12.62,11.01,12.62,12.62,1019,41,2.88,29,85,0.0,Clouds,overcast clouds,16
Velencefürdő,47.218611,18.648056,2026-03-19 16:05:24.100251,12.45,10.82,12.45,12.45,1019,41,2.81,31,84,0.0,Clouds,broken clouds,16
Gárdony,47.205833,18.624722,2026-03-19 16:05:25.328430,12.5,10.88,12.5,12.5,1019,41,2.91,30,83,0.0,Clouds,broken clouds,16
Agárd,47.197666,18.604907,2026-03-19 16:05:26.532241,12.5,10.88,12.5,12.5,1019,41,2.91,30,83,0.0,Clouds,broken clouds,16
Dinnyés,47.179722,18.560833,2026-03-19 16:05:27.769207,12.51,10.89,12.51,12.51,1019,41,3.06,31,80,0.0,Clouds,broken clouds,16
Székesfehérvár,47.183611,18.424722,2026-03-19 16:05:28.980727,12.6,10.96,12.6,12.6,1019,40,3.43,34,80,0.0,Clouds,broken clouds,16
Szabadbattyán,47.105278,18.388333,2026-03-19 16:05:30.202968,12.56,10.92,12.56,12.56,1019,40,3.36,40,75,0.0,Clouds,broken clouds,16
Kiscséripuszta,47.048056,18.355,2026-03-19 16:05:31.412581,11.9,10.16,11.9,11.9,1019,39,3.37,44,72,0.0,Clouds,broken clouds,16
Lepsény,46.9875,18.248056,2026-03-19 16:05:32.615712,12.12,10.43,10.46,12.12,1019,40,3.49,45,71,0.0,Clouds,broken clouds,16
Balatonaliga,46.984444,18.171389,2026-03-19 16:05:33.816362,11.93,10.22,10.27,11.93,1019,40,3.7,46,71,0.0,Clouds,broken clouds,16
Balatonvilágos,46.964167,18.157222,2026-03-19 16:05:35.023282,11.97,10.27,10.31,11.97,1019,40,3.74,47,70,0.0,Clouds,broken clouds,16
Szabadifürdő,46.926111,18.103333,2026-03-19 16:05:36.227623,12.14,10.45,10.48,12.14,1019,40,3.78,49,72,0.0,Clouds,broken clouds,16
Ózd alsó,48.227778,20.306111,2026-03-19 16:05:37.445667,8.72,5.99,8.72,8.72,1019,47,5.0,68,79,0.0,Clouds,broken clouds,16
Ózd,48.2225,20.294722,2026-03-19 16:05:38.643982,8.77,6.05,8.77,8.77,1019,47,5.0,68,79,0.0,Clouds,broken clouds,16
Alsóboldva,48.212778,20.792222,2026-03-19 16:05:39.859788,10.39,9.1,9.1,11.23,1019,62,6.27,34,70,0.0,Clouds,broken clouds,16
Boldva,48.223333,20.790278,2026-03-19 16:05:41.059979,10.38,8.54,9.09,11.23,1019,41,6.27,34,70,0.0,Clouds,broken clouds,16
Borsodszirák,48.259167,20.770556,2026-03-19 16:05:42.279671,10.35,8.51,9.05,10.55,1019,41,6.15,39,69,0.0,Clouds,broken clouds,16
Edelény alsó,48.279167,20.760833,2026-03-19 16:05:43.492981,10.53,8.89,9.61,10.53,1019,48,6.15,39,69,0.0,Clouds,broken clouds,16
Edelény,48.299722,20.749444,2026-03-19 16:05:44.696123,10.51,8.87,9.59,10.51,1019,48,6.16,40,70,0.0,Clouds,broken clouds,16
Szendrőlád,48.334444,20.731944,2026-03-19 16:05:45.891336,10.42,8.8,10.42,10.42,1019,49,6.13,44,73,0.0,Clouds,broken clouds,16
Szendrő,48.400725,20.721346,2026-03-19 16:05:47.105112,10.06,8.43,10.06,10.06,1019,50,6.17,45,76,0.0,Clouds,broken clouds,16
Szendrő felső,48.409907,20.720148,2026-03-19 16:05:48.302252,10.06,8.43,10.06,10.06,1019,50,6.17,45,76,0.0,Clouds,broken clouds,16
Szalonna,48.449444,20.722222,2026-03-19 16:05:49.517196,10.15,8.53,10.15,10.15,1019,50,6.1,45,79,0.0,Clouds,broken clouds,16
Perkupa,48.471389,20.691111,2026-03-19 16:05:50.719669,9.47,6.72,9.47,9.47,1019,50,5.55,48,82,0.0,Clouds,broken clouds,16
Szemeretelep,47.443056,19.214167,2026-03-19 16:05:51.929391,11.95,10.27,11.36,12.5,1019,41,4.12,100,0,0.0,Clear,clear sky,16
Jósvafő-Aggtelek,48.489722,20.693889,2026-03-19 16:05:53.125084,9.8,7.18,9.8,9.8,1019,50,5.44,48,82,0.0,Clouds,broken clouds,16
Bódvaszilas,48.5375,20.738056,2026-03-19 16:05:54.329705,9.4,6.55,9.4,9.4,1019,51,5.78,44,83,0.0,Clouds,broken clouds,16
Komjáti,48.5475,20.759722,2026-03-19 16:05:55.528743,8.95,6.0,8.95,8.95,1019,52,5.74,42,84,0.0,Clouds,broken clouds,16
Tornanádaska,48.558333,20.787222,2026-03-19 16:05:56.733305,10.1,8.52,10.1,10.1,1019,52,5.85,40,83,0.0,Clouds,broken clouds,16
Onga,48.121111,20.906667,2026-03-19 16:05:57.942864,10.65,9.0,9.73,11.29,1019,47,6.84,26,83,0.0,Clouds,broken clouds,16
Szikszó-Vásártér,48.193056,20.934722,2026-03-19 16:05:59.146507,10.56,8.74,9.7,11.25,1019,41,6.55,27,81,0.0,Clouds,broken clouds,16
Szikszó,48.201667,20.941667,2026-03-19 16:06:00.342089,10.64,8.83,9.71,10.64,1019,41,6.55,27,83,0.0,Clouds,broken clouds,16
Aszaló,48.219867,20.961466,2026-03-19 16:06:01.549495,10.62,8.81,9.69,10.62,1019,41,6.48,27,82,0.0,Clouds,broken clouds,16
Halmaj,48.246667,20.991667,2026-03-19 16:06:02.746923,10.6,9.02,10.6,10.6,1019,50,6.41,27,84,0.0,Clouds,broken clouds,16
Csobád,48.277222,21.033889,2026-03-19 16:06:03.948480,10.57,9.01,10.57,10.57,1019,51,6.35,27,84,0.0,Clouds,broken clouds,16
Ináncs,48.291111,21.057778,2026-03-19 16:06:05.163280,10.57,9.07,10.57,10.57,1019,53,6.23,26,85,0.0,Clouds,overcast clouds,16
Forró-Encs,48.3275,21.117778,2026-03-19 16:06:06.373714,10.1,8.58,10.1,10.1,1019,54,6.15,25,84,0.0,Clouds,broken clouds,16
Méra,48.363056,21.140278,2026-03-19 16:06:07.579173,9.91,7.12,9.91,9.91,1019,56,6.01,25,82,0.0,Clouds,broken clouds,16
Novajidrány,48.404444,21.170556,2026-03-19 16:06:08.790313,9.44,6.56,9.44,10.5,1019,57,5.9,26,81,0.0,Clouds,broken clouds,16
Hernádszurdok,48.487222,21.213889,2026-03-19 16:06:09.988988,9.68,6.78,9.14,10.42,1019,44,6.17,360,0,0.0,Clear,clear sky,16
Hidasnémeti,48.508333,21.229722,2026-03-19 16:06:11.193020,9.7,6.81,9.14,10.43,1019,44,6.17,360,0,0.0,Clear,clear sky,16
Mád,48.19,21.268889,2026-03-19 16:06:12.397193,11.18,9.27,11.18,11.18,1019,35,6.12,25,85,0.0,Clouds,overcast clouds,16
Rátka,48.215,21.230278,2026-03-19 16:06:13.603049,11.34,9.44,11.34,11.34,1019,35,6.1,24,85,0.0,Clouds,overcast clouds,16
Tállya,48.226944,21.225278,2026-03-19 16:06:14.798718,11.29,9.39,11.29,11.29,1019,35,6.1,24,85,0.0,Clouds,overcast clouds,16
Golop,48.242778,21.204167,2026-03-19 16:06:16.003516,11.41,9.52,11.41,11.41,1019,35,6.14,24,87,0.0,Clouds,overcast clouds,16
Abaújszántó,48.286944,21.181667,2026-03-19 16:06:17.198763,11.32,9.97,11.32,11.32,1019,56,6.06,24,84,0.0,Clouds,broken clouds,16
Abaújszántói fürdő,48.268333,21.179722,2026-03-19 16:06:18.407636,11.38,10.04,11.38,11.38,1019,56,6.1,24,85,0.0,Clouds,overcast clouds,16
Abaújkér,48.309444,21.198333,2026-03-19 16:06:19.613055,11.28,9.95,11.28,11.28,1019,57,6.02,25,83,0.0,Clouds,broken clouds,16
Boldogkőváralja,48.345,21.208889,2026-03-19 16:06:20.821231,11.08,9.76,11.08,11.08,1019,58,5.85,25,81,0.0,Clouds,broken clouds,16
Korlát-Vizsoly,48.365,21.219167,2026-03-19 16:06:22.020712,10.99,9.66,10.99,10.99,1019,58,5.8,25,81,0.0,Clouds,broken clouds,16
Fony,48.411389,21.242778,2026-03-19 16:06:23.241022,9.24,6.38,9.24,10.3,1019,58,5.69,26,81,0.0,Clouds,broken clouds,16
Hejce-Vilmány,48.419444,21.245556,2026-03-19 16:06:24.452451,9.21,6.35,9.21,10.27,1019,58,5.69,26,81,0.0,Clouds,broken clouds,16
Göncruszka,48.445,21.246944,2026-03-19 16:06:25.675683,9.63,6.9,9.07,10.36,1019,58,5.63,26,81,0.0,Clouds,broken clouds,16
Gönc,48.470556,21.261389,2026-03-19 16:06:26.891691,9.54,6.82,8.97,10.26,1019,59,5.52,27,82,0.0,Clouds,broken clouds,16
Zsujta,48.4925,21.265,2026-03-19 16:06:28.118780,9.57,6.64,8.99,10.28,1019,44,6.17,360,0,0.0,Clear,clear sky,16
Bodrogkeresztúr,48.175556,21.354167,2026-03-19 16:06:29.340357,11.45,9.56,11.45,11.45,1019,35,6.19,26,81,0.0,Clouds,broken clouds,16
Szegi,48.201944,21.387778,2026-03-19 16:06:30.572563,11.49,9.61,6.32,11.49,1019,35,6.2,27,77,0.0,Clouds,broken clouds,16
Erdőbénye,48.218056,21.401944,2026-03-19 16:06:31.806710,11.46,9.58,6.29,11.46,1018,35,6.2,27,76,0.0,Clouds,broken clouds,16
Olaszliszka-Tolcsva,48.258333,21.448056,2026-03-19 16:06:33.040770,11.49,9.61,6.32,11.49,1018,35,6.15,27,76,0.0,Clouds,broken clouds,16
Bodrogolaszi,48.286944,21.512778,2026-03-19 16:06:34.278077,6.26,2.42,6.26,11.43,1018,97,6.2,27,75,0.0,Clouds,broken clouds,16
Sárospatak,48.325833,21.566111,2026-03-19 16:06:35.481547,6.21,2.2,6.21,11.38,1018,97,6.61,25,70,0.0,Clouds,broken clouds,16
Sátoraljaújhely,48.385833,21.657778,2026-03-19 16:06:36.694913,6.29,2.25,6.29,6.29,1017,97,6.78,24,68,0.0,Clouds,broken clouds,16
Vecsés,47.40855,19.25652,2026-03-19 16:06:37.903233,12.12,10.38,11.55,12.13,1019,38,4.12,100,0,0.0,Clear,clear sky,16
Vecsés-Kertekalja,47.403333,19.271389,2026-03-19 16:06:39.108932,12.16,10.42,11.59,12.17,1019,38,4.12,100,0,0.0,Clear,clear sky,16
Üllő,47.390833,19.348889,2026-03-19 16:06:40.312597,12.11,10.34,11.55,12.12,1019,37,4.12,100,0,0.0,Clear,clear sky,16
Monor,47.34545,19.43701,2026-03-19 16:06:41.518342,12.07,10.3,12.07,12.07,1019,37,4.12,100,0,0.0,Clear,clear sky,16
Pilis,47.279722,19.536389,2026-03-19 16:06:42.728332,10.86,9.07,10.86,12.03,1019,41,4.36,55,90,0.0,Clouds,overcast clouds,16
Albertirsa,47.240278,19.606389,2026-03-19 16:06:43.940360,10.95,9.17,10.95,10.95,1019,41,4.68,52,92,0.0,Clouds,overcast clouds,16
Ceglédbercel-Cserő,47.210278,19.686944,2026-03-19 16:06:45.155362,11.02,9.25,11.02,11.02,1019,41,4.94,50,94,0.0,Clouds,overcast clouds,16
Cegléd,47.182778,19.806111,2026-03-19 16:06:46.375656,11.12,9.36,11.01,11.12,1019,41,5.4,49,95,0.0,Clouds,overcast clouds,16
Abony,47.173056,20.016389,2026-03-19 16:06:47.581424,11.06,9.4,10.97,11.19,1019,45,4.12,50,0,0.0,Clear,clear sky,16
Szolnok,47.179167,20.175833,2026-03-19 16:06:48.784375,11.04,9.35,10.99,11.21,1019,44,4.12,50,0,0.0,Clear,clear sky,16
Szajol,47.170556,20.295278,2026-03-19 16:06:49.988273,11.01,9.29,11.01,11.1,1019,43,4.12,50,0,0.0,Clear,clear sky,16
Törökszentmiklós,47.170278,20.413611,2026-03-19 16:06:51.192741,11.0,9.28,11.0,11.1,1019,43,4.12,50,0,0.0,Clear,clear sky,16
Rákoscsaba-Újtelep,47.4875,19.271944,2026-03-19 16:06:52.398377,11.88,10.17,11.29,12.03,1019,40,4.12,100,0,0.0,Clear,clear sky,16
Rákoscsaba,47.492222,19.284722,2026-03-19 16:06:53.601475,11.98,10.25,11.44,12.02,1019,39,4.12,100,0,0.0,Clear,clear sky,16
Pécel,47.493889,19.338889,2026-03-19 16:06:54.807464,11.86,10.07,11.32,11.9,1019,37,4.12,100,0,0.0,Clear,clear sky,16
Isaszeg,47.537719,19.388955,2026-03-19 16:06:56.019904,11.79,9.99,11.23,11.81,1019,37,4.12,100,0,0.0,Clear,clear sky,16
Gödöllő,47.592222,19.358611,2026-03-19 16:06:57.224641,11.4,9.56,11.01,11.58,1019,37,4.12,100,0,0.0,Clear,clear sky,16
Máriabesnyő,47.595556,19.389722,2026-03-19 16:06:58.427032,11.63,9.92,11.15,11.73,1019,41,3.65,66,87,0.0,Clouds,overcast clouds,16
Bag,47.641111,19.471667,2026-03-19 16:06:59.626879,12.08,10.41,12.08,12.08,1019,41,4.03,70,91,0.0,Clouds,overcast clouds,16
Aszód,47.647467,19.492882,2026-03-19 16:07:00.828197,12.16,10.5,12.16,12.16,1019,41,4.18,71,94,0.0,Clouds,overcast clouds,16
Hévízgyörk,47.638611,19.526667,2026-03-19 16:07:02.037966,11.44,9.71,11.44,11.44,1019,41,4.33,71,96,0.0,Clouds,overcast clouds,16
Galgahévíz,47.6325,19.558333,2026-03-19 16:07:03.241308,11.61,9.9,11.61,11.61,1019,41,4.68,70,97,0.0,Clouds,overcast clouds,16
Tura,47.626389,19.5975,2026-03-19 16:07:04.557051,11.49,9.79,11.49,11.49,1019,42,4.83,69,96,0.0,Clouds,overcast clouds,16
Hatvan,47.663611,19.671389,2026-03-19 16:07:05.761564,11.45,9.75,11.45,11.45,1019,42,5.1,68,98,0.0,Clouds,overcast clouds,16
Vámosgyörk,47.686111,19.927778,2026-03-19 16:07:06.973447,11.14,9.43,11.14,11.14,1019,43,5.67,58,82,0.0,Clouds,broken clouds,16
Adács,47.696389,19.975278,2026-03-19 16:07:08.186419,11.04,9.32,11.04,11.04,1019,43,5.64,56,78,0.0,Clouds,broken clouds,16
Karácsond,47.718056,20.048611,2026-03-19 16:07:09.391572,10.84,9.13,10.84,10.84,1019,44,5.58,55,75,0.0,Clouds,broken clouds,16
Ludas,47.723889,20.095556,2026-03-19 16:07:10.595840,10.91,9.21,10.91,10.91,1019,44,5.72,54,74,0.0,Clouds,broken clouds,16
Nagyút,47.72666666666667,20.161388888888887,2026-03-19 16:07:11.798291,10.83,9.12,10.83,10.83,1019,44,5.79,53,75,0.0,Clouds,broken clouds,16
Kál-Kápolna,47.734167,20.254167,2026-03-19 16:07:12.995648,10.69,8.99,10.69,10.69,1019,45,6.07,51,78,0.0,Clouds,broken clouds,16
Füzesabony,47.751389,20.415278,2026-03-19 16:07:14.199937,10.5,8.78,10.5,10.5,1019,45,6.36,46,73,0.0,Clouds,broken clouds,16
Szihalom,47.766944,20.491944,2026-03-19 16:07:15.406340,11.28,9.64,11.28,11.28,1019,45,6.35,43,71,0.0,Clouds,broken clouds,16
Mezőkövesd,47.797222,20.5675,2026-03-19 16:07:16.614090,11.29,9.65,11.29,11.29,1019,45,6.35,39,72,0.0,Clouds,broken clouds,16
Mezőkövesd felső,47.807222,20.591389,2026-03-19 16:07:17.819909,11.25,9.61,9.14,11.27,1019,45,6.35,39,72,0.0,Clouds,broken clouds,16
Mezőkeresztes-Mezőnyárád,47.845556,20.670278,2026-03-19 16:07:19.024610,11.08,9.34,9.14,11.27,1019,42,6.44,34,76,0.0,Clouds,broken clouds,16
Csincse,47.890833,20.764167,2026-03-19 16:07:20.222598,11.06,9.32,9.16,11.29,1019,42,1.79,51,80,0.0,Clouds,broken clouds,16
Emőd,47.930556,20.822778,2026-03-19 16:07:21.427815,10.99,9.58,9.18,11.31,1019,55,1.79,51,80,0.0,Clouds,broken clouds,16
Nyékládháza,47.9925,20.840556,2026-03-19 16:07:22.630220,10.86,9.46,9.21,11.34,1019,56,1.79,51,80,0.0,Clouds,broken clouds,16
Miskolc-Tiszai,48.098611,20.811389,2026-03-19 16:07:23.840720,10.51,9.13,9.13,11.26,1019,58,6.77,29,74,0.0,Clouds,broken clouds,16
Felsőzsolca,48.083611,20.866111,2026-03-19 16:07:25.062014,10.6,9.2,9.15,11.29,1019,57,6.91,27,79,0.0,Clouds,broken clouds,16
Hernádnémeti-Bőcs,48.051389,20.985,2026-03-19 16:07:26.303460,10.77,8.97,9.73,11.29,1019,41,6.85,25,87,0.0,Clouds,overcast clouds,16
Tiszalúc,48.039722,21.0575,2026-03-19 16:07:27.506517,10.92,9.32,9.78,11.48,1019,48,6.59,25,90,0.0,Clouds,overcast clouds,16
Taktaharkány,48.091667,21.128611,2026-03-19 16:07:28.716112,11.53,9.65,10.75,11.53,1019,35,6.51,25,92,0.0,Clouds,overcast clouds,16
Taktaszada,48.1125,21.149444,2026-03-19 16:07:29.927275,11.54,9.66,10.76,11.54,1019,35,6.41,25,92,0.0,Clouds,overcast clouds,16
Szerencs,48.155556,21.214444,2026-03-19 16:07:31.139661,11.53,9.65,11.53,11.53,1019,35,6.2,25,87,0.0,Clouds,overcast clouds,16
Mezőzombor,48.156944,21.267778,2026-03-19 16:07:32.368849,11.53,9.65,11.53,11.53,1019,35,6.17,25,85,0.0,Clouds,overcast clouds,16
Tarcal,48.125,21.34,2026-03-19 16:07:33.584764,11.55,9.67,11.55,11.55,1019,35,6.31,27,81,0.0,Clouds,broken clouds,16
Tokaj,48.112778,21.406667,2026-03-19 16:07:34.778660,11.51,9.63,11.51,11.51,1019,35,6.52,27,73,0.0,Clouds,broken clouds,16
Rakamaz,48.12,21.475,2026-03-19 16:07:35.988455,11.51,9.63,11.51,11.51,1019,35,6.61,26,71,0.0,Clouds,broken clouds,16
Görögszállás,48.04,21.555,2026-03-19 16:07:37.194852,11.47,9.59,11.47,11.47,1019,35,7.0,22,70,0.0,Clouds,broken clouds,16
Nyírtelek,48.005,21.615556,2026-03-19 16:07:38.403684,11.51,10.23,11.51,11.51,1019,58,7.24,15,79,0.0,Clouds,broken clouds,16
Rákoshegy,47.468611,19.245556,2026-03-19 16:07:39.623611,11.84,10.15,11.24,11.97,1019,41,4.12,100,0,0.0,Clear,clear sky,16
Ecser,47.439444,19.318056,2026-03-19 16:07:40.853032,12.0,10.22,11.44,12.02,1019,37,4.12,100,0,0.0,Clear,clear sky,16
Maglód,47.438889,19.340833,2026-03-19 16:07:42.058887,11.95,10.17,11.38,11.96,1019,37,4.12,100,0,0.0,Clear,clear sky,16
Maglódi nyaraló,47.434167,19.363611,2026-03-19 16:07:43.262940,11.85,10.06,11.29,11.86,1019,37,4.12,100,0,0.0,Clear,clear sky,16
Gyömrő,47.429722,19.393333,2026-03-19 16:07:44.517699,11.82,10.02,11.25,11.82,1019,37,4.12,100,0,0.0,Clear,clear sky,16
Mende,47.426944,19.439722,2026-03-19 16:07:45.721974,11.79,9.99,11.73,11.79,1019,37,4.12,100,0,0.0,Clear,clear sky,16
Szőlősnyaraló,47.450278,19.561111,2026-03-19 16:07:46.928601,12.02,10.35,10.85,12.02,1019,41,4.61,62,89,0.0,Clouds,overcast clouds,16
Sülysáp,47.451944,19.5275,2026-03-19 16:07:48.144867,12.0,10.33,10.83,12.0,1019,41,4.41,64,91,0.0,Clouds,overcast clouds,16
Tápiószecső,47.443056,19.614722,2026-03-19 16:07:49.351543,10.93,9.15,10.93,12.1,1019,41,4.71,62,88,0.0,Clouds,overcast clouds,16
Szentmártonkáta,47.431944,19.680556,2026-03-19 16:07:50.557514,10.96,9.18,10.96,10.96,1019,41,4.93,61,86,0.0,Clouds,overcast clouds,16
Nagykáta,47.409722,19.737778,2026-03-19 16:07:51.754987,11.03,9.26,11.03,11.03,1019,41,5.04,59,86,0.0,Clouds,overcast clouds,16
Farmos,47.355278,19.8375,2026-03-19 16:07:52.960070,11.14,9.38,11.14,11.14,1019,41,0.45,73,91,0.0,Clouds,overcast clouds,16
Tápiószele,47.346313,19.873504,2026-03-19 16:07:54.167828,11.12,9.36,11.12,11.12,1019,41,0.45,73,93,0.0,Clouds,overcast clouds,16
Tápiógyörgye,47.325,19.95,2026-03-19 16:07:55.373926,11.18,9.42,11.06,11.18,1019,41,0.45,73,95,0.0,Clouds,overcast clouds,16
Újszász,47.285833,20.066944,2026-03-19 16:07:56.577953,11.22,9.47,11.01,11.22,1019,41,6.44,49,96,0.0,Clouds,overcast clouds,16
Szurdokpüspöki,47.851944,19.690278,2026-03-19 16:07:57.782139,11.19,9.49,11.19,11.19,1019,43,4.28,73,88,0.0,Clouds,overcast clouds,16
Lőrinci,47.739444,19.673611,2026-03-19 16:07:58.980906,11.36,9.65,11.36,11.36,1019,42,5.0,70,99,0.0,Clouds,overcast clouds,16
Selyp,47.759167,19.670833,2026-03-19 16:08:00.222120,11.33,9.62,11.33,11.33,1019,42,4.91,70,98,0.0,Clouds,overcast clouds,16
Apc-Zagyvaszántó,47.791328,19.66822,2026-03-19 16:08:01.432585,11.32,9.6,11.32,11.32,1019,42,4.78,71,97,0.0,Clouds,overcast clouds,16
Pásztó,47.918889,19.688889,2026-03-19 16:08:02.633605,11.02,9.3,11.02,11.02,1019,43,3.95,74,79,0.0,Clouds,broken clouds,16
Mátraszőlős-Hasznos,47.938506,19.706122,2026-03-19 16:08:03.834654,10.95,9.22,10.95,10.95,1019,43,3.94,76,77,0.0,Clouds,broken clouds,16
Tar,47.956111,19.746389,2026-03-19 16:08:05.040236,10.45,8.7,10.45,10.45,1019,44,4.1,77,77,0.0,Clouds,broken clouds,16
Mátraverebély,47.968333,19.778611,2026-03-19 16:08:06.236558,10.45,8.7,10.45,10.45,1019,44,4.1,77,77,0.0,Clouds,broken clouds,16
Nagybátony,47.981111,19.82,2026-03-19 16:08:07.444359,10.55,8.81,10.55,10.55,1019,44,4.18,78,74,0.0,Clouds,broken clouds,16
Kisterenye,48.009444,19.831944,2026-03-19 16:08:08.650019,10.57,8.86,10.57,10.57,1019,45,4.31,78,71,0.0,Clouds,broken clouds,16
Kisterenye-Bányatelep,48.021389,19.831944,2026-03-19 16:08:09.854343,10.57,8.86,10.57,10.57,1019,45,4.31,78,71,0.0,Clouds,broken clouds,16
Salgótarján külső,48.089444,19.790833,2026-03-19 16:08:11.066509,10.1,8.31,10.1,10.1,1019,44,4.2,76,54,0.0,Clouds,broken clouds,16
Balatonfenyves GV,46.7125,17.479167,2026-03-19 16:08:12.277497,11.08,9.31,11.08,11.08,1019,41,4.04,66,25,0.0,Clouds,scattered clouds,16
Várhegyalja,47.737778,18.366667,2026-03-19 16:08:13.473914,12.67,11.04,12.67,12.67,1019,40,3.23,331,51,0.0,Clouds,broken clouds,16
Imremajor,46.680556,17.499722,2026-03-19 16:08:14.679834,11.11,9.35,11.11,11.11,1019,41,4.1,64,27,0.0,Clouds,scattered clouds,16
Rákospalota-Kertváros,47.578333,19.122778,2026-03-19 16:08:15.874719,11.79,10.12,11.49,12.63,1019,42,4.12,100,0,0.0,Clear,clear sky,16
Vicziántelep,47.675833,19.286111,2026-03-19 16:08:17.080231,11.19,9.44,11.11,11.69,1019,41,3.35,57,68,0.0,Clouds,broken clouds,16
Pálmajor,46.662831,17.457526,2026-03-19 16:08:18.284205,11.1,9.34,11.1,11.1,1019,41,4.11,63,34,0.0,Clouds,scattered clouds,16
Somogyszentpál felső,46.649758,17.471404,2026-03-19 16:08:19.489201,11.07,9.3,11.07,11.07,1019,41,4.16,62,31,0.0,Clouds,scattered clouds,16
Somogyszentpál,46.638611,17.478611,2026-03-19 16:08:20.692197,11.06,9.29,11.06,11.06,1019,41,4.22,60,36,0.0,Clouds,scattered clouds,16
Rudnaykert,47.7175,19.257778,2026-03-19 16:08:21.904882,11.46,9.73,11.46,11.97,1019,41,3.3,52,54,0.0,Clouds,broken clouds,16
Maroshegy,47.158333,18.406667,2026-03-19 16:08:23.102284,12.58,10.94,12.58,12.58,1019,40,3.38,36,78,0.0,Clouds,broken clouds,16
Bánhida,47.573703,18.371737,2026-03-19 16:08:24.309262,12.39,10.73,12.39,12.39,1019,40,2.67,8,52,0.0,Clouds,broken clouds,16
Magyarkút,47.850278,19.045,2026-03-19 16:08:25.514443,11.34,9.63,11.34,11.34,1019,42,2.17,52,49,0.0,Clouds,scattered clouds,16
Becske alsó,47.897222,19.364722,2026-03-19 16:08:26.717952,10.64,8.86,10.64,10.64,1019,42,3.44,59,39,0.0,Clouds,scattered clouds,16
Hosszúberek-Péteri,47.370556,19.389722,2026-03-19 16:08:27.920127,12.1,10.33,11.95,12.1,1019,37,4.12,100,0,0.0,Clear,clear sky,16
Monorierdő,47.308889,19.499167,2026-03-19 16:08:29.125131,12.01,10.34,10.84,12.01,1019,41,4.28,57,89,0.0,Clouds,overcast clouds,16
Ceglédbercel,47.215833,19.658611,2026-03-19 16:08:30.324022,11.01,9.24,11.01,11.01,1019,41,4.82,50,93,0.0,Clouds,overcast clouds,16
Budai út,47.208333,19.731389,2026-03-19 16:08:31.526826,11.05,9.28,11.05,11.05,1019,41,5.07,50,94,0.0,Clouds,overcast clouds,16
Büdöskútpuszta,48.373056,20.726111,2026-03-19 16:08:32.734352,10.18,8.53,10.18,10.18,1019,49,6.16,45,75,0.0,Clouds,broken clouds,16
Bánrévei Vízmű,48.282778,20.368333,2026-03-19 16:08:33.937221,8.91,6.16,8.91,8.91,1019,47,5.16,67,87,0.0,Clouds,overcast clouds,16
Rákoskert,47.456389,19.296111,2026-03-19 16:08:35.143207,11.87,10.1,11.31,11.89,1019,38,4.12,100,0,0.0,Clear,clear sky,16
Szirmabesenyő,48.146944,20.783056,2026-03-19 16:08:36.348743,10.36,9.07,9.06,11.19,1019,62,6.43,32,70,0.0,Clouds,broken clouds,16
Kitérőgyár,47.766944,19.935278,2026-03-19 16:08:37.551752,10.77,9.05,10.77,10.77,1019,44,5.33,60,81,0.0,Clouds,broken clouds,16
Tápiószentmárton,47.373333,19.797778,2026-03-19 16:08:38.759001,11.08,9.31,11.08,11.08,1019,41,0.45,73,90,0.0,Clouds,overcast clouds,16
Zagyvarékas,47.244229,20.097435,2026-03-19 16:08:39.972717,11.07,9.41,11.01,11.23,1019,45,4.12,50,0,0.0,Clear,clear sky,16
Abonyi út,47.206401,20.125204,2026-03-19 16:08:41.178616,11.06,9.4,11.01,11.23,1019,45,4.12,50,0,0.0,Clear,clear sky,16
Jászkisér felső,47.438056,20.202222,2026-03-19 16:08:42.384086,11.25,9.58,11.25,11.25,1019,44,6.68,51,92,0.0,Clouds,overcast clouds,16
Szellőhát,47.425556,20.188889,2026-03-19 16:08:43.593185,11.22,9.55,11.22,11.22,1019,44,6.69,51,93,0.0,Clouds,overcast clouds,16
Szilvásvárad-Szalajkavölgy,48.0956,20.38272,2026-03-19 16:08:44.796380,7.47,4.53,7.47,8.05,1018,51,4.76,59,66,0.0,Clouds,broken clouds,16
Vásárosnamény külső,48.084444,22.255556,2026-03-19 16:08:45.992616,10.02,8.46,10.02,10.02,1018,53,6.77,14,82,0.0,Clouds,broken clouds,16
Újváros,46.660556,20.536111,2026-03-19 16:08:47.196676,12.21,10.43,12.21,12.21,1018,36,5.06,29,92,0.0,Clouds,overcast clouds,16
Városi park,46.697778,19.864722,2026-03-19 16:08:48.403231,11.38,9.62,11.1,11.66,1019,40,5.08,36,94,0.0,Clouds,overcast clouds,16
Belsőkamaráspuszta,46.341944,20.848889,2026-03-19 16:08:49.601020,11.7,9.97,11.7,11.7,1017,40,5.12,31,86,0.0,Clouds,overcast clouds,16
Sajószöged,47.945278,20.981667,2026-03-19 16:08:50.810266,11.24,9.52,9.83,11.38,1019,42,6.64,26,81,0.0,Clouds,broken clouds,16
Kazincbarcika alsó,48.255278,20.649167,2026-03-19 16:08:52.019593,10.22,8.52,9.02,10.52,1019,47,5.83,47,73,0.0,Clouds,broken clouds,16
Nyárjas,46.857778,19.923611,2026-03-19 16:08:53.214952,11.1,9.31,11.05,11.62,1019,40,3.6,60,0,0.0,Clear,clear sky,16
Pogonyipuszta,48.296389,20.381667,2026-03-19 16:08:54.417785,8.87,6.11,8.87,8.87,1019,47,5.16,67,87,0.0,Clouds,overcast clouds,16
Sióvölgy,46.911103,18.076964,2026-03-19 16:08:55.634663,12.19,10.51,10.53,12.19,1019,40,3.81,50,69,0.0,Clouds,broken clouds,16
Répáspuszta,46.430278,17.847222,2026-03-19 16:08:56.833627,12.3,10.66,12.3,12.3,1018,41,5.25,39,99,0.0,Clouds,overcast clouds,16
Virányos,48.066667,21.527222,2026-03-19 16:08:58.038824,11.5,9.62,11.5,11.5,1019,35,6.96,23,70,0.0,Clouds,broken clouds,16
Füzesbokor,47.988611,21.6475,2026-03-19 16:08:59.244173,11.5,10.19,11.5,11.5,1018,57,7.23,13,84,0.0,Clouds,broken clouds,16
Kunfehértó,46.355833,19.417222,2026-03-19 16:09:00.453935,11.71,9.98,11.71,11.71,1018,40,5.2,37,97,0.0,Clouds,overcast clouds,16
Erdőszél,46.329444,19.395,2026-03-19 16:09:01.654709,11.59,9.85,11.59,11.59,1018,40,4.98,37,96,0.0,Clouds,overcast clouds,16
Jánoshalma,46.293056,19.330278,2026-03-19 16:09:02.863775,11.71,9.98,11.71,11.71,1018,40,4.64,36,95,0.0,Clouds,overcast clouds,16
Mélykút,46.213056,19.370556,2026-03-19 16:09:04.061730,11.71,9.98,11.71,11.71,1018,40,4.02,36,96,0.0,Clouds,overcast clouds,16
Bácsalmás,46.118056,19.346389,2026-03-19 16:09:05.270047,11.72,10.02,11.72,11.72,1018,41,3.0,42,99,0.0,Clouds,overcast clouds,16
Almás,46.116216,19.328803,2026-03-19 16:09:06.490066,11.72,10.02,11.72,11.72,1018,41,3.0,42,99,0.0,Clouds,overcast clouds,16
Bácsbokod-Bácsborsód,46.115833,19.16,2026-03-19 16:09:07.684486,11.81,10.12,11.81,11.81,1018,41,3.06,52,94,0.0,Clouds,overcast clouds,16
Baja,46.187014,18.957602,2026-03-19 16:09:08.898062,12.14,10.48,12.14,12.14,1018,41,3.7,52,94,0.0,Clouds,overcast clouds,16
Harkakötöny,46.458333,19.601944,2026-03-19 16:09:10.099550,12.06,10.37,12.06,12.06,1019,40,5.45,37,98,0.0,Clouds,overcast clouds,16
Tajó,46.473056,19.650556,2026-03-19 16:09:11.297419,12.1,10.41,12.1,12.1,1019,40,5.48,36,98,0.0,Clouds,overcast clouds,16
Kiskunmajsa,46.501667,19.728056,2026-03-19 16:09:12.500658,12.13,10.44,11.05,12.14,1019,40,5.48,35,98,0.0,Clouds,overcast clouds,16
Jászszentlászló,46.565833,19.753611,2026-03-19 16:09:13.706822,11.63,9.89,11.07,11.63,1019,40,5.33,35,96,0.0,Clouds,overcast clouds,16
Galambos,46.625,19.801111,2026-03-19 16:09:14.904941,11.38,9.62,11.1,12.69,1019,40,5.24,35,95,0.0,Clouds,overcast clouds,16
Pestszentimre,47.402222,19.188611,2026-03-19 16:09:16.115802,12.04,10.37,11.45,12.59,1019,41,4.12,100,0,0.0,Clear,clear sky,16
Gyál felső,47.390278,19.204722,2026-03-19 16:09:17.320021,12.07,10.35,11.61,12.6,1019,39,4.12,100,0,0.0,Clear,clear sky,16
Gyál,47.376667,19.219444,2026-03-19 16:09:18.508036,12.17,10.46,11.62,12.2,1019,39,4.12,100,0,0.0,Clear,clear sky,16
Ócsa,47.301389,19.232222,2026-03-19 16:09:19.716592,12.19,10.43,11.67,12.23,1019,37,4.12,100,0,0.0,Clear,clear sky,16
Inárcs-Kakucs,47.247222,19.317778,2026-03-19 16:09:20.927104,12.23,10.58,12.23,12.23,1019,41,4.04,61,83,0.0,Clouds,broken clouds,16
Dabas,47.194722,19.328889,2026-03-19 16:09:22.122668,12.24,10.59,12.24,12.24,1019,41,4.17,57,82,0.0,Clouds,broken clouds,16
Gyón,47.178333,19.355556,2026-03-19 16:09:23.326335,12.21,10.56,12.21,12.21,1019,41,4.24,56,82,0.0,Clouds,broken clouds,16
Hernád,47.161389,19.4025,2026-03-19 16:09:24.531111,11.77,10.07,11.77,11.77,1019,41,4.43,51,86,0.0,Clouds,overcast clouds,16
Bakonygyirót,47.416389,17.811944,2026-03-19 16:09:25.729244,12.59,10.87,12.59,12.71,1020,37,3.94,3,71,0.0,Clouds,broken clouds,16
Vinye,47.360317,17.819635,2026-03-19 16:09:26.931659,12.03,10.25,11.91,12.03,1020,37,3.97,10,81,0.0,Clouds,broken clouds,16
Nemesgörzsöny,47.402924,17.376385,2026-03-19 16:09:28.147317,13.16,11.45,13.16,13.16,1020,35,3.09,80,0,0.0,Clear,clear sky,16
Rábahíd,47.438618,17.337525,2026-03-19 16:09:29.341541,13.15,11.43,13.15,13.15,1020,35,3.09,80,0,0.0,Clear,clear sky,16
Öskü,47.162222,18.076389,2026-03-19 16:09:30.547586,11.31,9.49,11.31,11.31,1019,38,4.24,40,84,0.0,Clouds,broken clouds,16
Márkó,47.1275,17.813889,2026-03-19 16:09:31.752757,10.94,9.0,9.31,10.94,1019,35,3.87,33,84,0.0,Clouds,broken clouds,16
Nemeskocs,47.203333,17.188889,2026-03-19 16:09:32.949091,13.11,11.47,13.11,13.11,1020,38,4.23,18,73,0.0,Clouds,broken clouds,16
Zalagyömörő,47.011111,17.220833,2026-03-19 16:09:34.147366,13.04,11.42,13.04,13.04,1020,39,5.22,20,85,0.0,Clouds,overcast clouds,16
Rigács,47.061667,17.199167,2026-03-19 16:09:35.352596,13.01,11.36,13.01,13.01,1020,38,5.2,20,83,0.0,Clouds,broken clouds,16
Kemenespálfa,47.139722,17.183056,2026-03-19 16:09:36.552021,13.14,11.5,13.14,13.14,1020,38,4.81,19,75,0.0,Clouds,broken clouds,16
Lentiszombathely,46.611389,16.5725,2026-03-19 16:09:37.752024,9.02,6.62,9.02,11.06,1019,44,4.38,35,92,0.0,Clouds,overcast clouds,16
Ortaháza,46.626667,16.685833,2026-03-19 16:09:38.957650,12.58,11.04,12.58,12.58,1019,44,3.78,39,94,0.0,Clouds,overcast clouds,16
Rádiháza,46.654722,16.765833,2026-03-19 16:09:40.161200,12.56,10.99,12.56,12.56,1019,43,3.78,39,93,0.0,Clouds,overcast clouds,16
Baktüttös,46.690833,16.826389,2026-03-19 16:09:41.368538,10.6,8.84,10.6,10.6,1019,43,4.12,37,91,0.0,Clouds,overcast clouds,16
Budafa,46.851667,16.624722,2026-03-19 16:09:42.571740,12.8,11.26,12.8,12.8,1019,43,4.76,31,76,0.0,Clouds,broken clouds,16
Zalapatakalja,46.845556,16.603889,2026-03-19 16:09:43.767506,12.8,11.26,12.8,12.8,1019,43,4.74,33,68,0.0,Clouds,broken clouds,16
Tormásliget,47.430556,16.781667,2026-03-19 16:09:44.970622,11.97,10.37,11.97,11.97,1020,44,3.78,13,43,0.0,Clouds,scattered clouds,16
Belecska,46.64,18.411389,2026-03-19 16:09:46.178026,12.46,10.81,12.46,12.46,1018,40,4.66,39,91,0.0,Clouds,overcast clouds,16
Almár,47.956111,20.356944,2026-03-19 16:09:47.376915,8.72,6.01,8.68,10.81,1019,51,4.95,52,60,0.0,Clouds,broken clouds,16
Vasútmúzeum,47.543889,19.099444,2026-03-19 16:09:48.575640,11.83,10.17,11.49,12.64,1019,42,4.12,100,0,0.0,Clear,clear sky,16
Abda,47.690833,17.540556,2026-03-19 16:09:49.787993,13.09,11.42,13.09,13.09,1020,37,2.79,7,46,0.0,Clouds,scattered clouds,16
Vadaspark,47.526111,18.949167,2026-03-19 16:09:50.986720,10.06,8.24,9.69,10.83,1019,43,0.89,91,86,0.0,Clouds,overcast clouds,16
Barosstelep,47.398889,18.989167,2026-03-19 16:09:52.183519,12.12,10.51,11.55,12.69,1019,43,1.34,93,95,0.0,Clouds,overcast clouds,16
Fegyvernek-Örményes,47.194444,20.5575,2026-03-19 16:09:53.383598,11.02,9.33,11.02,11.02,1019,44,6.45,32,91,0.0,Clouds,overcast clouds,16
Zagyvapálfalva,48.068889,19.785,2026-03-19 16:09:54.580852,10.32,8.56,10.32,10.32,1019,44,4.16,78,60,0.0,Clouds,broken clouds,16
Salgótarján,48.105556,19.807222,2026-03-19 16:09:55.777324,9.66,7.48,9.66,9.66,1019,44,4.24,75,49,0.0,Clouds,scattered clouds,16
Szabadisóstó,46.933889,18.118056,2026-03-19 16:09:56.983619,11.62,9.88,10.51,11.62,1019,40,3.77,48,70,0.0,Clouds,broken clouds,16
Siófok,46.907778,18.053889,2026-03-19 16:09:58.189105,11.62,9.88,10.51,11.62,1019,40,3.81,50,69,0.0,Clouds,broken clouds,16
Balatonszéplak felső,46.898056,18.018056,2026-03-19 16:09:59.389091,11.62,9.88,10.51,11.62,1019,40,3.84,51,68,0.0,Clouds,broken clouds,16
Balatonszéplak alsó,46.891944,17.993333,2026-03-19 16:10:00.613617,11.62,9.88,10.51,11.62,1019,40,3.58,90,65,0.0,Clouds,broken clouds,16
Zamárdi felső,46.886111,17.969444,2026-03-19 16:10:01.810389,11.04,9.24,10.52,12.15,1019,40,3.58,90,61,0.0,Clouds,broken clouds,16
Zamárdi,46.88,17.944722,2026-03-19 16:10:03.010044,10.89,9.08,10.46,12.08,1019,40,3.58,90,61,0.0,Clouds,broken clouds,16
Szántód,46.861944,17.899167,2026-03-19 16:10:04.214188,10.84,9.02,10.53,12.16,1019,40,3.58,90,52,0.0,Clouds,broken clouds,16
Szőny-Déli,47.735278,18.141944,2026-03-19 16:10:05.408985,13.12,11.51,13.12,14.5,1020,39,3.94,333,57,0.0,Clouds,broken clouds,16
Várpalota,47.194444,18.149167,2026-03-19 16:10:06.608216,12.18,10.45,12.18,12.18,1019,38,4.09,38,87,0.0,Clouds,overcast clouds,16
Pétfürdő,47.1675,18.121389,2026-03-19 16:10:07.811919,11.44,9.63,11.44,11.44,1019,38,4.17,39,86,0.0,Clouds,overcast clouds,16
Hajmáskér,47.141111,18.009444,2026-03-19 16:10:09.012812,11.01,9.16,10.11,11.73,1019,38,4.25,40,84,0.0,Clouds,broken clouds,16
Veszprém,47.118889,17.91,2026-03-19 16:10:10.212206,11.17,9.26,9.9,11.53,1019,35,4.06,38,82,0.0,Clouds,broken clouds,16
Herend,47.136944,17.760278,2026-03-19 16:10:11.414114,10.71,8.75,9.09,10.71,1019,35,3.82,31,86,0.0,Clouds,overcast clouds,16
Városlőd,47.144167,17.652778,2026-03-19 16:10:12.612053,10.88,8.94,10.88,11.98,1020,35,3.92,21,91,0.0,Clouds,overcast clouds,16
Városlőd-Kislőd,47.133889,17.631111,2026-03-19 16:10:13.807438,10.99,9.06,10.99,12.09,1020,35,3.88,22,92,0.0,Clouds,overcast clouds,16
Ajka,47.105902,17.572938,2026-03-19 16:10:15.015251,11.29,9.39,11.29,12.39,1020,35,4.09,19,96,0.0,Clouds,overcast clouds,16
Ajka-Gyártelep,47.096806,17.555219,2026-03-19 16:10:16.207852,11.34,9.44,11.34,12.44,1020,35,4.09,19,96,0.0,Clouds,overcast clouds,16
Devecser,47.1125,17.435278,2026-03-19 16:10:17.401738,11.75,9.89,11.75,12.84,1020,35,4.43,17,97,0.0,Clouds,overcast clouds,16
Somlóvásárhely,47.124444,17.369167,2026-03-19 16:10:18.604104,11.86,10.07,11.86,12.95,1020,37,4.69,17,91,0.0,Clouds,overcast clouds,16
Tüskevár,47.128611,17.331389,2026-03-19 16:10:19.806139,11.89,10.1,11.89,12.99,1020,37,4.74,17,89,0.0,Clouds,overcast clouds,16
Karakószörcsök,47.133611,17.287778,2026-03-19 16:10:21.009513,13.08,11.44,13.08,13.08,1020,38,4.8,18,86,0.0,Clouds,overcast clouds,16
Kerta,47.151944,17.237222,2026-03-19 16:10:22.220906,13.19,11.56,13.19,13.19,1020,38,4.64,19,77,0.0,Clouds,broken clouds,16
Boba,47.183333,17.191389,2026-03-19 16:10:23.432471,13.17,11.53,13.17,13.17,1020,38,4.42,19,74,0.0,Clouds,broken clouds,16
Börgönd,47.140278,18.515,2026-03-19 16:10:24.634538,12.4,10.74,12.4,12.4,1019,40,3.07,37,75,0.0,Clouds,broken clouds,16
Belsőbáránd,47.102778,18.499722,2026-03-19 16:10:25.836543,12.38,10.72,12.38,12.38,1019,40,3.12,40,72,0.0,Clouds,broken clouds,16
Zichyújfalu,47.124444,18.6725,2026-03-19 16:10:27.038978,12.28,10.63,12.28,12.28,1019,41,2.8,44,80,0.0,Clouds,broken clouds,16
Seregélyes,47.121111,18.580556,2026-03-19 16:10:28.234368,12.51,10.89,12.51,12.51,1019,41,2.99,38,75,0.0,Clouds,broken clouds,16
Polgárdi-Ipartelepek,47.079167,18.314444,2026-03-19 16:10:29.452367,11.25,9.45,11.25,11.25,1019,39,3.47,43,74,0.0,Clouds,broken clouds,16
Polgárdi,47.07,18.284167,2026-03-19 16:10:30.645309,11.25,9.45,11.25,11.25,1019,39,3.47,43,74,0.0,Clouds,broken clouds,16
Füle,47.05,18.255278,2026-03-19 16:10:31.846398,11.22,9.42,11.22,11.22,1019,39,3.51,44,73,0.0,Clouds,broken clouds,16
Zánka-Erzsébettábor,46.8775,17.709167,2026-03-19 16:10:33.053480,10.89,9.08,10.46,12.09,1019,40,3.74,56,32,0.0,Clouds,scattered clouds,16
Csajág,47.033889,18.186389,2026-03-19 16:10:34.261732,11.46,9.71,10.35,11.46,1019,40,3.73,46,72,0.0,Clouds,broken clouds,16
Balatonakarattya,47.017222,18.167778,2026-03-19 16:10:35.456652,11.31,9.54,10.2,11.31,1019,40,3.73,46,72,0.0,Clouds,broken clouds,16
Csittényhegy,47.025278,18.1375,2026-03-19 16:10:36.663505,11.53,9.78,10.42,11.53,1019,40,3.8,46,71,0.0,Clouds,broken clouds,16
Balatonkenese,47.0325,18.105556,2026-03-19 16:10:37.856981,11.61,9.87,10.5,11.61,1019,40,3.86,46,71,0.0,Clouds,broken clouds,16
Balatonfűzfő,47.060278,18.0425,2026-03-19 16:10:39.053112,11.27,9.5,10.53,12.15,1019,40,4.03,45,71,0.0,Clouds,broken clouds,16
Balatonalmádi,47.028333,18.015,2026-03-19 16:10:40.259462,11.17,9.39,10.5,12.13,1019,40,3.96,46,69,0.0,Clouds,broken clouds,16
Káptalanfüred,47.008889,18.003889,2026-03-19 16:10:41.463928,11.16,9.38,10.53,12.15,1019,40,3.91,47,66,0.0,Clouds,broken clouds,16
Alsóörs,46.985278,17.974722,2026-03-19 16:10:42.668259,11.07,9.28,10.54,12.17,1019,40,3.58,90,66,0.0,Clouds,broken clouds,16
Csopak,46.974722,17.931111,2026-03-19 16:10:43.873039,10.72,8.89,10.41,12.04,1019,40,3.58,90,59,0.0,Clouds,broken clouds,16
Balatonarács,46.9625,17.8975,2026-03-19 16:10:45.069212,10.46,8.61,10.31,11.94,1019,40,3.58,90,59,0.0,Clouds,broken clouds,16
Balatonfüred,46.955833,17.883056,2026-03-19 16:10:46.265416,10.47,8.62,10.38,12.01,1019,40,3.58,90,55,0.0,Clouds,broken clouds,16
Aszófő,46.925556,17.8325,2026-03-19 16:10:47.467482,10.48,8.63,10.48,12.1,1019,40,3.58,90,49,0.0,Clouds,scattered clouds,16
Örvényes,46.9125,17.818056,2026-03-19 16:10:48.671279,10.5,8.65,10.5,12.12,1019,40,3.58,90,49,0.0,Clouds,scattered clouds,16
Balatonudvari,46.904722,17.808056,2026-03-19 16:10:49.882128,10.54,8.69,10.53,12.16,1019,40,3.58,90,47,0.0,Clouds,scattered clouds,16
Fövenyes,46.893611,17.789444,2026-03-19 16:10:51.093857,10.57,8.73,10.55,12.17,1019,40,3.58,90,43,0.0,Clouds,scattered clouds,16
Balatonakali-Dörgicse,46.88,17.747778,2026-03-19 16:10:52.301394,10.72,8.89,10.54,12.17,1019,40,3.74,53,41,0.0,Clouds,scattered clouds,16
Zánka-Köveskál,46.872778,17.687778,2026-03-19 16:10:53.527588,11.06,9.27,10.53,12.16,1019,40,3.72,56,32,0.0,Clouds,scattered clouds,16
Balatonszepezd,46.851111,17.663056,2026-03-19 16:10:54.738815,10.53,8.68,10.53,12.16,1019,40,3.82,59,25,0.0,Clouds,scattered clouds,16
Szepezdfürdő,46.839722,17.649444,2026-03-19 16:10:55.946964,10.5,8.65,10.5,12.13,1019,40,3.8,59,25,0.0,Clouds,scattered clouds,16
Révfülöp,46.829167,17.632222,2026-03-19 16:10:57.149016,10.51,8.66,10.51,12.14,1019,40,3.8,59,25,0.0,Clouds,scattered clouds,16
Balatonrendes,46.824722,17.582778,2026-03-19 16:10:58.352579,10.51,8.69,10.51,12.14,1019,41,3.83,62,26,0.0,Clouds,scattered clouds,16
Ábrahámhegy,46.815,17.572222,2026-03-19 16:10:59.548092,10.48,8.65,10.48,12.1,1019,41,3.83,62,26,0.0,Clouds,scattered clouds,16
Badacsonyörs,46.805556,17.531667,2026-03-19 16:11:00.752908,12.16,10.5,12.16,12.16,1019,41,3.79,62,31,0.0,Clouds,scattered clouds,16
Kisújszállás,47.223889,20.751111,2026-03-19 16:11:01.961355,11.09,9.4,11.09,11.09,1019,44,6.64,25,86,0.0,Clouds,overcast clouds,16
Karcag,47.303333,20.928056,2026-03-19 16:11:03.175295,10.91,9.21,10.91,10.91,1019,44,6.76,21,87,0.0,Clouds,overcast clouds,16
Püspökladány,47.3275,21.128889,2026-03-19 16:11:04.379917,10.86,9.15,10.86,10.86,1018,44,6.82,16,90,0.0,Clouds,overcast clouds,16
Kaba,47.368889,21.259444,2026-03-19 16:11:05.587963,11.1,9.41,11.1,11.1,1018,44,6.52,13,92,0.0,Clouds,overcast clouds,16
Hajdúszoboszló,47.429444,21.406944,2026-03-19 16:11:06.784225,11.09,9.3,11.09,11.09,1018,40,6.17,20,0,0.0,Clear,clear sky,16
Ebes,47.462778,21.488889,2026-03-19 16:11:07.986442,11.04,9.24,11.04,11.04,1018,40,6.17,20,0,0.0,Clear,clear sky,16
Debrecen,47.520278,21.628611,2026-03-19 16:11:09.192189,10.92,9.11,10.92,10.92,1018,40,6.17,20,0,0.0,Clear,clear sky,16
Debrecen-Csapókert,47.540556,21.648056,2026-03-19 16:11:10.387660,10.87,9.06,10.87,10.87,1018,40,6.17,20,0,0.0,Clear,clear sky,16
Apafa,47.584045,21.655858,2026-03-19 16:11:11.595882,10.83,9.01,10.83,10.83,1018,40,6.17,20,0,0.0,Clear,clear sky,16
Bocskaikert,47.6425,21.666389,2026-03-19 16:11:12.799584,10.76,8.94,10.76,10.76,1018,40,6.17,20,0,0.0,Clear,clear sky,16
Hajdúhadház,47.686944,21.679167,2026-03-19 16:11:13.996205,10.73,9.09,10.73,10.73,1018,47,6.14,5,98,0.0,Clouds,overcast clouds,16
Téglás,47.714722,21.684722,2026-03-19 16:11:15.200468,10.8,9.19,10.8,10.8,1018,48,6.12,6,97,0.0,Clouds,overcast clouds,16
Újfehértó,47.814444,21.706389,2026-03-19 16:11:16.402735,10.26,8.67,10.26,10.26,1018,51,6.29,7,95,0.0,Clouds,overcast clouds,16
Nyíregyháza,47.946667,21.705556,2026-03-19 16:11:17.609683,10.23,8.74,10.23,10.23,1018,55,7.0,10,92,0.0,Clouds,overcast clouds,16
Sóstó,47.998051,21.729047,2026-03-19 16:11:18.827251,11.48,10.17,11.48,11.48,1018,57,7.11,10,95,0.0,Clouds,overcast clouds,16
Sóstóhegy,48.012222,21.742778,2026-03-19 16:11:20.033849,11.48,10.2,11.48,11.48,1018,58,7.2,10,93,0.0,Clouds,overcast clouds,16
Kemecse,48.065556,21.801667,2026-03-19 16:11:21.249659,10.29,8.97,10.29,10.29,1018,61,7.05,12,92,0.0,Clouds,overcast clouds,16
Nyírbogdány,48.082222,21.855278,2026-03-19 16:11:22.447255,10.26,8.96,10.26,10.26,1018,62,6.91,13,91,0.0,Clouds,overcast clouds,16
Kék,48.093333,21.883889,2026-03-19 16:11:23.663362,10.3,8.98,10.3,10.3,1018,61,6.45,15,91,0.0,Clouds,overcast clouds,16
Demecser,48.111667,21.926667,2026-03-19 16:11:24.873838,10.31,9.02,10.31,10.31,1018,62,6.3,16,89,0.0,Clouds,overcast clouds,16
Gégény,48.128333,21.951944,2026-03-19 16:11:26.078773,10.28,8.98,10.28,10.28,1018,62,6.21,17,87,0.0,Clouds,overcast clouds,16
Pátroha,48.158611,21.996667,2026-03-19 16:11:27.295336,10.3,9.0,10.3,10.3,1018,62,6.15,17,85,0.0,Clouds,overcast clouds,16
Ajak,48.1865,22.048972,2026-03-19 16:11:28.504874,10.27,8.97,10.27,10.27,1018,62,6.1,17,83,0.0,Clouds,broken clouds,16
Kisvárda,48.208333,22.078333,2026-03-19 16:11:29.736704,10.27,8.97,10.27,10.27,1018,62,5.98,18,82,0.0,Clouds,broken clouds,16
Kisvárda-Hármasút,48.228333,22.091944,2026-03-19 16:11:30.942406,10.27,8.97,10.27,10.27,1018,62,5.98,18,82,0.0,Clouds,broken clouds,16
Fényeslitke,48.267222,22.107222,2026-03-19 16:11:32.146295,10.2,8.89,10.2,10.2,1018,62,5.94,17,79,0.0,Clouds,broken clouds,16
Komoró,48.305278,22.118056,2026-03-19 16:11:33.349945,10.22,8.94,10.22,10.22,1018,63,5.98,16,78,0.0,Clouds,broken clouds,16
Tuzsér,48.342222,22.131667,2026-03-19 16:11:34.575189,10.17,8.89,10.17,10.17,1019,63,6.07,14,77,0.0,Clouds,broken clouds,16
Tiszabezdéd,48.371389,22.145,2026-03-19 16:11:35.782814,10.17,8.86,10.17,10.17,1019,62,5.93,14,76,0.0,Clouds,broken clouds,16
Záhony,48.402222,22.183611,2026-03-19 16:11:36.986280,10.14,8.8,10.14,10.14,1019,61,5.78,14,75,0.0,Clouds,broken clouds,16
Karcag-Vásártér,47.3225,20.9075,2026-03-19 16:11:38.194046,10.56,8.82,10.56,10.56,1019,44,6.76,21,87,0.0,Clouds,overcast clouds,16
Berekfürdő,47.374722,20.827222,2026-03-19 16:11:39.388330,10.55,8.84,10.55,10.55,1019,45,6.48,26,86,0.0,Clouds,overcast clouds,16
Kunmadaras,47.415278,20.793056,2026-03-19 16:11:40.591532,10.54,8.9,10.54,10.54,1019,48,6.25,29,87,0.0,Clouds,overcast clouds,16
Tiszaszentimre,47.490833,20.733056,2026-03-19 16:11:41.795437,10.55,8.91,10.55,10.55,1019,48,6.01,34,88,0.0,Clouds,overcast clouds,16
Tiszaszőlős,47.555556,20.728056,2026-03-19 16:11:43.010883,10.55,8.91,10.55,10.55,1019,48,5.95,35,88,0.0,Clouds,overcast clouds,16
Hosszúhát,47.235556,21.101944,2026-03-19 16:11:44.214452,11.02,9.3,11.02,11.02,1018,43,6.63,17,88,0.0,Clouds,overcast clouds,16
Szerep,47.234444,21.145833,2026-03-19 16:11:45.417423,11.02,9.3,11.02,11.02,1018,43,6.55,17,88,0.0,Clouds,overcast clouds,16
Sárrétudvari,47.231667,21.180833,2026-03-19 16:11:46.616820,11.01,9.29,11.01,11.01,1018,43,6.45,17,87,0.0,Clouds,overcast clouds,16
Biharnagybajom,47.208889,21.221944,2026-03-19 16:11:47.826388,11.05,9.31,11.05,11.05,1018,42,5.99,19,83,0.0,Clouds,broken clouds,16
Füzesgyarmat,47.113056,21.194444,2026-03-19 16:11:49.028553,11.21,9.48,11.21,11.21,1018,42,5.17,27,74,0.0,Clouds,broken clouds,16
Füzesgyarmatfürdő,47.093787,21.201582,2026-03-19 16:11:50.237672,11.21,9.48,11.21,11.21,1018,42,5.17,27,74,0.0,Clouds,broken clouds,16
Báránd,47.299722,21.235278,2026-03-19 16:11:51.442685,10.92,9.19,10.92,10.92,1018,43,6.56,14,91,0.0,Clouds,overcast clouds,16
Sáp,47.259722,21.360556,2026-03-19 16:11:52.646672,10.99,9.24,10.99,10.99,1018,42,5.88,18,87,0.0,Clouds,overcast clouds,16
Berettyóújfalu,47.211944,21.535556,2026-03-19 16:11:53.847214,11.03,9.23,11.03,11.03,1018,40,4.42,31,72,0.0,Clouds,broken clouds,16
Mezőpeterd,47.176111,21.625278,2026-03-19 16:11:55.053760,11.39,9.63,11.28,11.39,1018,40,3.99,38,61,0.0,Clouds,broken clouds,16
Biharkeresztes,47.135556,21.721389,2026-03-19 16:11:56.256767,11.36,9.54,11.25,11.36,1018,38,4.12,40,0,0.0,Clear,clear sky,16
Tócóvölgy,47.529444,21.588889,2026-03-19 16:11:57.460586,10.97,9.17,10.97,10.97,1018,40,6.17,20,0,0.0,Clear,clear sky,16
Sáregres,46.7825,18.588889,2026-03-19 16:11:58.663666,12.43,10.77,12.43,12.43,1019,40,4.51,40,80,0.0,Clouds,broken clouds,16
Simontornya,46.756582,18.540674,2026-03-19 16:11:59.868896,12.39,10.73,12.39,12.39,1019,40,4.47,40,84,0.0,Clouds,broken clouds,16
Tolnanémedi,46.727778,18.475833,2026-03-19 16:12:01.064297,12.47,10.82,12.47,12.47,1019,40,4.52,39,86,0.0,Clouds,overcast clouds,16
Pincehely,46.681389,18.43,2026-03-19 16:12:02.268577,12.35,10.68,12.35,12.35,1019,40,4.57,40,88,0.0,Clouds,overcast clouds,16
Keszőhidegkút-Gyönk,46.597778,18.426111,2026-03-19 16:12:03.472576,12.36,10.7,12.36,12.36,1018,40,4.68,39,92,0.0,Clouds,overcast clouds,16
Szárazd,46.575556,18.420833,2026-03-19 16:12:04.675573,12.4,10.74,12.4,12.4,1018,40,4.7,39,92,0.0,Clouds,overcast clouds,16
Regöly,46.568889,18.396111,2026-03-19 16:12:05.884080,12.4,10.74,12.4,12.4,1018,40,4.7,39,92,0.0,Clouds,overcast clouds,16
Szakály-Hőgyész,46.523611,18.389444,2026-03-19 16:12:07.090375,12.31,10.64,12.31,12.31,1018,40,4.72,39,93,0.0,Clouds,overcast clouds,16
Dúzs,46.493889,18.377222,2026-03-19 16:12:08.284887,12.35,10.68,12.35,12.35,1018,40,4.72,39,94,0.0,Clouds,overcast clouds,16
Csibrák,46.466667,18.336389,2026-03-19 16:12:09.497075,12.42,10.76,12.42,12.42,1018,40,4.74,40,95,0.0,Clouds,overcast clouds,16
Kurd,46.449167,18.319167,2026-03-19 16:12:10.701537,12.08,10.39,12.08,12.08,1018,40,4.71,40,96,0.0,Clouds,overcast clouds,16
Döbrököz,46.418889,18.255,2026-03-19 16:12:11.904966,12.39,10.73,12.39,12.39,1018,40,4.75,40,96,0.0,Clouds,overcast clouds,16
Dombóvár,46.37,18.149722,2026-03-19 16:12:13.111555,12.43,10.77,12.43,12.43,1018,40,4.81,40,96,0.0,Clouds,overcast clouds,16
Dombóvár alsó,46.363889,18.134167,2026-03-19 16:12:14.315942,12.43,10.77,12.43,12.43,1018,40,4.81,40,96,0.0,Clouds,overcast clouds,16
Somoskőújfalu,48.154722,19.815556,2026-03-19 16:12:15.517344,8.57,6.06,8.57,8.57,1019,44,4.4,72,40,0.0,Clouds,scattered clouds,16
Jászfényszaru,47.593056,19.754444,2026-03-19 16:12:16.728237,11.43,9.73,11.43,11.43,1019,42,5.41,63,88,0.0,Clouds,overcast clouds,16
Pusztamonostor,47.564444,19.794167,2026-03-19 16:12:17.941185,11.05,9.31,11.05,11.05,1019,42,5.49,61,86,0.0,Clouds,overcast clouds,16
Jászberény,47.494444,19.893333,2026-03-19 16:12:19.143438,11.15,9.42,11.15,11.15,1019,42,5.72,59,86,0.0,Clouds,overcast clouds,16
Meggyespele,47.441944,19.938889,2026-03-19 16:12:20.347740,11.17,9.44,11.17,11.17,1019,42,6.18,57,91,0.0,Clouds,overcast clouds,16
Portelek,47.418056,19.958889,2026-03-19 16:12:21.553132,11.19,9.46,11.19,11.19,1019,42,6.2,56,92,0.0,Clouds,overcast clouds,16
Jászboldogháza-Jánoshida,47.366944,20.001389,2026-03-19 16:12:22.750435,11.18,9.45,11.18,11.18,1019,42,6.33,54,95,0.0,Clouds,overcast clouds,16
Jászárokszállás,47.635556,19.971111,2026-03-19 16:12:23.959743,11.27,9.58,11.27,11.27,1019,43,5.85,57,83,0.0,Clouds,broken clouds,16
Jászdózsa,47.563056,20.028056,2026-03-19 16:12:25.170733,11.26,9.56,11.26,11.26,1019,43,6.12,56,86,0.0,Clouds,overcast clouds,16
Jászapáti,47.513611,20.155,2026-03-19 16:12:26.366533,11.18,9.5,11.18,11.18,1019,44,6.51,53,89,0.0,Clouds,overcast clouds,16
Jászkisér,47.456111,20.203333,2026-03-19 16:12:27.571515,10.57,8.83,10.57,10.57,1019,44,6.65,52,91,0.0,Clouds,overcast clouds,16
Jászladány,47.373333,20.159167,2026-03-19 16:12:28.780957,11.23,9.53,11.01,11.23,1019,43,6.65,50,95,0.0,Clouds,overcast clouds,16
Szászberek,47.320556,20.090833,2026-03-19 16:12:29.985590,11.22,9.49,11.01,11.22,1019,42,6.54,49,96,0.0,Clouds,overcast clouds,16
Gyöngyöshalász,47.743056,19.932222,2026-03-19 16:12:31.193791,10.99,9.27,10.99,10.99,1019,43,5.43,59,81,0.0,Clouds,broken clouds,16
Gyöngyös,47.783056,19.937222,2026-03-19 16:12:32.403131,10.55,8.81,10.55,10.55,1019,44,5.36,59,78,0.0,Clouds,broken clouds,16
Erdőtelek,47.683333,20.3025,2026-03-19 16:12:33.599455,10.72,9.02,10.72,10.72,1019,45,6.32,50,80,0.0,Clouds,broken clouds,16
Heves,47.609444,20.306111,2026-03-19 16:12:34.803842,10.5,8.75,10.5,10.5,1019,44,6.49,49,84,0.0,Clouds,broken clouds,16
Hevesvezekény,47.562222,20.365833,2026-03-19 16:12:36.017828,10.54,8.9,10.54,10.54,1019,48,6.54,47,84,0.0,Clouds,broken clouds,16
Tarnaszentmiklós,47.546944,20.390833,2026-03-19 16:12:37.212102,10.55,8.91,10.55,10.55,1019,48,6.54,46,86,0.0,Clouds,overcast clouds,16
Kisköre,47.495556,20.481667,2026-03-19 16:12:38.412738,10.57,8.94,10.57,10.57,1019,48,1.34,14,88,0.0,Clouds,overcast clouds,16
Abádszalók,47.455278,20.553056,2026-03-19 16:12:39.618548,10.55,8.91,10.55,10.55,1019,48,1.34,14,89,0.0,Clouds,overcast clouds,16
Kunhegyes,47.376667,20.641111,2026-03-19 16:12:40.814986,10.55,8.91,10.55,10.55,1019,48,6.3,34,89,0.0,Clouds,overcast clouds,16
Kenderes,47.254444,20.686111,2026-03-19 16:12:42.017826,10.58,8.84,10.58,10.58,1019,44,6.55,29,88,0.0,Clouds,overcast clouds,16
Maklár,47.808056,20.404722,2026-03-19 16:12:43.222815,9.02,5.98,9.02,9.02,1019,46,6.06,46,68,0.0,Clouds,broken clouds,16
Andornaktálya,47.852203,20.402295,2026-03-19 16:12:44.421585,8.96,6.04,8.96,11.09,1019,46,5.66,46,63,0.0,Clouds,broken clouds,16
Eger,47.891667,20.381667,2026-03-19 16:12:45.627444,8.87,6.03,8.87,11.0,1019,46,5.39,49,62,0.0,Clouds,broken clouds,16
Egervár,47.908056,20.380556,2026-03-19 16:12:46.832001,8.69,5.87,8.69,10.82,1019,51,5.21,49,61,0.0,Clouds,broken clouds,16
Eger-Felnémet,47.936667,20.370556,2026-03-19 16:12:48.033751,8.77,6.03,8.74,10.87,1019,51,5.05,50,59,0.0,Clouds,broken clouds,16
Szarvaskő,47.988611,20.3325,2026-03-19 16:12:49.242736,8.33,5.56,8.33,8.91,1018,51,4.85,53,60,0.0,Clouds,broken clouds,16
Mónosbél,48.031944,20.33,2026-03-19 16:12:50.445851,8.15,5.38,8.15,8.73,1018,51,4.76,57,62,0.0,Clouds,broken clouds,16
Bélapátfalva,48.055556,20.340556,2026-03-19 16:12:51.649861,7.86,5.02,7.86,8.43,1018,51,4.76,59,64,0.0,Clouds,broken clouds,16
Bélapátfalvi Cementgyár,48.058056,20.355,2026-03-19 16:12:52.855761,7.81,4.95,7.81,8.39,1018,51,4.76,59,64,0.0,Clouds,broken clouds,16
Szilvásvárad,48.11345,20.37919,2026-03-19 16:12:54.057344,7.68,4.77,7.68,8.26,1018,51,4.82,61,69,0.0,Clouds,broken clouds,16
Hejőkeresztúr,47.960278,20.869444,2026-03-19 16:12:55.257031,11.3,9.58,9.8,11.35,1019,42,1.79,51,82,0.0,Clouds,broken clouds,16
Tiszaújváros,47.926111,21.030556,2026-03-19 16:12:56.465464,11.4,9.82,10.77,11.4,1019,47,6.55,27,81,0.0,Clouds,broken clouds,16
Miskolc-Gömöri,48.106667,20.800278,2026-03-19 16:12:57.669208,10.48,9.1,9.11,11.25,1019,58,6.66,29,73,0.0,Clouds,broken clouds,16
Sajókeresztúr,48.168008,20.774014,2026-03-19 16:12:58.863472,10.34,9.07,9.06,11.19,1019,63,6.33,33,69,0.0,Clouds,broken clouds,16
Sajóecseg,48.186111,20.766667,2026-03-19 16:13:00.071402,10.37,9.11,9.1,11.23,1019,63,6.25,35,69,0.0,Clouds,broken clouds,16
Sajószentpéter,48.222222,20.708056,2026-03-19 16:13:01.274386,10.09,8.9,9.0,11.14,1019,67,6.1,38,68,0.0,Clouds,broken clouds,16
Kazincbarcika,48.264444,20.6275,2026-03-19 16:13:02.469597,10.19,8.49,9.01,10.51,1019,47,5.74,51,76,0.0,Clouds,broken clouds,16
Sajókaza,48.272778,20.581944,2026-03-19 16:13:03.675077,9.24,6.39,9.0,10.51,1019,47,5.66,53,79,0.0,Clouds,broken clouds,16
Vadna,48.276389,20.555278,2026-03-19 16:13:04.880767,9.11,6.23,8.98,10.49,1019,47,5.66,53,79,0.0,Clouds,broken clouds,16
Dubicsány,48.280833,20.504722,2026-03-19 16:13:06.075924,9.06,6.25,8.97,10.47,1019,47,5.44,60,85,0.0,Clouds,overcast clouds,16
Raposka,46.851389,17.412778,2026-03-19 16:13:07.293562,11.06,9.27,11.06,11.06,1019,40,3.58,50,65,0.0,Clouds,broken clouds,16
Ivacs,47.641944,19.273889,2026-03-19 16:13:08.502263,11.55,9.88,11.12,12.35,1019,43,3.28,55,70,0.0,Clouds,broken clouds,16
Kisköre-Tiszahíd,47.480835,20.507698,2026-03-19 16:13:09.700866,10.55,8.91,10.55,10.55,1019,48,1.34,14,89,0.0,Clouds,overcast clouds,16
Rozsály,47.912778,22.7825,2026-03-19 16:13:10.917046,10.03,8.21,10.03,11.03,1018,43,3.07,355,37,0.0,Clouds,scattered clouds,16
Pusztakettős,47.453611,20.749722,2026-03-19 16:13:12.120056,10.55,8.91,10.55,10.55,1019,48,6.13,31,88,0.0,Clouds,overcast clouds,16
Kisvác,47.795278,19.113611,2026-03-19 16:13:13.314327,11.61,9.92,11.45,11.61,1019,42,2.86,47,43,0.0,Clouds,scattered clouds,16
Tiszafüred-Gyártelep,47.6075,20.736111,2026-03-19 16:13:14.518368,10.52,8.88,10.52,10.52,1019,48,5.99,36,88,0.0,Clouds,overcast clouds,16
Újkenéz,48.251111,22.221667,2026-03-19 16:13:15.734650,10.1,8.68,10.1,10.1,1019,58,5.98,19,75,0.0,Clouds,broken clouds,16
Püspökladány-Vásártér,47.319167,21.096111,2026-03-19 16:13:16.935646,10.9,9.19,10.9,10.9,1018,44,6.84,16,90,0.0,Clouds,overcast clouds,16
Végegyháza alsó,46.3675,20.866944,2026-03-19 16:13:18.150696,11.72,9.99,11.72,11.72,1017,40,5.12,31,84,0.0,Clouds,broken clouds,16
Orosháza felső,46.553611,20.655278,2026-03-19 16:13:19.365039,11.68,9.95,11.68,11.68,1018,40,4.86,34,90,0.0,Clouds,overcast clouds,16
Ambrózfalva,46.353056,20.740556,2026-03-19 16:13:20.572119,11.67,9.94,11.67,11.67,1017,40,5.01,34,89,0.0,Clouds,overcast clouds,16
Alsónyék,46.199444,18.738056,2026-03-19 16:13:21.779402,13.6,12.11,13.6,13.6,1018,42,4.18,49,94,0.0,Clouds,overcast clouds,16
Tompapuszta,46.321389,20.966389,2026-03-19 16:13:22.988902,11.72,11.56,11.71,12.3,1017,100,5.27,26,84,0.0,Clouds,broken clouds,16
Halászlak,46.911879,20.56228,2026-03-19 16:13:24.192100,11.54,9.85,11.54,11.54,1019,42,5.56,26,87,0.0,Clouds,overcast clouds,16
Sirató,46.840556,20.61,2026-03-19 16:13:25.398785,11.6,9.91,11.6,11.6,1018,42,5.32,26,84,0.0,Clouds,broken clouds,16
Csabacsűd felső,46.829167,20.649167,2026-03-19 16:13:26.601827,11.58,9.89,11.58,11.58,1018,42,5.27,27,82,0.0,Clouds,broken clouds,16
Orosháza-Üveggyár,46.579979,20.683644,2026-03-19 16:13:27.804630,11.64,9.9,11.64,11.64,1018,40,4.85,34,87,0.0,Clouds,overcast clouds,16
Gyulai városerdő,46.69482,21.32281,2026-03-19 16:13:29.008694,11.08,9.29,11.08,11.08,1018,40,4.92,27,63,0.0,Clouds,broken clouds,16
Kórógyszentgyörgy,46.564377,20.224998,2026-03-19 16:13:30.214802,12.23,10.45,12.23,12.24,1019,36,5.34,28,97,0.0,Clouds,overcast clouds,16
Kunszállás,46.784444,19.767222,2026-03-19 16:13:31.423029,11.04,9.24,11.04,12.08,1019,40,3.6,60,0,0.0,Clear,clear sky,16
Selymes,46.655321,19.8534,2026-03-19 16:13:32.628909,11.11,9.32,11.11,12.14,1019,40,5.19,35,95,0.0,Clouds,overcast clouds,16
Petőfiszállási tanyák,46.587805,19.874509,2026-03-19 16:13:33.840423,11.2,9.42,11.15,12.23,1019,40,5.3,33,96,0.0,Clouds,overcast clouds,16
Kisteleki szőlők,46.514199,19.92868,2026-03-19 16:13:35.037386,11.58,9.84,11.14,12.22,1019,40,5.48,30,98,0.0,Clouds,overcast clouds,16
Kapitányság,46.435336,19.987564,2026-03-19 16:13:36.240444,12.24,10.46,12.24,12.24,1019,36,5.5,29,100,0.0,Clouds,overcast clouds,16
Őszeszék,46.39025,20.016017,2026-03-19 16:13:37.447456,12.27,10.49,12.27,12.27,1018,36,5.34,30,100,0.0,Clouds,overcast clouds,16
Vilmaszállás,46.366389,20.030833,2026-03-19 16:13:38.643758,12.25,10.47,12.25,12.25,1018,36,4.92,30,100,0.0,Clouds,overcast clouds,16
Jánosszállás,46.334359,20.051199,2026-03-19 16:13:39.842186,12.28,10.5,12.28,12.28,1018,36,5.15,30,100,0.0,Clouds,overcast clouds,16
Felsőpakony,47.343056,19.230556,2026-03-19 16:13:41.055768,12.26,10.56,11.13,12.75,1019,39,4.12,100,0,0.0,Clear,clear sky,16
Felsőméntelek,46.987074,19.557745,2026-03-19 16:13:42.250964,11.03,9.44,10.88,11.03,1019,48,3.6,60,0,0.0,Clear,clear sky,16
Alsóméntelek,46.961558,19.579121,2026-03-19 16:13:43.454062,11.06,9.47,10.91,11.06,1019,48,3.6,60,0,0.0,Clear,clear sky,16
Nagynyír,46.943319,19.585447,2026-03-19 16:13:44.664328,11.06,9.47,10.9,11.06,1019,48,3.6,60,0,0.0,Clear,clear sky,16
Úrihegy,46.917778,19.621389,2026-03-19 16:13:45.865560,11.02,9.33,10.93,11.08,1019,44,3.6,60,0,0.0,Clear,clear sky,16
Miklóstelep,46.913412,19.630913,2026-03-19 16:13:47.072997,11.03,9.34,10.94,11.1,1019,44,3.6,60,0,0.0,Clear,clear sky,16
Tiszajenő alsó,47.016944,20.134444,2026-03-19 16:13:48.277984,11.12,9.51,11.02,11.12,1019,47,4.12,50,0,0.0,Clear,clear sky,16
Óbög,46.987222,20.111111,2026-03-19 16:13:49.480112,11.07,9.41,11.01,12.21,1019,45,4.12,50,0,0.0,Clear,clear sky,16
Árpádszállás,46.866456,19.989163,2026-03-19 16:13:50.683079,11.36,9.54,11.03,12.14,1019,38,3.6,60,0,0.0,Clear,clear sky,16
Tőserdő,46.851111,19.980278,2026-03-19 16:13:51.892004,11.37,9.55,11.05,12.16,1019,38,3.6,60,0,0.0,Clear,clear sky,16
Tiszaalpár felső,46.836256,19.976753,2026-03-19 16:13:53.088679,11.4,9.59,11.14,12.18,1019,38,3.6,60,0,0.0,Clear,clear sky,16
Borsihalom,46.773056,19.92,2026-03-19 16:13:54.294709,11.28,9.46,11.13,12.17,1019,38,4.98,36,94,0.0,Clouds,overcast clouds,16
Petőfiváros,46.725556,19.848611,2026-03-19 16:13:55.522601,11.11,9.32,11.1,12.14,1019,40,5.05,37,93,0.0,Clouds,overcast clouds,16
Csorna,47.601944,17.248889,2026-03-19 16:13:56.729740,13.33,11.68,13.33,13.33,1020,37,3.19,14,52,0.0,Clouds,broken clouds,16
Szorgalmatos,47.986667,21.366389,2026-03-19 16:13:57.941747,10.42,8.51,10.42,10.42,1019,38,6.69,25,74,0.0,Clouds,broken clouds,16
Fótfürdő,47.6225,19.200556,2026-03-19 16:13:59.144222,11.45,9.75,10.74,12.35,1019,42,3.14,47,71,0.0,Clouds,broken clouds,16
Fenyveshegy,47.818333,19.068056,2026-03-19 16:14:00.350544,11.68,10.0,11.68,11.68,1019,42,2.5,46,47,0.0,Clouds,scattered clouds,16
Hűvösvölgy,47.541202,18.96351,2026-03-19 16:14:01.547387,10.94,9.21,10.28,11.89,1019,43,0.89,62,83,0.0,Clouds,broken clouds,16
Hárshegy,47.535318,18.961433,2026-03-19 16:14:02.744934,10.94,9.21,10.28,11.89,1019,43,0.89,62,83,0.0,Clouds,broken clouds,16
Szépjuhászné,47.528277,18.955246,2026-03-19 16:14:03.949713,10.07,8.28,9.39,11.0,1019,44,0.89,62,86,0.0,Clouds,overcast clouds,16
Jánoshegy,47.51433,18.95047,2026-03-19 16:14:05.162450,10.0,10.0,9.3,10.91,1019,44,0.89,62,86,0.0,Clouds,overcast clouds,16
Virágvölgy,47.505965,18.95876,2026-03-19 16:14:06.366558,9.69,9.47,8.99,10.6,1019,44,1.34,93,89,0.0,Clouds,overcast clouds,16
Csillebérc,47.498196,18.961694,2026-03-19 16:14:07.563057,9.47,9.22,8.75,10.37,1019,44,1.34,93,89,0.0,Clouds,overcast clouds,16
Normafa,47.5,18.970558,2026-03-19 16:14:08.760519,9.5,9.26,8.8,10.42,1019,44,1.34,93,89,0.0,Clouds,overcast clouds,16
Széchenyihegy,47.49413,18.977049,2026-03-19 16:14:09.972741,9.53,9.29,8.82,10.44,1019,44,1.34,93,90,0.0,Clouds,overcast clouds,16
Balatonfőkajár felső,47.031389,18.215278,2026-03-19 16:14:11.168972,11.29,9.52,10.18,11.29,1019,40,3.65,46,72,0.0,Clouds,broken clouds,16
Piroska,47.148333,20.129722,2026-03-19 16:14:12.373925,11.07,9.41,11.02,11.23,1019,45,4.12,50,0,0.0,Clear,clear sky,16
Somodor,46.4725,17.836667,2026-03-19 16:14:13.581720,12.4,10.77,12.4,12.4,1018,41,5.23,40,97,0.0,Clouds,overcast clouds,16
Középmező,45.995833,18.668889,2026-03-19 16:14:14.777483,13.59,12.02,11.73,13.59,1018,39,3.84,70,90,0.0,Clouds,overcast clouds,16
Jobbágyi,47.828889,19.6875,2026-03-19 16:14:15.982009,11.2,9.5,11.2,11.2,1019,43,4.46,72,91,0.0,Clouds,overcast clouds,16
Ferihegy,47.437222,19.223889,2026-03-19 16:14:17.188710,12.01,10.34,10.97,12.59,1019,41,4.12,100,0,0.0,Clear,clear sky,16
Máriapócs,47.852778,22.019167,2026-03-19 16:14:18.392811,10.12,8.49,10.12,10.12,1018,50,6.17,17,95,0.0,Clouds,overcast clouds,16
Máriaudvar,47.751944,19.165,2026-03-19 16:14:19.595402,11.64,9.93,11.48,11.64,1019,41,3.03,44,46,0.0,Clouds,scattered clouds,16
Nagyberki,46.353333,18.004167,2026-03-19 16:14:20.813110,12.35,10.68,12.35,12.35,1018,40,5.06,39,97,0.0,Clouds,overcast clouds,16
Badacsonytomaj,46.804722,17.518056,2026-03-19 16:14:22.010964,12.94,11.36,12.94,12.94,1019,41,3.79,62,31,0.0,Clouds,scattered clouds,16
Badacsony,46.788611,17.506389,2026-03-19 16:14:23.207867,11.11,9.35,11.11,11.11,1019,41,3.81,64,32,0.0,Clouds,scattered clouds,16
Badacsonylábdihegy,46.793889,17.470833,2026-03-19 16:14:24.414420,11.08,9.31,11.08,11.08,1019,41,3.81,64,32,0.0,Clouds,scattered clouds,16
Badacsonytördemic-Szigliget,46.809722,17.469167,2026-03-19 16:14:25.613536,11.03,9.26,11.03,11.03,1019,41,3.73,61,37,0.0,Clouds,scattered clouds,16
Nemesgulács-Kisapáti,46.836944,17.476389,2026-03-19 16:14:26.817710,12.14,10.45,11.07,12.14,1019,40,3.66,57,44,0.0,Clouds,scattered clouds,16
Tapolca,46.877778,17.428611,2026-03-19 16:14:28.025291,12.05,10.36,10.99,12.05,1019,40,3.63,44,71,0.0,Clouds,broken clouds,16
Uzsabánya alsó,46.898333,17.345278,2026-03-19 16:14:29.227443,10.79,8.94,10.79,10.79,1019,39,3.97,33,86,0.0,Clouds,overcast clouds,16
Uzsa,46.920278,17.331667,2026-03-19 16:14:30.424969,10.75,8.9,10.75,10.75,1019,39,4.19,29,89,0.0,Clouds,overcast clouds,16
Sümegi Bazaltbánya,46.9525,17.2925,2026-03-19 16:14:31.636489,12.83,11.19,12.83,12.83,1019,39,4.55,24,92,0.0,Clouds,overcast clouds,16
Sümeg,46.981111,17.270833,2026-03-19 16:14:32.831601,13.03,11.41,13.03,13.03,1019,39,5.0,22,91,0.0,Clouds,overcast clouds,16
Gógánfa,47.021111,17.207778,2026-03-19 16:14:34.037450,13.04,11.42,13.04,13.04,1020,39,5.22,20,85,0.0,Clouds,overcast clouds,16
Ukk,47.041944,17.195833,2026-03-19 16:14:35.248211,13.11,11.49,13.11,13.11,1020,39,5.2,20,80,0.0,Clouds,broken clouds,16
Nemeskeresztúr,47.093611,17.183611,2026-03-19 16:14:36.444184,13.06,11.41,13.06,13.06,1020,38,4.98,19,76,0.0,Clouds,broken clouds,16
Jánosháza,47.115833,17.171667,2026-03-19 16:14:37.651523,13.14,11.5,13.14,13.14,1020,38,4.81,19,75,0.0,Clouds,broken clouds,16
Keszthely,46.758333,17.248056,2026-03-19 16:14:38.853500,11.08,9.37,11.08,11.08,1019,43,5.66,80,0,0.0,Clear,clear sky,16
Alsógyenes,46.765844,17.276435,2026-03-19 16:14:40.047701,11.08,9.37,11.08,11.08,1019,43,5.66,80,0,0.0,Clear,clear sky,16
Gyenesdiás,46.763333,17.292778,2026-03-19 16:14:41.251419,11.08,9.37,11.08,11.08,1019,43,5.66,80,0,0.0,Clear,clear sky,16
Vonyarcvashegy,46.755278,17.318333,2026-03-19 16:14:42.455716,11.09,9.38,11.09,11.09,1019,43,5.66,80,0,0.0,Clear,clear sky,16
Balatongyörök,46.751944,17.354444,2026-03-19 16:14:43.654281,11.11,9.4,11.11,11.11,1019,43,5.66,80,0,0.0,Clear,clear sky,16
Becehegy,46.776111,17.372778,2026-03-19 16:14:44.849349,11.08,9.37,11.08,11.08,1019,43,5.66,80,0,0.0,Clear,clear sky,16
Balatonederics,46.8025,17.385,2026-03-19 16:14:46.046525,11.03,9.23,11.03,11.03,1019,40,3.55,53,68,0.0,Clouds,broken clouds,16
Dabronc,47.025766,17.167006,2026-03-19 16:14:47.244524,13.09,11.47,13.09,13.09,1019,39,5.23,21,82,0.0,Clouds,broken clouds,16
Türje,46.994444,17.093611,2026-03-19 16:14:48.449425,13.06,11.44,13.06,13.06,1019,39,5.24,23,80,0.0,Clouds,broken clouds,16
Zalabér-Batyk,46.983056,17.040833,2026-03-19 16:14:49.654599,13.16,11.58,13.16,13.16,1019,40,5.25,25,80,0.0,Clouds,broken clouds,16
Pakod,46.959167,16.996667,2026-03-19 16:14:50.850467,13.06,11.47,13.06,13.06,1019,40,5.24,26,79,0.0,Clouds,broken clouds,16
Pókaszepetk,46.924444,16.972222,2026-03-19 16:14:52.048551,13.14,11.58,13.14,13.14,1019,41,5.4,26,89,0.0,Clouds,overcast clouds,16
Kemendollár,46.905833,16.946667,2026-03-19 16:14:53.244684,10.91,9.13,10.91,10.91,1019,41,5.4,26,88,0.0,Clouds,overcast clouds,16
Zalaegerszeg,46.833056,16.848333,2026-03-19 16:14:54.529665,10.73,8.96,10.73,10.73,1019,42,5.18,27,95,0.0,Clouds,overcast clouds,16
Bocfölde,46.780278,16.853611,2026-03-19 16:14:55.737975,10.79,9.05,10.79,10.79,1019,43,5.09,28,99,0.0,Clouds,overcast clouds,16
Sárhida,46.755833,16.851389,2026-03-19 16:14:56.957503,10.75,9.0,10.75,10.75,1019,43,4.79,30,97,0.0,Clouds,overcast clouds,16
Bak,46.7325,16.849167,2026-03-19 16:14:58.169465,10.77,9.03,10.77,10.77,1019,43,4.59,31,96,0.0,Clouds,overcast clouds,16
Tófej,46.670833,16.801944,2026-03-19 16:14:59.365674,10.61,8.85,10.61,10.61,1019,43,4.03,37,92,0.0,Clouds,overcast clouds,16
Gutorfölde,46.646944,16.739722,2026-03-19 16:15:00.560323,12.56,10.99,12.56,12.56,1019,43,3.78,39,93,0.0,Clouds,overcast clouds,16
Csömödér-Páka,46.608056,16.641111,2026-03-19 16:15:01.757872,9.07,6.94,9.07,11.12,1019,44,3.83,38,95,0.0,Clouds,overcast clouds,16
Iklódbördőce,46.603056,16.604722,2026-03-19 16:15:02.978193,9.07,6.77,9.07,11.11,1019,44,4.19,36,93,0.0,Clouds,overcast clouds,16
Lenti,46.621389,16.528611,2026-03-19 16:15:04.181076,9.01,6.52,9.01,11.06,1019,44,4.59,36,86,0.0,Clouds,overcast clouds,16
Rédics,46.618056,16.471111,2026-03-19 16:15:05.381004,9.01,6.45,9.01,11.05,1019,44,4.75,36,84,0.0,Clouds,broken clouds,16
Zalalövő,46.845556,16.576389,2026-03-19 16:15:06.575615,12.75,11.2,12.75,12.75,1019,43,4.73,34,65,0.0,Clouds,broken clouds,16
Zalaegerszeg-Ola,46.849167,16.844722,2026-03-19 16:15:07.781926,12.88,11.32,12.88,12.88,1019,42,5.18,27,95,0.0,Clouds,overcast clouds,16
Andráshida,46.863116,16.7792,2026-03-19 16:15:08.981122,12.86,11.3,12.86,12.86,1019,42,5.13,27,91,0.0,Clouds,overcast clouds,16
Bagod,46.875,16.746111,2026-03-19 16:15:10.187480,12.96,11.43,12.96,12.96,1019,43,4.96,28,85,0.0,Clouds,overcast clouds,16
Zalaszentgyörgy,46.872222,16.7125,2026-03-19 16:15:11.389971,12.91,11.38,12.91,12.91,1019,43,4.91,28,82,0.0,Clouds,broken clouds,16
Zalacséb-Salomvár,46.858056,16.662222,2026-03-19 16:15:12.586733,12.68,11.13,12.68,12.68,1019,43,4.87,29,79,0.0,Clouds,broken clouds,16
Kópháza,47.631389,16.6375,2026-03-19 16:15:13.790459,13.44,11.86,11.88,13.44,1020,39,3.27,21,9,0.0,Clear,clear sky,16
Nagycenk,47.601111,16.690278,2026-03-19 16:15:14.992883,13.55,11.98,11.99,13.55,1020,39,3.3,21,13,0.0,Clouds,few clouds,16
Sopronkövesd,47.548333,16.748056,2026-03-19 16:15:16.197064,11.82,10.21,11.82,13.38,1020,44,3.42,18,24,0.0,Clouds,few clouds,16
Lövő,47.509444,16.7775,2026-03-19 16:15:17.412490,11.86,10.25,11.86,13.42,1020,44,3.46,12,34,0.0,Clouds,scattered clouds,16
Újkér,47.457778,16.786667,2026-03-19 16:15:18.621910,11.88,10.27,11.88,11.88,1020,44,3.7,13,40,0.0,Clouds,scattered clouds,16
Bük,47.388611,16.752222,2026-03-19 16:15:19.816953,11.94,10.34,11.94,11.94,1020,44,3.92,20,43,0.0,Clouds,scattered clouds,16
Acsád,47.308333,16.734722,2026-03-19 16:15:21.019630,11.69,10.06,11.69,11.69,1020,44,4.04,24,48,0.0,Clouds,scattered clouds,16
Salköveskút-Vassurány,47.291389,16.704167,2026-03-19 16:15:22.229573,11.7,10.07,11.7,11.7,1020,44,4.09,23,50,0.0,Clouds,scattered clouds,16
Zalaszentiván,46.8875,16.909444,2026-03-19 16:15:23.425250,10.89,9.13,10.89,10.89,1019,42,5.38,26,91,0.0,Clouds,overcast clouds,16
Alsónemesapáti,46.854167,16.936389,2026-03-19 16:15:24.634430,10.88,9.12,10.88,10.88,1019,42,5.47,26,97,0.0,Clouds,overcast clouds,16
Józsa,47.600833,21.584444,2026-03-19 16:15:25.837357,10.86,9.05,10.86,10.86,1018,40,6.17,20,0,0.0,Clear,clear sky,16
Hajdúszentgyörgy,47.608056,21.578333,2026-03-19 16:15:27.036526,10.83,9.01,10.83,10.83,1018,40,6.17,20,0,0.0,Clear,clear sky,16
Zelemér,47.627778,21.578333,2026-03-19 16:15:28.241611,10.78,8.96,10.78,10.78,1018,40,6.17,20,0,0.0,Clear,clear sky,16
Hajdúböszörmény,47.668056,21.524167,2026-03-19 16:15:29.446389,10.81,9.17,10.81,10.81,1018,47,6.73,8,94,0.0,Clouds,overcast clouds,16
Hajdúvid,47.749444,21.508056,2026-03-19 16:15:30.647702,10.34,8.71,10.34,10.34,1018,49,6.75,12,88,0.0,Clouds,overcast clouds,16
Hajdúdorog,47.805556,21.493056,2026-03-19 16:15:31.850899,10.3,8.69,10.3,10.3,1019,50,6.79,14,84,0.0,Clouds,broken clouds,16
Hajdúnánás,47.831944,21.426667,2026-03-19 16:15:33.057475,10.38,8.78,10.38,10.38,1019,50,6.75,19,79,0.0,Clouds,broken clouds,16
Hajdúnánás-Vásártér,47.843056,21.407222,2026-03-19 16:15:34.259621,10.38,8.78,10.38,10.38,1019,50,6.75,19,79,0.0,Clouds,broken clouds,16
Tedej,47.903611,21.404444,2026-03-19 16:15:35.463309,10.43,8.89,10.43,10.43,1019,52,6.8,22,75,0.0,Clouds,broken clouds,16
Tiszavasvári,47.945278,21.374722,2026-03-19 16:15:36.672732,10.43,8.52,10.43,10.43,1019,38,6.71,24,75,0.0,Clouds,broken clouds,16
Egyházerdő,47.9725,21.365,2026-03-19 16:15:37.871469,10.45,8.54,10.45,10.45,1019,38,6.7,25,74,0.0,Clouds,broken clouds,16
Tiszalök,48.013056,21.369167,2026-03-19 16:15:39.078605,10.42,8.51,10.42,10.42,1019,38,6.66,26,74,0.0,Clouds,broken clouds,16
Hajnalos,47.998889,21.414167,2026-03-19 16:15:40.282469,10.43,8.52,10.43,10.43,1019,38,6.78,24,72,0.0,Clouds,broken clouds,16
Kisfástanya,47.989167,21.47,2026-03-19 16:15:41.478404,10.4,8.49,10.4,10.4,1019,38,6.87,23,71,0.0,Clouds,broken clouds,16
Tiszaeszlár,48.010556,21.491944,2026-03-19 16:15:42.682824,10.41,8.5,10.41,10.41,1019,38,6.94,23,70,0.0,Clouds,broken clouds,16
Bashalom,48.026111,21.514722,2026-03-19 16:15:43.891606,10.38,8.47,10.38,10.38,1019,38,6.9,23,69,0.0,Clouds,broken clouds,16
Sáránd,47.415556,21.625,2026-03-19 16:15:45.088721,11.01,9.21,11.01,11.01,1018,40,6.17,20,0,0.0,Clear,clear sky,16
Derecske,47.365,21.584167,2026-03-19 16:15:46.315501,11.08,9.29,11.08,11.08,1018,40,6.17,20,0,0.0,Clear,clear sky,16
Derecske-Vásártér,47.352222,21.58,2026-03-19 16:15:47.521355,11.08,9.29,11.08,11.08,1018,40,6.17,20,0,0.0,Clear,clear sky,16
Konyár,47.323611,21.666111,2026-03-19 16:15:48.726755,11.05,9.25,11.05,11.05,1018,40,6.17,20,0,0.0,Clear,clear sky,16
Konyári Sóstófürdő,47.324167,21.744444,2026-03-19 16:15:49.930808,11.06,9.29,11.06,11.06,1018,41,3.91,34,66,0.0,Clouds,broken clouds,16
Pocsaj-Esztár,47.288333,21.793056,2026-03-19 16:15:51.132494,11.05,9.25,11.05,11.35,1018,40,3.67,40,60,0.0,Clouds,broken clouds,16
Kismarja,47.243889,21.813889,2026-03-19 16:15:52.333238,11.35,9.59,11.24,11.35,1018,40,3.63,43,56,0.0,Clouds,broken clouds,16
Nagykereki,47.191667,21.8,2026-03-19 16:15:53.538990,11.34,9.52,11.23,11.34,1018,38,3.68,42,52,0.0,Clouds,broken clouds,16
Debrecen-Szabadságtelep,47.527778,21.658611,2026-03-19 16:15:54.744991,10.89,9.08,10.89,10.89,1018,40,6.17,20,0,0.0,Clear,clear sky,16
Kondoroskert,47.525556,21.713889,2026-03-19 16:15:55.942322,10.92,9.11,10.92,10.92,1018,40,6.17,20,0,0.0,Clear,clear sky,16
Nagycsere,47.523889,21.763056,2026-03-19 16:15:57.145976,10.9,9.09,10.9,10.9,1018,40,6.17,20,0,0.0,Clear,clear sky,16
Haláp,47.521667,21.818333,2026-03-19 16:15:58.355112,10.9,9.09,10.9,10.9,1018,40,6.17,20,0,0.0,Clear,clear sky,16
Vámospércs,47.518056,21.893889,2026-03-19 16:15:59.635717,10.84,9.13,10.84,10.84,1018,44,4.29,16,85,0.0,Clouds,overcast clouds,16
Szentannapuszta,47.52,21.965833,2026-03-19 16:16:00.852050,10.79,9.05,10.79,10.79,1018,43,3.79,20,83,0.0,Clouds,broken clouds,16
Nyírábrány,47.523889,22.016944,2026-03-19 16:16:02.054303,10.44,8.66,10.44,10.44,1018,43,3.58,22,82,0.0,Clouds,broken clouds,16
Dombostanya,47.602778,21.706389,2026-03-19 16:16:03.250892,10.82,9.0,10.82,10.82,1018,40,6.17,20,0,0.0,Clear,clear sky,16
Hajdúsámson,47.608056,21.755278,2026-03-19 16:16:04.554637,10.82,9.0,10.82,10.82,1018,40,6.17,20,0,0.0,Clear,clear sky,16
Tamásipuszta,47.632778,21.796111,2026-03-19 16:16:05.772923,10.77,9.1,10.77,10.77,1018,46,5.49,8,95,0.0,Clouds,overcast clouds,16
Aradványpuszta,47.662778,21.8425,2026-03-19 16:16:06.975213,10.72,9.05,10.72,10.72,1018,46,5.39,9,95,0.0,Clouds,overcast clouds,16
Nyíradony,47.699444,21.903333,2026-03-19 16:16:08.178551,10.16,8.46,10.16,10.16,1018,47,5.43,12,94,0.0,Clouds,overcast clouds,16
Nyírmihálydi,47.7375,21.958889,2026-03-19 16:16:09.380771,10.13,8.43,10.13,10.13,1018,47,5.59,13,94,0.0,Clouds,overcast clouds,16
Nyírgelse,47.750833,21.987778,2026-03-19 16:16:10.584037,10.07,8.39,10.07,10.07,1018,48,5.79,14,94,0.0,Clouds,overcast clouds,16
Nyírbogát,47.793056,22.066389,2026-03-19 16:16:11.785087,10.12,8.44,10.12,10.12,1018,48,6.25,15,91,0.0,Clouds,overcast clouds,16
Nagykálló,47.871111,21.825833,2026-03-19 16:16:13.002340,10.22,8.68,10.22,10.22,1018,53,6.2,10,100,0.0,Clouds,overcast clouds,16
Kállósemjén,47.854722,21.935,2026-03-19 16:16:14.220870,10.2,8.61,10.2,10.2,1018,51,5.98,14,99,0.0,Clouds,overcast clouds,16
Nyírbátor,47.8425,22.131111,2026-03-19 16:16:15.424805,10.06,8.37,10.06,10.06,1018,48,6.43,14,89,0.0,Clouds,overcast clouds,16
Nyírcsászári,47.865556,22.179167,2026-03-19 16:16:16.629714,10.08,8.4,10.08,10.08,1018,48,6.64,12,85,0.0,Clouds,overcast clouds,16
Hodász,47.896111,22.213611,2026-03-19 16:16:17.827314,10.01,8.32,10.01,10.01,1018,48,6.76,9,81,0.0,Clouds,broken clouds,16
Nyírmeggyes,47.9225,22.256667,2026-03-19 16:16:19.032985,10.03,8.37,10.03,10.03,1018,49,6.88,9,82,0.0,Clouds,broken clouds,16
Mátészalka,47.951389,22.313333,2026-03-19 16:16:20.236058,10.06,8.4,10.06,10.06,1018,49,6.87,7,84,0.0,Clouds,broken clouds,16
Kocsord,47.941944,22.375833,2026-03-19 16:16:21.445141,10.23,8.54,10.23,10.23,1018,47,6.25,359,84,0.0,Clouds,broken clouds,16
Kocsord alsó,47.946389,22.400556,2026-03-19 16:16:22.645639,10.23,8.54,10.23,10.23,1018,47,6.25,359,84,0.0,Clouds,broken clouds,16
Győrtelek,47.936667,22.424722,2026-03-19 16:16:23.925897,10.25,8.56,10.25,10.25,1018,47,5.99,356,84,0.0,Clouds,broken clouds,16
Győrtelek alsó,47.921111,22.443333,2026-03-19 16:16:25.132449,10.29,8.58,10.29,10.29,1018,46,5.53,353,77,0.0,Clouds,broken clouds,16
Ököritófülpös,47.911389,22.495,2026-03-19 16:16:26.336796,10.3,8.56,10.3,10.3,1018,45,5.27,351,75,0.0,Clouds,broken clouds,16
Porcsalma-Tyukod,47.868056,22.568333,2026-03-19 16:16:27.547818,10.06,8.27,10.05,10.06,1018,44,4.06,347,58,0.0,Clouds,broken clouds,16
Csenger,47.826111,22.666389,2026-03-19 16:16:28.753923,10.05,8.23,10.04,10.05,1018,43,3.36,348,56,0.0,Clouds,broken clouds,16
Kisfái,46.888303,19.807366,2026-03-19 16:16:29.966980,11.02,9.22,11.02,11.03,1019,40,3.6,60,0,0.0,Clear,clear sky,16
Nyárlőrinci szőlők,46.8775,19.828333,2026-03-19 16:16:31.183764,11.03,9.23,11.03,12.06,1019,40,3.6,60,0,0.0,Clear,clear sky,16
Nyárlőrinc alsó,46.863889,19.878889,2026-03-19 16:16:32.379801,11.05,9.25,11.05,12.08,1019,40,3.6,60,0,0.0,Clear,clear sky,16
Tiszaug-Tiszahídfő,46.866106,20.052098,2026-03-19 16:16:33.580758,11.8,9.85,11.14,12.24,1019,31,5.04,36,93,0.0,Clouds,overcast clouds,16
Csongrádi úti tanyák,46.690278,19.921667,2026-03-19 16:16:34.790607,11.29,9.47,11.16,12.19,1019,38,5.13,34,96,0.0,Clouds,overcast clouds,16
Kettőshalom,46.689167,20.0225,2026-03-19 16:16:35.998451,11.74,9.91,11.19,12.23,1019,36,5.16,32,97,0.0,Clouds,overcast clouds,16
Csongrád alsó,46.711389,20.126389,2026-03-19 16:16:37.199528,12.23,10.34,11.19,12.23,1019,32,5.14,31,97,0.0,Clouds,overcast clouds,16
Dónát,46.66988,20.368168,2026-03-19 16:16:38.406117,12.24,10.46,12.24,12.25,1018,36,3.13,85,96,0.0,Clouds,overcast clouds,16
Pusztatemplom,46.676667,20.407222,2026-03-19 16:16:39.610625,12.23,10.45,12.23,12.23,1018,36,3.13,85,95,0.0,Clouds,overcast clouds,16
Előhát,47.364722,20.653611,2026-03-19 16:16:40.806732,10.56,8.95,10.56,10.56,1019,49,6.36,34,89,0.0,Clouds,overcast clouds,16
Polgárdi-Tekerespuszta,47.017778,18.297778,2026-03-19 16:16:42.009593,11.51,9.73,11.51,11.51,1019,39,3.44,45,71,0.0,Clouds,broken clouds,16
Szatina-Kishajmás,46.202778,18.083611,2026-03-19 16:16:43.215028,11.25,9.5,11.25,11.25,1018,41,4.37,47,97,0.0,Clouds,overcast clouds,16
Márok,45.886944,18.499167,2026-03-19 16:16:44.524538,11.71,10.24,11.47,13.36,1018,50,0.89,32,94,0.0,Clouds,overcast clouds,16
Nagynyárád,45.953333,18.564722,2026-03-19 16:16:45.736673,12.54,11.05,11.53,13.43,1018,46,3.98,68,90,0.0,Clouds,overcast clouds,16
Szászvár,46.2875,18.369722222222222,2026-03-19 16:16:46.938997,13.02,11.45,13.02,13.02,1018,41,4.44,45,98,0.0,Clouds,overcast clouds,16
Cikó,46.263514,18.557605,2026-03-19 16:16:48.143764,13.34,11.8,13.34,13.34,1018,41,4.43,46,97,0.0,Clouds,overcast clouds,16
Gyöngyfa-Magyarmecske,45.983889,17.958889,2026-03-19 16:16:49.353332,11.57,9.98,11.57,11.57,1018,46,4.42,58,95,0.0,Clouds,overcast clouds,16
Nagyhát,47.581389,21.445,2026-03-19 16:16:50.557682,10.92,9.11,10.92,10.92,1018,40,6.17,20,0,0.0,Clear,clear sky,16
Balmazújváros,47.613889,21.348056,2026-03-19 16:16:51.767256,11.1,9.47,11.1,11.1,1019,46,6.37,17,82,0.0,Clouds,broken clouds,16
Kónya,47.600833,21.2375,2026-03-19 16:16:52.971389,10.54,8.85,10.54,10.54,1019,46,6.05,21,77,0.0,Clouds,broken clouds,16
Hortobágy,47.586111,21.154722,2026-03-19 16:16:54.169724,10.56,8.87,10.56,10.56,1019,46,5.82,25,74,0.0,Clouds,broken clouds,16
Hortobágyi Halastó,47.604167,21.074167,2026-03-19 16:16:55.372946,10.55,8.86,10.55,10.55,1019,46,5.73,27,74,0.0,Clouds,broken clouds,16
Ohat-Pusztakócs,47.623333,20.951111,2026-03-19 16:16:56.575834,10.53,8.84,10.53,10.53,1019,46,5.67,31,76,0.0,Clouds,broken clouds,16
Egyek,47.616944,20.883611,2026-03-19 16:16:57.771942,10.53,8.84,10.53,10.53,1019,46,5.75,34,82,0.0,Clouds,broken clouds,16
