station_name,station_lat,station_lon,observation_time,temp,feels_like,temp_min,temp_max,pressure,humidity,wind_speed,wind_deg,clouds,precipitation_1h,weather_main,weather_description,collection_hour
Búcsúszentlászló,46.793056,16.932778,2026-03-09 10:00:59.030958,13.31,12.05,13.31,13.31,1028,52,4.33,136,25,0.0,Clouds,scattered clouds,10
Angyalföld,47.549722,19.09,2026-03-09 10:01:00.234823,13.93,12.55,13.93,13.93,1030,45,3.4,156,5,0.0,Clear,clear sky,10
Felsőjánosfa,46.841389,16.544167,2026-03-09 10:01:01.433110,13.2,11.99,13.2,13.2,1027,54,3.73,144,50,0.0,Clouds,scattered clouds,10
Pankasz,46.835833,16.496111,2026-03-09 10:01:02.631288,12.89,11.64,12.89,12.89,1027,54,3.7,144,52,0.0,Clouds,broken clouds,10
Nagyrákos,46.827222,16.455556,2026-03-09 10:01:03.843232,12.84,11.59,12.84,12.84,1027,54,3.68,144,53,0.0,Clouds,broken clouds,10
Őriszentpéter,46.828889,16.415278,2026-03-09 10:01:05.036981,12.93,11.71,12.93,12.93,1027,55,3.62,145,57,0.0,Clouds,broken clouds,10
Törökbálint,47.45,18.908611,2026-03-09 10:01:06.231549,13.49,12.04,13.49,13.49,1030,44,5.14,155,9,0.0,Clear,clear sky,10
Bicske alsó,47.486389,18.642778,2026-03-09 10:01:07.422972,13.49,12.1,13.49,13.49,1029,46,6.34,157,19,0.0,Clouds,few clouds,10
Bajánsenye,46.818056,16.358056,2026-03-09 10:01:08.623729,13.0,11.79,13.0,13.0,1027,55,3.67,143,60,0.0,Clouds,broken clouds,10
Aquincum,47.566218,19.048273,2026-03-09 10:01:09.819159,13.59,12.18,13.59,13.59,1030,45,3.76,156,6,0.0,Clear,clear sky,10
Piliscsév,47.673889,18.791389,2026-03-09 10:01:11.020568,13.28,11.89,13.28,13.28,1030,47,4.92,155,10,0.0,Clear,clear sky,10
Tát,47.741201,18.64783,2026-03-09 10:01:12.219956,13.73,12.39,13.73,13.73,1029,47,5.23,152,11,0.0,Clouds,few clouds,10
Süttő felső,47.756667,18.437222,2026-03-09 10:01:13.424308,13.73,12.36,13.73,13.73,1029,46,5.94,152,18,0.0,Clouds,few clouds,10
Budatétény,47.405,19.016389,2026-03-09 10:01:14.626323,13.53,12.06,13.53,13.53,1030,43,4.58,154,5,0.0,Clear,clear sky,10
Seregélyes-Szőlőhegy,47.119444,18.612222,2026-03-09 10:01:15.831207,13.63,12.2,13.63,13.63,1029,44,6.61,156,34,0.0,Clouds,scattered clouds,10
Gödöllő-Állami telepek,47.564444,19.375556,2026-03-09 10:01:17.029789,13.02,11.63,13.02,13.02,1030,48,3.42,157,5,0.0,Clear,clear sky,10
Dunakeszi alsó,47.607778,19.128889,2026-03-09 10:01:18.234147,13.84,12.45,13.84,13.84,1030,45,3.36,158,5,0.0,Clear,clear sky,10
Vác-Alsóváros,47.773056,19.149722,2026-03-09 10:01:19.438205,13.53,12.19,13.53,13.53,1030,48,4.12,163,3,0.0,Clear,clear sky,10
Szob alsó,47.816667,18.8725,2026-03-09 10:01:20.633079,13.69,12.34,13.69,13.69,1030,47,4.02,156,5,0.0,Clear,clear sky,10
Zalaszentmihály-Pacsa,46.7225,16.951944,2026-03-09 10:01:21.841222,13.27,12.01,13.27,13.27,1028,52,4.37,134,28,0.0,Clouds,scattered clouds,10
Pötréte,46.682778,16.9575,2026-03-09 10:01:23.041886,13.27,12.01,13.27,13.27,1028,52,4.43,132,32,0.0,Clouds,scattered clouds,10
Felsőrajk,46.667222,16.982778,2026-03-09 10:01:24.245412,13.21,11.92,13.21,13.21,1028,51,4.5,132,29,0.0,Clouds,scattered clouds,10
Gelse,46.600556,16.982778,2026-03-09 10:01:25.441077,13.2,11.91,13.2,13.2,1028,51,4.65,130,35,0.0,Clouds,scattered clouds,10
Őrtilos,46.297778,16.887778,2026-03-09 10:01:26.639184,13.27,12.01,13.27,13.27,1027,52,5.32,124,54,0.0,Clouds,broken clouds,10
Zákány,46.251944,16.9425,2026-03-09 10:01:27.848292,13.0,11.71,13.0,13.0,1027,52,5.62,124,58,0.0,Clouds,broken clouds,10
Berzence,46.201389,17.143611,2026-03-09 10:01:29.050375,13.2,11.88,13.2,13.2,1027,50,5.77,124,50,0.0,Clouds,scattered clouds,10
Somogyudvarhely,46.163333,17.179722,2026-03-09 10:01:30.246048,13.13,11.83,13.13,13.13,1027,51,5.74,124,47,0.0,Clouds,scattered clouds,10
Bélavár,46.122778,17.207778,2026-03-09 10:01:31.449644,13.15,11.85,13.15,13.15,1027,51,5.57,122,44,0.0,Clouds,scattered clouds,10
Vízvár,46.101389,17.239444,2026-03-09 10:01:32.656324,13.03,11.72,13.03,13.03,1027,51,5.46,122,41,0.0,Clouds,scattered clouds,10
Babócsa,46.028359,17.342276,2026-03-09 10:01:33.862557,13.0,11.69,13.0,13.0,1027,51,5.21,120,31,0.0,Clouds,scattered clouds,10
Péterhida-Komlósd,46.006667,17.358056,2026-03-09 10:01:35.058369,13.05,11.74,13.05,13.05,1027,51,5.14,119,29,0.0,Clouds,scattered clouds,10
Barcs,45.951944,17.446944,2026-03-09 10:01:36.262438,13.04,11.71,13.04,13.04,1027,50,5.26,117,24,0.0,Clouds,few clouds,10
Barcs felső,45.958333,17.486389,2026-03-09 10:01:37.460269,12.93,11.58,12.93,12.93,1027,50,5.35,118,23,0.0,Clouds,few clouds,10
Középrigóc,45.970556,17.525,2026-03-09 10:01:38.655185,12.83,11.47,12.83,12.83,1027,50,5.44,119,22,0.0,Clouds,few clouds,10
Darány,45.992222,17.598611,2026-03-09 10:01:39.855510,12.8,11.44,12.8,12.8,1028,50,5.67,122,20,0.0,Clouds,few clouds,10
Kisdobsza,46.012222,17.668056,2026-03-09 10:01:41.058124,12.84,11.51,12.84,12.84,1028,51,5.76,123,23,0.0,Clouds,few clouds,10
Nemeske,46.023333,17.705278,2026-03-09 10:01:42.257421,12.85,11.52,12.85,12.85,1028,51,5.82,124,25,0.0,Clouds,scattered clouds,10
Molvány,46.035278,17.748611,2026-03-09 10:01:43.458593,12.84,11.51,12.84,12.84,1028,51,5.77,124,33,0.0,Clouds,scattered clouds,10
Szigetvár,46.043333,17.801944,2026-03-09 10:01:44.667178,12.81,11.48,12.81,12.81,1028,51,5.77,124,37,0.0,Clouds,scattered clouds,10
Nagypeterd,46.039444,17.871667,2026-03-09 10:01:45.868600,12.8,11.47,12.8,12.8,1028,51,5.77,124,45,0.0,Clouds,scattered clouds,10
Szentdénes,46.036667,17.926944,2026-03-09 10:01:47.065492,12.73,11.36,12.73,12.73,1028,50,5.75,124,49,0.0,Clouds,scattered clouds,10
Háros,47.412222,19.035,2026-03-09 10:01:48.264048,13.53,12.06,13.53,13.53,1030,43,4.58,154,5,0.0,Clear,clear sky,10
Nagytétény-Diósd,47.398333,18.974444,2026-03-09 10:01:49.469164,13.87,12.44,13.87,13.87,1030,43,5.01,155,6,0.0,Clear,clear sky,10
Érdliget,47.390278,18.937778,2026-03-09 10:01:50.663031,13.8,12.38,13.8,13.8,1030,44,5.23,155,6,0.0,Clear,clear sky,10
Érd felső,47.381111,18.922222,2026-03-09 10:01:51.861629,13.49,12.04,13.49,13.49,1030,44,5.47,155,8,0.0,Clear,clear sky,10
Érd,47.369722,18.900833,2026-03-09 10:01:53.060148,13.64,12.21,13.64,13.64,1030,44,5.65,155,7,0.0,Clear,clear sky,10
Százhalombatta,47.322222,18.899167,2026-03-09 10:01:54.264325,13.66,12.23,13.66,13.66,1030,44,6.01,156,8,0.0,Clear,clear sky,10
Dunai Finomító,47.294444,18.878889,2026-03-09 10:01:55.472789,13.55,12.11,13.55,13.55,1030,44,6.37,156,10,0.0,Clear,clear sky,10
Ercsi,47.247222,18.875278,2026-03-09 10:01:56.671734,13.67,12.24,13.67,13.67,1030,44,6.45,156,11,0.0,Clouds,few clouds,10
Iváncsa,47.177778,18.811944,2026-03-09 10:01:57.872012,13.62,12.19,13.62,13.62,1029,44,6.74,156,19,0.0,Clouds,few clouds,10
Pusztaszabolcs,47.139722,18.761667,2026-03-09 10:01:59.066888,13.67,12.24,13.67,13.67,1029,44,6.88,155,24,0.0,Clouds,few clouds,10
Szabadegyháza,47.082778,18.704167,2026-03-09 10:02:00.269400,13.61,12.18,13.61,13.61,1029,44,6.95,155,31,0.0,Clouds,scattered clouds,10
Sárosd,47.039722,18.660278,2026-03-09 10:02:01.473962,13.63,12.22,13.63,13.63,1029,45,6.89,154,35,0.0,Clouds,scattered clouds,10
Nagylók,46.979444,18.635833,2026-03-09 10:02:02.667909,13.45,12.03,13.45,13.45,1029,45,7.04,154,38,0.0,Clouds,scattered clouds,10
Sárbogárd,46.896944,18.611944,2026-03-09 10:02:03.862213,13.6,12.22,13.6,13.6,1029,46,7.03,152,42,0.0,Clouds,scattered clouds,10
Rétszilas,46.814167,18.601389,2026-03-09 10:02:05.061841,13.6,12.22,13.6,13.6,1029,46,7.02,151,45,0.0,Clouds,scattered clouds,10
Nagyatád,46.228611,17.354167,2026-03-09 10:02:06.257143,13.07,11.71,13.07,13.07,1028,49,5.53,126,26,0.0,Clouds,scattered clouds,10
Budapest-Keleti,47.500278,19.084167,2026-03-09 10:02:07.453844,13.83,12.42,13.83,13.83,1030,44,3.83,154,6,0.0,Clear,clear sky,10
Ferencváros,47.468611,19.088056,2026-03-09 10:02:08.659303,13.87,12.46,13.87,13.87,1030,44,3.99,154,5,0.0,Clear,clear sky,10
Budapest-Nyugati,47.510833,19.0575,2026-03-09 10:02:09.862439,13.92,12.52,13.92,13.92,1030,44,3.72,155,6,0.0,Clear,clear sky,10
Kőbánya felső,47.491944,19.133889,2026-03-09 10:02:11.063206,13.77,12.35,13.77,13.77,1030,44,3.47,156,5,0.0,Clear,clear sky,10
Rákos,47.488889,19.174722,2026-03-09 10:02:12.256769,13.69,12.29,13.69,13.69,1030,45,3.42,156,5,0.0,Clear,clear sky,10
Rákosrendező,47.525556,19.089444,2026-03-09 10:02:13.452140,13.88,12.47,13.88,13.88,1030,44,3.45,155,5,0.0,Clear,clear sky,10
Zugló,47.511389,19.101389,2026-03-09 10:02:14.646083,13.88,12.47,13.88,13.88,1030,44,3.45,155,5,0.0,Clear,clear sky,10
Mezőtárkány,47.725,20.480278,2026-03-09 10:02:15.842460,13.2,11.83,13.2,13.2,1030,48,2.47,235,13,0.0,Clouds,few clouds,10
Istvántelek,47.550278,19.106389,2026-03-09 10:02:17.036403,13.93,12.55,13.93,13.93,1030,45,3.4,156,5,0.0,Clear,clear sky,10
Rákospalota-Újpest,47.565833,19.111944,2026-03-09 10:02:18.232696,13.92,12.54,13.92,13.92,1030,45,3.38,157,5,0.0,Clear,clear sky,10
Kőbánya alsó,47.483056,19.127222,2026-03-09 10:02:19.427451,13.77,12.35,13.77,13.77,1030,44,3.47,156,5,0.0,Clear,clear sky,10
Kőbánya-Kispest,47.463889,19.149444,2026-03-09 10:02:20.637488,13.75,12.33,13.75,13.75,1030,44,3.61,155,5,0.0,Clear,clear sky,10
Pestszentlőrinc,47.454722,19.182778,2026-03-09 10:02:21.832685,13.68,12.25,13.68,13.68,1030,44,3.72,156,5,0.0,Clear,clear sky,10
Kispest,47.448135,19.157552,2026-03-09 10:02:23.036498,13.77,12.35,13.77,13.77,1030,44,3.79,155,5,0.0,Clear,clear sky,10
Újpest,47.558889,19.079722,2026-03-09 10:02:24.237480,14.0,12.63,14.0,14.0,1030,45,3.64,155,6,0.0,Clear,clear sky,10
Pestszentimre felső,47.413611,19.173333,2026-03-09 10:02:25.439062,13.68,12.25,13.68,13.68,1030,44,3.94,156,5,0.0,Clear,clear sky,10
Dunakeszi,47.626111,19.136111,2026-03-09 10:02:26.633707,13.74,12.37,13.74,13.74,1030,46,3.42,159,4,0.0,Clear,clear sky,10
Dunakeszi-Gyártelep,47.643611,19.135,2026-03-09 10:02:27.841260,13.75,12.38,13.75,13.75,1030,46,3.51,160,4,0.0,Clear,clear sky,10
Alsógöd,47.676944,19.134444,2026-03-09 10:02:29.043559,13.72,12.37,13.72,13.72,1030,47,3.63,161,4,0.0,Clear,clear sky,10
Göd,47.687778,19.1375,2026-03-09 10:02:30.238734,13.72,12.37,13.72,13.72,1030,47,3.63,161,4,0.0,Clear,clear sky,10
Felsőgöd,47.705556,19.143333,2026-03-09 10:02:31.434373,13.74,12.4,13.74,13.74,1030,47,3.75,161,4,0.0,Clear,clear sky,10
Sződ-Sződliget,47.728056,19.154722,2026-03-09 10:02:32.635181,13.72,12.37,13.72,13.72,1030,47,3.87,162,4,0.0,Clear,clear sky,10
Vác,47.782778,19.133056,2026-03-09 10:02:33.835907,13.53,12.19,13.53,13.53,1030,48,4.12,163,3,0.0,Clear,clear sky,10
Verőce,47.823889,19.029444,2026-03-09 10:02:35.039487,12.83,11.42,12.83,12.83,1030,48,4.12,161,3,0.0,Clear,clear sky,10
Kismaros,47.8275,19.010278,2026-03-09 10:02:36.251116,12.07,10.59,12.07,12.07,1030,48,4.04,160,3,0.0,Clear,clear sky,10
Nagymaros-Visegrád,47.791389,18.959167,2026-03-09 10:02:37.445335,12.53,11.09,12.53,12.53,1030,48,4.01,160,4,0.0,Clear,clear sky,10
Nagymaros,47.780278,18.952222,2026-03-09 10:02:38.648537,12.53,11.09,12.53,12.53,1030,48,4.01,160,4,0.0,Clear,clear sky,10
Zebegény,47.801389,18.908889,2026-03-09 10:02:39.844604,13.23,11.84,13.23,13.23,1030,47,3.97,159,4,0.0,Clear,clear sky,10
Szob,47.821111,18.861944,2026-03-09 10:02:41.046212,13.1,11.69,13.1,13.1,1030,47,3.92,156,4,0.0,Clear,clear sky,10
Alagimajor,47.601944,19.153889,2026-03-09 10:02:42.240156,13.84,12.45,13.84,13.84,1030,45,3.36,158,5,0.0,Clear,clear sky,10
Fót,47.611389,19.181667,2026-03-09 10:02:43.443048,13.53,12.14,13.53,13.53,1030,46,3.41,159,4,0.0,Clear,clear sky,10
Fótújfalu,47.615,19.192778,2026-03-09 10:02:44.640659,13.53,12.14,13.53,13.53,1030,46,3.41,159,4,0.0,Clear,clear sky,10
Csomád,47.635556,19.222778,2026-03-09 10:02:45.840022,12.73,11.26,12.73,12.73,1030,46,3.42,159,5,0.0,Clear,clear sky,10
Veresegyház,47.649167,19.288611,2026-03-09 10:02:47.031651,13.26,11.89,13.26,13.26,1030,48,3.58,158,5,0.0,Clear,clear sky,10
Erdőkertes,47.662222,19.295833,2026-03-09 10:02:48.229811,13.26,11.89,13.26,13.26,1030,48,3.58,158,5,0.0,Clear,clear sky,10
Őrbottyán,47.685833,19.283611,2026-03-09 10:02:49.424501,13.07,11.69,13.07,13.07,1030,48,3.67,159,5,0.0,Clear,clear sky,10
Váchartyán,47.725833,19.248889,2026-03-09 10:02:50.628285,13.12,11.74,13.12,13.12,1030,48,3.89,160,4,0.0,Clear,clear sky,10
Magyarkút-Verőce,47.826111,19.044444,2026-03-09 10:02:51.823941,12.83,11.42,12.83,12.83,1030,48,4.12,161,3,0.0,Clear,clear sky,10
Szokolya,47.871111,19.030556,2026-03-09 10:02:53.028503,12.09,10.61,12.09,12.09,1030,48,4.13,160,2,0.0,Clear,clear sky,10
Berkenye,47.885278,19.071944,2026-03-09 10:02:54.226314,12.8,11.39,12.8,12.8,1030,48,4.22,161,2,0.0,Clear,clear sky,10
Nógrád,47.901944,19.0475,2026-03-09 10:02:55.421807,12.42,10.97,12.42,12.42,1030,48,4.13,160,2,0.0,Clear,clear sky,10
Diósjenő,47.94,19.049444,2026-03-09 10:02:56.617546,12.04,10.53,12.04,12.04,1030,47,4.12,159,2,0.0,Clear,clear sky,10
Borsosberény,47.971389,19.093056,2026-03-09 10:02:57.829538,12.71,11.29,12.71,12.71,1030,48,4.34,161,2,0.0,Clear,clear sky,10
Nagyoroszi,47.993611,19.101111,2026-03-09 10:02:59.032384,12.54,11.1,12.54,12.54,1030,48,4.32,160,2,0.0,Clear,clear sky,10
Drégelyvár,48.001944,19.079444,2026-03-09 10:03:00.228401,12.79,11.35,12.79,12.79,1030,47,4.19,156,2,0.0,Clear,clear sky,10
Drégely,48.042222,19.056111,2026-03-09 10:03:01.433564,13.15,11.75,13.15,13.15,1030,47,4.18,154,2,0.0,Clear,clear sky,10
Drégelypalánk,48.055,19.046111,2026-03-09 10:03:02.638935,13.29,11.9,13.29,13.29,1030,47,4.07,152,2,0.0,Clear,clear sky,10
Ipolyvece,48.056944,19.106389,2026-03-09 10:03:03.841816,13.24,11.87,13.24,13.24,1030,48,4.21,156,2,0.0,Clear,clear sky,10
Dejtár,48.045556,19.196389,2026-03-09 10:03:05.044476,13.15,11.77,13.15,13.15,1030,48,4.23,161,2,0.0,Clear,clear sky,10
Ipolyszög,48.054444,19.221944,2026-03-09 10:03:06.241919,13.15,11.77,13.15,13.15,1030,48,4.12,162,3,0.0,Clear,clear sky,10
Iklad-Domony,47.658056,19.444444,2026-03-09 10:03:07.445873,13.4,12.1,13.4,13.4,1030,50,3.45,157,5,0.0,Clear,clear sky,10
Iklad-Domony felső,47.667778,19.428056,2026-03-09 10:03:08.645727,13.37,12.04,13.37,13.37,1030,49,3.52,158,5,0.0,Clear,clear sky,10
Galgamácsa,47.693889,19.3925,2026-03-09 10:03:09.843249,13.1,11.75,13.1,13.1,1030,49,3.7,158,5,0.0,Clear,clear sky,10
Vácrátót,47.732778,19.217778,2026-03-09 10:03:11.060366,13.4,12.05,13.4,13.4,1030,48,3.89,161,4,0.0,Clear,clear sky,10
Csörög,47.735833,19.196389,2026-03-09 10:03:12.254456,13.65,12.3,13.65,13.65,1030,47,3.88,162,4,0.0,Clear,clear sky,10
Galgagyörk,47.735278,19.372222,2026-03-09 10:03:13.456063,13.15,11.8,13.15,13.15,1030,49,3.77,159,5,0.0,Clear,clear sky,10
Püspökhatvan,47.768611,19.366944,2026-03-09 10:03:14.658657,13.12,11.77,13.12,13.12,1030,49,3.86,161,4,0.0,Clear,clear sky,10
Acsa-Erdőkürt,47.801111,19.386111,2026-03-09 10:03:15.872335,12.95,11.58,12.95,12.95,1030,49,3.89,162,4,0.0,Clear,clear sky,10
Galgaguta,47.848611,19.385556,2026-03-09 10:03:17.065920,12.62,11.22,12.62,12.62,1030,49,3.86,165,4,0.0,Clear,clear sky,10
Nógrádkövesd,47.879444,19.371111,2026-03-09 10:03:18.265622,12.76,11.37,12.76,12.76,1030,49,3.83,166,4,0.0,Clear,clear sky,10
Magyarnándor,47.970833,19.356667,2026-03-09 10:03:19.469919,12.59,11.18,12.59,12.59,1030,49,3.86,169,3,0.0,Clear,clear sky,10
Mohora,47.995556,19.347778,2026-03-09 10:03:20.670976,12.69,11.29,12.69,12.69,1030,49,3.8,169,3,0.0,Clear,clear sky,10
Szügy,48.036389,19.333056,2026-03-09 10:03:21.870977,12.91,11.54,12.91,12.91,1030,49,3.67,169,3,0.0,Clear,clear sky,10
Balassagyarmat,48.071111,19.293611,2026-03-09 10:03:23.073390,13.02,11.66,13.02,13.02,1030,49,3.78,167,3,0.0,Clear,clear sky,10
Őrhalom,48.078773,19.403936,2026-03-09 10:03:24.267837,12.72,11.33,12.72,12.72,1030,49,2.78,174,4,0.0,Clear,clear sky,10
Hugyag,48.083056,19.421111,2026-03-09 10:03:25.467333,12.72,11.33,12.72,12.72,1030,49,2.78,174,4,0.0,Clear,clear sky,10
Szécsény,48.093056,19.521111,2026-03-09 10:03:26.666352,12.91,11.54,12.91,12.91,1030,49,2.14,182,5,0.0,Clear,clear sky,10
Ludányhalászi,48.1325,19.529444,2026-03-09 10:03:27.866819,12.89,11.51,12.89,12.89,1030,49,1.96,181,5,0.0,Clear,clear sky,10
Nógrádszakál,48.178333,19.521667,2026-03-09 10:03:29.072818,12.85,11.47,12.85,12.85,1030,49,1.89,179,5,0.0,Clear,clear sky,10
Ráróspuszta,48.207222,19.541389,2026-03-09 10:03:30.274544,12.31,10.88,12.31,12.31,1030,49,1.79,174,5,0.0,Clear,clear sky,10
Litke,48.215833,19.598611,2026-03-09 10:03:31.477958,12.94,11.57,12.94,12.94,1030,49,1.35,187,6,0.0,Clear,clear sky,10
Nyíregyháza külső,47.943056,21.740278,2026-03-09 10:03:32.677624,12.89,11.46,12.89,12.89,1031,47,1.27,118,1,0.0,Clear,clear sky,10
Oros,47.945833,21.806389,2026-03-09 10:03:33.877241,12.91,11.46,12.91,12.91,1031,46,1.79,125,1,0.0,Clear,clear sky,10
Napkor,47.948889,21.873056,2026-03-09 10:03:35.071797,12.93,11.45,12.93,12.93,1031,45,3.04,133,0,0.0,Clear,clear sky,10
Apagy,47.953775,21.939044,2026-03-09 10:03:36.266374,12.94,11.46,12.94,12.94,1031,45,3.34,134,0,0.0,Clear,clear sky,10
Levelek-Magy,47.948056,21.993611,2026-03-09 10:03:37.466191,12.92,11.42,12.92,12.92,1031,44,3.93,135,0,0.0,Clear,clear sky,10
Ófehértó,47.940556,22.041389,2026-03-09 10:03:38.672119,12.84,11.33,12.84,12.84,1031,44,3.95,134,0,0.0,Clear,clear sky,10
Ligettanya,47.951667,22.071389,2026-03-09 10:03:39.870186,12.83,11.32,12.83,12.83,1031,44,4.74,137,0,0.0,Clear,clear sky,10
Baktalórántháza,47.988611,22.083333,2026-03-09 10:03:41.057943,12.78,11.26,12.78,12.78,1031,44,4.9,138,0,0.0,Clear,clear sky,10
Vaja-Rohod,48.006389,22.164167,2026-03-09 10:03:42.263702,12.9,11.37,12.9,12.9,1031,43,5.37,139,0,0.0,Clear,clear sky,10
Rákóczitanya,48.022222,22.178333,2026-03-09 10:03:43.458974,12.89,11.36,12.89,12.89,1031,43,5.51,139,0,0.0,Clear,clear sky,10
Nyírmada,48.059167,22.203056,2026-03-09 10:03:44.654680,12.91,11.38,12.91,12.91,1031,43,5.54,140,0,0.0,Clear,clear sky,10
Tunyogmatolcs,47.960244,22.442247,2026-03-09 10:03:45.850302,13.22,11.67,13.22,13.22,1031,41,5.99,140,0,0.0,Clear,clear sky,10
Tunyogmatolcs alsó,47.966025,22.464713,2026-03-09 10:03:47.049372,13.23,11.65,13.23,13.23,1031,40,5.96,141,0,0.0,Clear,clear sky,10
Fehérgyarmat,47.979167,22.524444,2026-03-09 10:03:48.251127,13.29,11.69,13.29,13.29,1031,39,5.64,142,0,0.0,Clear,clear sky,10
Penyige,47.995278,22.566944,2026-03-09 10:03:49.456348,13.33,11.74,13.33,13.33,1031,39,5.55,142,0,0.0,Clear,clear sky,10
Nagyszekeres,47.976111,22.6125,2026-03-09 10:03:50.656211,13.35,11.73,13.35,13.35,1031,38,5.43,142,0,0.0,Clear,clear sky,10
Kisszekeres,47.965833,22.629444,2026-03-09 10:03:51.860219,13.35,11.73,13.35,13.35,1031,38,5.57,142,0,0.0,Clear,clear sky,10
Jánkmajtis,47.941944,22.657222,2026-03-09 10:03:53.060609,13.37,11.75,13.37,13.37,1031,38,5.56,142,0,0.0,Clear,clear sky,10
Gacsály,47.926111,22.745,2026-03-09 10:03:54.269305,13.43,11.79,13.43,13.43,1031,37,5.17,143,0,0.0,Clear,clear sky,10
Zajta,47.9025,22.796111,2026-03-09 10:03:55.472604,13.46,11.8,13.46,13.46,1031,36,5.04,143,0,0.0,Clear,clear sky,10
Eperjeske alsó,48.360556,22.19,2026-03-09 10:03:56.677501,13.07,11.58,13.07,13.07,1031,44,4.73,144,0,0.0,Clear,clear sky,10
Mándok,48.326944,22.196389,2026-03-09 10:03:57.881675,13.03,11.54,13.03,13.03,1031,44,4.88,142,0,0.0,Clear,clear sky,10
Tornyospálca,48.268333,22.201944,2026-03-09 10:03:59.077779,13.05,11.53,13.05,13.05,1031,43,5.06,142,0,0.0,Clear,clear sky,10
Aranyosapáti,48.211303,22.253534,2026-03-09 10:04:00.286128,13.12,11.61,13.12,13.12,1031,43,5.15,141,0,0.0,Clear,clear sky,10
Gyüre,48.171389,22.269167,2026-03-09 10:04:01.488240,13.1,11.59,13.1,13.1,1031,43,5.37,141,0,0.0,Clear,clear sky,10
Varsány,48.151722,22.290047,2026-03-09 10:04:02.687499,13.11,11.57,13.11,13.11,1031,42,5.44,141,0,0.0,Clear,clear sky,10
Vásárosnamény,48.126667,22.306111,2026-03-09 10:04:03.881323,13.12,11.58,13.12,13.12,1031,42,5.53,140,0,0.0,Clear,clear sky,10
Vitka,48.095556,22.308056,2026-03-09 10:04:05.076953,13.11,11.57,13.11,13.11,1031,42,5.61,140,0,0.0,Clear,clear sky,10
Nagydobos,48.054167,22.311111,2026-03-09 10:04:06.283143,13.04,11.5,13.04,13.04,1031,42,5.68,140,0,0.0,Clear,clear sky,10
Ópályi,47.997778,22.318333,2026-03-09 10:04:07.483618,13.02,11.47,13.02,13.02,1031,42,5.86,139,0,0.0,Clear,clear sky,10
Nyírcsaholy,47.908056,22.348333,2026-03-09 10:04:08.685719,13.11,11.57,13.11,13.11,1031,42,6.01,139,0,0.0,Clear,clear sky,10
Nagyecsed,47.864722,22.385556,2026-03-09 10:04:09.880174,13.17,11.61,13.17,13.17,1031,41,6.08,139,0,0.0,Clear,clear sky,10
Tiborszállás,47.815278,22.402778,2026-03-09 10:04:11.082999,13.17,11.61,13.17,13.17,1031,41,5.87,139,0,0.0,Clear,clear sky,10
Kiskunhalas,46.434444,19.493611,2026-03-09 10:04:12.281024,13.49,12.07,13.49,13.49,1030,45,7.88,145,8,0.0,Clear,clear sky,10
Kecskemét alsó,46.895833,19.692222,2026-03-09 10:04:13.483379,13.48,12.08,13.48,13.48,1031,46,6.03,153,6,0.0,Clear,clear sky,10
Putnok,48.286667,20.4375,2026-03-09 10:04:14.677506,12.77,11.38,12.77,12.77,1030,49,0.22,336,4,0.0,Clear,clear sky,10
Bánréve,48.299722,20.351944,2026-03-09 10:04:15.873976,12.84,11.46,12.84,12.84,1030,49,0.32,281,3,0.0,Clear,clear sky,10
Ipolytarnóc,48.236667,19.629167,2026-03-09 10:04:17.073478,12.89,11.51,12.89,12.89,1030,49,1.21,188,6,0.0,Clear,clear sky,10
Rákosliget,47.486111,19.257778,2026-03-09 10:04:18.268994,13.24,11.87,13.24,13.24,1030,48,3.44,158,6,0.0,Clear,clear sky,10
Ikrény,47.657778,17.524167,2026-03-09 10:04:19.471968,14.13,12.88,14.13,14.13,1028,49,5.33,146,40,0.0,Clouds,scattered clouds,10
Rábapatona,47.648889,17.461944,2026-03-09 10:04:20.667974,14.17,12.92,14.17,14.17,1028,49,5.13,148,35,0.0,Clouds,scattered clouds,10
Enese,47.644167,17.425278,2026-03-09 10:04:21.869503,14.19,12.94,14.19,14.19,1028,49,5.01,151,33,0.0,Clouds,scattered clouds,10
Kóny,47.632222,17.357222,2026-03-09 10:04:23.069006,14.17,12.92,14.17,14.17,1028,49,4.98,153,30,0.0,Clouds,scattered clouds,10
Farád,47.595278,17.195833,2026-03-09 10:04:24.266358,14.22,12.98,14.22,14.22,1027,49,5.21,161,22,0.0,Clouds,few clouds,10
Rábatamási,47.592778,17.161389,2026-03-09 10:04:25.463177,14.22,12.98,14.22,14.22,1027,49,5.21,161,22,0.0,Clouds,few clouds,10
Szárföld,47.589167,17.123889,2026-03-09 10:04:26.659434,14.23,12.99,14.23,14.23,1027,49,5.22,162,21,0.0,Clouds,few clouds,10
Veszkény,47.586944,17.101389,2026-03-09 10:04:27.861029,14.24,13.0,14.24,14.24,1027,49,5.22,162,19,0.0,Clouds,few clouds,10
Kapuvár,47.581944,17.046944,2026-03-09 10:04:29.066801,14.21,12.99,14.21,14.21,1027,50,5.22,163,17,0.0,Clouds,few clouds,10
Vitnyéd-Csermajor,47.5825,16.987222,2026-03-09 10:04:30.267477,14.22,13.0,14.22,14.22,1027,50,5.25,164,16,0.0,Clouds,few clouds,10
Petőháza,47.595278,16.893056,2026-03-09 10:04:31.463290,14.26,13.05,14.26,14.26,1027,50,5.48,165,15,0.0,Clouds,few clouds,10
Fertőszentmiklós,47.6,16.858889,2026-03-09 10:04:32.662608,14.23,13.01,14.23,14.23,1027,50,5.53,166,15,0.0,Clouds,few clouds,10
Pinnye,47.600278,16.768611,2026-03-09 10:04:33.866983,14.09,12.89,14.09,14.09,1026,51,5.61,168,19,0.0,Clouds,few clouds,10
Fertőboz,47.625,16.691667,2026-03-09 10:04:35.080287,14.01,12.8,14.01,14.01,1026,51,5.73,168,23,0.0,Clouds,few clouds,10
Sopron,47.677778,16.587222,2026-03-09 10:04:36.273955,13.71,12.47,13.71,13.71,1026,51,5.97,167,30,0.0,Clouds,scattered clouds,10
Fertőszéplak-Fertőd,47.618889,16.850833,2026-03-09 10:04:37.471062,14.3,13.09,14.3,14.3,1026,50,5.71,166,16,0.0,Clouds,few clouds,10
Nyúl,47.587778,17.698056,2026-03-09 10:04:38.669697,14.0,12.71,14.0,14.0,1028,48,5.94,144,63,0.0,Clouds,broken clouds,10
Pannonhalma,47.547778,17.740833,2026-03-09 10:04:39.868670,13.76,12.44,13.76,13.76,1028,48,6.34,145,73,0.0,Clouds,broken clouds,10
Tarjánpuszta,47.504722,17.789167,2026-03-09 10:04:41.062229,13.65,12.32,13.65,13.65,1028,48,6.44,146,74,0.0,Clouds,broken clouds,10
Győrasszonyfa,47.4925,17.799167,2026-03-09 10:04:42.265258,13.65,12.32,13.65,13.65,1028,48,6.44,146,74,0.0,Clouds,broken clouds,10
Veszprémvarsány,47.443333,17.818333,2026-03-09 10:04:43.467886,13.53,12.19,13.53,13.53,1028,48,6.55,146,71,0.0,Clouds,broken clouds,10
Bakonyszentlászló,47.395556,17.8175,2026-03-09 10:04:44.664483,13.14,11.76,13.14,13.14,1028,48,6.53,146,67,0.0,Clouds,broken clouds,10
Porva-Csesznek,47.326944,17.841111,2026-03-09 10:04:45.866281,11.76,10.27,11.76,11.76,1028,49,6.45,145,61,0.0,Clouds,broken clouds,10
Zirc,47.266667,17.878056,2026-03-09 10:04:47.067709,11.77,10.31,11.77,11.77,1028,50,6.25,144,51,0.0,Clouds,broken clouds,10
Eplény,47.192778,17.921667,2026-03-09 10:04:48.272366,12.16,10.76,12.16,12.16,1029,51,5.8,143,41,0.0,Clouds,scattered clouds,10
Marcaltő,47.4275,17.348889,2026-03-09 10:04:49.479666,14.01,12.75,14.01,14.01,1028,49,5.41,154,24,0.0,Clouds,few clouds,10
Szany-Rábaszentandrás,47.460833,17.315278,2026-03-09 10:04:50.675226,14.06,12.8,14.06,14.06,1028,49,5.29,156,22,0.0,Clouds,few clouds,10
Egyed-Rábacsanak,47.521944,17.316389,2026-03-09 10:04:51.871937,14.08,12.82,14.08,14.08,1028,49,5.16,156,22,0.0,Clouds,few clouds,10
Rábapordány,47.557222,17.315,2026-03-09 10:04:53.074643,14.13,12.88,14.13,14.13,1028,49,5.11,156,23,0.0,Clouds,few clouds,10
Albertfalva,47.440784,19.033965,2026-03-09 10:04:54.274089,13.55,12.16,13.55,13.55,1029,46,4.37,154,6,0.0,Clear,clear sky,10
Budafok,47.425833,19.041389,2026-03-09 10:04:55.468709,13.43,12.06,13.43,13.43,1029,47,4.58,154,5,0.0,Clear,clear sky,10
Tétényliget,47.384722,18.955278,2026-03-09 10:04:56.663550,13.72,12.37,13.72,13.72,1029,47,5.23,155,6,0.0,Clear,clear sky,10
Érd alsó,47.379722,18.923056,2026-03-09 10:04:57.851550,13.49,12.04,13.49,13.49,1030,44,5.47,155,8,0.0,Clear,clear sky,10
Tárnok,47.365556,18.873889,2026-03-09 10:04:59.048978,13.73,12.39,13.73,13.73,1029,47,6.06,156,10,0.0,Clear,clear sky,10
Martonvásár,47.321389,18.781667,2026-03-09 10:05:00.257988,13.68,12.33,13.68,13.68,1029,47,6.44,157,13,0.0,Clouds,few clouds,10
Baracska,47.297222,18.753333,2026-03-09 10:05:01.458307,13.74,12.4,13.74,13.74,1029,47,6.5,157,16,0.0,Clouds,few clouds,10
Pettend,47.26,18.708889,2026-03-09 10:05:02.662365,13.6,12.24,13.6,13.6,1029,47,6.49,157,20,0.0,Clouds,few clouds,10
Kápolnásnyék,47.245556,18.692222,2026-03-09 10:05:03.857779,13.66,12.31,13.66,13.66,1029,47,6.48,157,24,0.0,Clouds,few clouds,10
Velence,47.226944,18.663889,2026-03-09 10:05:05.059800,13.73,12.39,13.73,13.73,1029,47,6.43,157,26,0.0,Clouds,scattered clouds,10
Velencefürdő,47.218611,18.648056,2026-03-09 10:05:06.259099,13.72,12.37,13.72,13.72,1029,47,6.47,156,28,0.0,Clouds,scattered clouds,10
Gárdony,47.205833,18.624722,2026-03-09 10:05:07.459873,13.74,12.4,13.74,13.74,1029,47,6.42,156,30,0.0,Clouds,scattered clouds,10
Agárd,47.197666,18.604907,2026-03-09 10:05:08.657416,13.74,12.4,13.74,13.74,1029,47,6.42,156,30,0.0,Clouds,scattered clouds,10
Dinnyés,47.179722,18.560833,2026-03-09 10:05:09.861827,13.72,12.37,13.72,13.72,1029,47,6.36,156,35,0.0,Clouds,scattered clouds,10
Székesfehérvár,47.183611,18.424722,2026-03-09 10:05:11.056568,13.69,12.37,13.69,13.69,1029,48,6.0,155,37,0.0,Clouds,scattered clouds,10
Szabadbattyán,47.105278,18.388333,2026-03-09 10:05:12.258525,13.61,12.31,13.61,13.61,1029,49,6.07,153,40,0.0,Clouds,scattered clouds,10
Kiscséripuszta,47.048056,18.355,2026-03-09 10:05:13.454993,13.38,12.08,13.38,13.38,1029,50,6.12,152,44,0.0,Clouds,scattered clouds,10
Lepsény,46.9875,18.248056,2026-03-09 10:05:14.650518,13.59,12.36,13.59,13.59,1029,52,6.09,150,50,0.0,Clouds,scattered clouds,10
Balatonaliga,46.984444,18.171389,2026-03-09 10:05:15.861286,13.34,12.11,13.34,13.34,1029,53,5.83,149,45,0.0,Clouds,scattered clouds,10
Balatonvilágos,46.964167,18.157222,2026-03-09 10:05:17.062035,13.65,12.48,13.65,13.65,1029,54,5.75,148,46,0.0,Clouds,scattered clouds,10
Szabadifürdő,46.926111,18.103333,2026-03-09 10:05:18.262665,13.59,12.47,13.59,13.59,1029,56,5.74,146,52,0.0,Clouds,broken clouds,10
Ózd alsó,48.227778,20.306111,2026-03-09 10:05:19.465266,12.67,11.3,12.67,12.67,1030,50,0.52,270,5,0.0,Clear,clear sky,10
Ózd,48.2225,20.294722,2026-03-09 10:05:20.669733,12.67,11.3,12.67,12.67,1030,50,0.52,270,5,0.0,Clear,clear sky,10
Alsóboldva,48.212778,20.792222,2026-03-09 10:05:21.873536,12.55,11.14,12.55,12.55,1030,49,1.03,101,5,0.0,Clear,clear sky,10
Boldva,48.223333,20.790278,2026-03-09 10:05:23.071496,12.55,11.14,12.55,12.55,1030,49,1.03,101,5,0.0,Clear,clear sky,10
Borsodszirák,48.259167,20.770556,2026-03-09 10:05:24.282089,12.64,11.24,12.64,12.64,1030,49,0.97,94,4,0.0,Clear,clear sky,10
Edelény alsó,48.279167,20.760833,2026-03-09 10:05:25.490991,12.64,11.24,12.64,12.64,1030,49,0.97,94,4,0.0,Clear,clear sky,10
Edelény,48.299722,20.749444,2026-03-09 10:05:26.693199,12.63,11.23,12.63,12.63,1030,49,0.96,95,4,0.0,Clear,clear sky,10
Szendrőlád,48.334444,20.731944,2026-03-09 10:05:27.891231,11.65,10.15,11.65,11.65,1030,49,1.01,97,3,0.0,Clear,clear sky,10
Szendrő,48.400725,20.721346,2026-03-09 10:05:29.092053,12.61,11.21,12.61,12.61,1030,49,1.1,110,2,0.0,Clear,clear sky,10
Szendrő felső,48.409907,20.720148,2026-03-09 10:05:30.297444,12.61,11.21,12.61,12.61,1030,49,1.1,110,2,0.0,Clear,clear sky,10
Szalonna,48.449444,20.722222,2026-03-09 10:05:31.499098,12.71,11.29,12.71,12.71,1030,48,1.23,122,2,0.0,Clear,clear sky,10
Perkupa,48.471389,20.691111,2026-03-09 10:05:32.693614,12.04,10.55,12.04,12.04,1030,48,1.23,135,1,0.0,Clear,clear sky,10
Szemeretelep,47.443056,19.214167,2026-03-09 10:05:33.896140,13.51,12.17,13.51,13.51,1030,48,3.69,157,5,0.0,Clear,clear sky,10
Jósvafő-Aggtelek,48.489722,20.693889,2026-03-09 10:05:35.093237,12.37,10.92,12.37,12.37,1030,48,1.32,142,1,0.0,Clear,clear sky,10
Bódvaszilas,48.5375,20.738056,2026-03-09 10:05:36.293411,11.99,10.5,11.99,11.99,1030,48,1.44,141,1,0.0,Clear,clear sky,10
Komjáti,48.5475,20.759722,2026-03-09 10:05:37.496198,11.55,10.01,11.55,11.55,1030,48,1.52,144,1,0.0,Clear,clear sky,10
Tornanádaska,48.558333,20.787222,2026-03-09 10:05:38.700322,12.71,11.29,12.71,12.71,1030,48,1.5,142,1,0.0,Clear,clear sky,10
Onga,48.121111,20.906667,2026-03-09 10:05:39.896149,12.5,11.08,12.5,12.5,1030,49,1.09,118,5,0.0,Clear,clear sky,10
Szikszó-Vásártér,48.193056,20.934722,2026-03-09 10:05:41.104700,12.53,11.12,12.53,12.53,1030,49,1.06,129,5,0.0,Clear,clear sky,10
Szikszó,48.201667,20.941667,2026-03-09 10:05:42.304146,12.6,11.2,12.6,12.6,1030,49,1.07,135,5,0.0,Clear,clear sky,10
Aszaló,48.219867,20.961466,2026-03-09 10:05:43.503547,12.47,11.05,12.47,12.47,1030,49,1.06,138,5,0.0,Clear,clear sky,10
Halmaj,48.246667,20.991667,2026-03-09 10:05:44.703236,12.64,11.24,12.64,12.64,1030,49,1.09,145,5,0.0,Clear,clear sky,10
Csobád,48.277222,21.033889,2026-03-09 10:05:45.900487,12.69,11.29,12.69,12.69,1030,49,1.13,147,5,0.0,Clear,clear sky,10
Ináncs,48.291111,21.057778,2026-03-09 10:05:47.099997,12.67,11.27,12.67,12.67,1030,49,1.24,144,5,0.0,Clear,clear sky,10
Forró-Encs,48.3275,21.117778,2026-03-09 10:05:48.303201,12.65,11.25,12.65,12.65,1030,49,1.29,138,4,0.0,Clear,clear sky,10
Méra,48.363056,21.140278,2026-03-09 10:05:49.505303,12.49,11.07,12.49,12.49,1030,49,1.32,126,4,0.0,Clear,clear sky,10
Novajidrány,48.404444,21.170556,2026-03-09 10:05:50.699530,12.72,11.33,12.72,12.72,1030,49,1.4,117,4,0.0,Clear,clear sky,10
Hernádszurdok,48.487222,21.213889,2026-03-09 10:05:51.894784,12.72,11.33,12.72,12.72,1030,49,1.57,103,3,0.0,Clear,clear sky,10
Hidasnémeti,48.508333,21.229722,2026-03-09 10:05:53.086894,12.59,11.18,12.59,12.59,1031,49,1.58,104,3,0.0,Clear,clear sky,10
Mád,48.19,21.268889,2026-03-09 10:05:54.291846,12.37,10.94,12.37,12.37,1030,49,1.69,101,2,0.0,Clear,clear sky,10
Rátka,48.215,21.230278,2026-03-09 10:05:55.502916,12.73,11.34,12.73,12.73,1030,49,1.62,111,3,0.0,Clear,clear sky,10
Tállya,48.226944,21.225278,2026-03-09 10:05:56.709214,12.73,11.34,12.73,12.73,1030,49,1.62,111,3,0.0,Clear,clear sky,10
Golop,48.242778,21.204167,2026-03-09 10:05:57.905443,12.76,11.37,12.76,12.76,1030,49,1.48,127,4,0.0,Clear,clear sky,10
Abaújszántó,48.286944,21.181667,2026-03-09 10:05:59.110507,12.5,11.08,12.5,12.5,1030,49,1.47,128,4,0.0,Clear,clear sky,10
Abaújszántói fürdő,48.268333,21.179722,2026-03-09 10:06:00.310668,12.75,11.36,12.75,12.75,1030,49,1.49,129,4,0.0,Clear,clear sky,10
Abaújkér,48.309444,21.198333,2026-03-09 10:06:01.516548,12.52,11.11,12.52,12.52,1030,49,1.44,127,4,0.0,Clear,clear sky,10
Boldogkőváralja,48.345,21.208889,2026-03-09 10:06:02.709715,12.52,11.11,12.52,12.52,1030,49,1.58,113,3,0.0,Clear,clear sky,10
Korlát-Vizsoly,48.365,21.219167,2026-03-09 10:06:03.913624,12.65,11.25,12.65,12.65,1030,49,1.57,111,3,0.0,Clear,clear sky,10
Fony,48.411389,21.242778,2026-03-09 10:06:05.109826,12.73,11.34,12.73,12.73,1030,49,1.57,106,3,0.0,Clear,clear sky,10
Hejce-Vilmány,48.419444,21.245556,2026-03-09 10:06:06.305967,12.73,11.34,12.73,12.73,1030,49,1.57,106,3,0.0,Clear,clear sky,10
Göncruszka,48.445,21.246944,2026-03-09 10:06:07.508622,12.73,11.34,12.73,12.73,1030,49,1.57,104,3,0.0,Clear,clear sky,10
Gönc,48.470556,21.261389,2026-03-09 10:06:08.701508,12.7,11.31,12.7,12.7,1031,49,1.64,101,3,0.0,Clear,clear sky,10
Zsujta,48.4925,21.265,2026-03-09 10:06:09.902925,12.71,11.32,12.71,12.71,1031,49,1.63,102,3,0.0,Clear,clear sky,10
Bodrogkeresztúr,48.175556,21.354167,2026-03-09 10:06:11.100890,12.02,10.56,12.02,12.02,1030,49,1.84,86,2,0.0,Clear,clear sky,10
Szegi,48.201944,21.387778,2026-03-09 10:06:12.304278,12.53,11.12,12.53,12.53,1030,49,2.06,82,2,0.0,Clear,clear sky,10
Erdőbénye,48.218056,21.401944,2026-03-09 10:06:13.512104,12.9,11.53,12.9,12.9,1031,49,2.15,83,2,0.0,Clear,clear sky,10
Olaszliszka-Tolcsva,48.258333,21.448056,2026-03-09 10:06:14.712165,12.87,11.49,12.87,12.87,1031,49,2.19,84,2,0.0,Clear,clear sky,10
Bodrogolaszi,48.286944,21.512778,2026-03-09 10:06:15.916088,11.54,10.03,11.54,11.54,1031,49,2.2,86,2,0.0,Clear,clear sky,10
Sárospatak,48.325833,21.566111,2026-03-09 10:06:17.114201,12.82,11.44,12.82,12.82,1031,49,2.25,101,2,0.0,Clear,clear sky,10
Sátoraljaújhely,48.385833,21.657778,2026-03-09 10:06:18.321290,12.21,10.77,12.21,12.21,1031,49,2.48,123,1,0.0,Clear,clear sky,10
Vecsés,47.40855,19.25652,2026-03-09 10:06:19.518024,13.52,12.18,13.52,13.52,1030,48,3.87,158,6,0.0,Clear,clear sky,10
Vecsés-Kertekalja,47.403333,19.271389,2026-03-09 10:06:20.726008,13.52,12.18,13.52,13.52,1030,48,3.87,158,6,0.0,Clear,clear sky,10
Üllő,47.390833,19.348889,2026-03-09 10:06:21.925283,13.53,12.19,13.53,13.53,1030,48,4.08,158,7,0.0,Clear,clear sky,10
Monor,47.34545,19.43701,2026-03-09 10:06:23.132539,13.4,12.05,13.4,13.4,1030,48,4.46,159,7,0.0,Clear,clear sky,10
Pilis,47.279722,19.536389,2026-03-09 10:06:24.328269,13.32,11.93,13.32,13.32,1030,47,4.77,160,7,0.0,Clear,clear sky,10
Albertirsa,47.240278,19.606389,2026-03-09 10:06:25.531735,13.39,12.01,13.39,13.39,1030,47,4.91,160,7,0.0,Clear,clear sky,10
Ceglédbercel-Cserő,47.210278,19.686944,2026-03-09 10:06:26.729756,13.47,12.1,13.47,13.47,1030,47,4.89,159,6,0.0,Clear,clear sky,10
Cegléd,47.182778,19.806111,2026-03-09 10:06:27.923364,13.55,12.19,13.55,13.55,1030,47,4.67,159,6,0.0,Clear,clear sky,10
Abony,47.173056,20.016389,2026-03-09 10:06:29.123009,13.56,12.2,13.56,13.56,1030,47,3.8,159,5,0.0,Clear,clear sky,10
Szolnok,47.179167,20.175833,2026-03-09 10:06:30.326991,13.55,12.21,13.55,13.55,1031,48,3.27,161,6,0.0,Clear,clear sky,10
Szajol,47.170556,20.295278,2026-03-09 10:06:31.544457,13.57,12.24,13.57,13.57,1031,48,3.0,162,8,0.0,Clear,clear sky,10
Törökszentmiklós,47.170278,20.413611,2026-03-09 10:06:32.743344,13.61,12.31,13.61,13.61,1031,49,2.74,161,9,0.0,Clear,clear sky,10
Rákoscsaba-Újtelep,47.4875,19.271944,2026-03-09 10:06:33.946148,13.24,11.87,13.24,13.24,1030,48,3.44,158,6,0.0,Clear,clear sky,10
Rákoscsaba,47.492222,19.284722,2026-03-09 10:06:35.141706,13.31,11.95,13.31,13.31,1030,48,3.46,158,6,0.0,Clear,clear sky,10
Pécel,47.493889,19.338889,2026-03-09 10:06:36.335932,13.17,11.8,13.17,13.17,1030,48,3.48,158,6,0.0,Clear,clear sky,10
Isaszeg,47.537719,19.388955,2026-03-09 10:06:37.530861,12.97,11.58,12.97,12.97,1030,48,3.42,158,6,0.0,Clear,clear sky,10
Gödöllő,47.592222,19.358611,2026-03-09 10:06:38.738191,12.82,11.41,12.82,12.82,1030,48,3.46,157,5,0.0,Clear,clear sky,10
Máriabesnyő,47.595556,19.389722,2026-03-09 10:06:39.947408,12.82,11.41,12.82,12.82,1030,48,3.46,157,5,0.0,Clear,clear sky,10
Bag,47.641111,19.471667,2026-03-09 10:06:41.141224,13.36,12.03,13.36,13.36,1030,49,3.45,157,5,0.0,Clear,clear sky,10
Aszód,47.647467,19.492882,2026-03-09 10:06:42.347316,13.21,11.87,13.21,13.21,1030,49,3.39,157,5,0.0,Clear,clear sky,10
Hévízgyörk,47.638611,19.526667,2026-03-09 10:06:43.554099,13.18,11.83,13.18,13.18,1030,49,3.34,157,5,0.0,Clear,clear sky,10
Galgahévíz,47.6325,19.558333,2026-03-09 10:06:44.756231,13.38,12.05,13.38,13.38,1030,49,3.18,158,5,0.0,Clear,clear sky,10
Tura,47.626389,19.5975,2026-03-09 10:06:45.952382,13.29,11.95,13.29,13.29,1030,49,3.06,159,5,0.0,Clear,clear sky,10
Hatvan,47.663611,19.671389,2026-03-09 10:06:47.153353,13.3,11.97,13.3,13.3,1030,49,2.76,162,5,0.0,Clear,clear sky,10
Vámosgyörk,47.686111,19.927778,2026-03-09 10:06:48.356524,13.2,11.88,13.2,13.2,1030,50,2.23,190,8,0.0,Clear,clear sky,10
Adács,47.696389,19.975278,2026-03-09 10:06:49.553339,13.2,11.88,13.2,13.2,1030,50,2.23,199,9,0.0,Clear,clear sky,10
Karácsond,47.718056,20.048611,2026-03-09 10:06:50.753133,13.05,11.72,13.05,13.05,1030,50,2.22,204,9,0.0,Clear,clear sky,10
Ludas,47.723889,20.095556,2026-03-09 10:06:51.947542,13.22,11.9,13.22,13.22,1030,50,2.29,214,10,0.0,Clear,clear sky,10
Nagyút,47.72666666666667,20.161388888888887,2026-03-09 10:06:53.151646,13.18,11.86,13.18,13.18,1030,50,2.3,217,11,0.0,Clouds,few clouds,10
Kál-Kápolna,47.734167,20.254167,2026-03-09 10:06:54.352603,13.16,11.84,13.16,13.16,1030,50,2.41,225,12,0.0,Clouds,few clouds,10
Füzesabony,47.751389,20.415278,2026-03-09 10:06:55.549831,13.13,11.78,13.13,13.13,1030,49,2.49,233,13,0.0,Clouds,few clouds,10
Szihalom,47.766944,20.491944,2026-03-09 10:06:56.752080,13.01,11.65,13.01,13.01,1030,49,2.44,236,13,0.0,Clouds,few clouds,10
Mezőkövesd,47.797222,20.5675,2026-03-09 10:06:57.951170,13.01,11.65,13.01,13.01,1030,49,2.21,240,13,0.0,Clouds,few clouds,10
Mezőkövesd felső,47.807222,20.591389,2026-03-09 10:06:59.148988,13.01,11.65,13.01,13.01,1030,49,2.21,240,13,0.0,Clouds,few clouds,10
Mezőkeresztes-Mezőnyárád,47.845556,20.670278,2026-03-09 10:07:00.359707,12.87,11.49,12.87,12.87,1030,49,1.52,242,12,0.0,Clouds,few clouds,10
Csincse,47.890833,20.764167,2026-03-09 10:07:01.574192,12.83,11.45,12.83,12.83,1030,49,0.84,246,11,0.0,Clouds,few clouds,10
Emőd,47.930556,20.822778,2026-03-09 10:07:02.773223,12.5,11.08,12.5,12.5,1030,49,0.31,189,10,0.0,Clear,clear sky,10
Nyékládháza,47.9925,20.840556,2026-03-09 10:07:03.973121,12.63,11.23,12.63,12.63,1030,49,0.65,119,8,0.0,Clear,clear sky,10
Miskolc-Tiszai,48.098611,20.811389,2026-03-09 10:07:05.169998,12.24,10.8,12.24,12.24,1030,49,1.15,108,7,0.0,Clear,clear sky,10
Felsőzsolca,48.083611,20.866111,2026-03-09 10:07:06.365894,12.42,11.0,12.42,12.42,1030,49,1.15,111,6,0.0,Clear,clear sky,10
Hernádnémeti-Bőcs,48.051389,20.985,2026-03-09 10:07:07.577978,12.56,11.15,12.56,12.56,1030,49,0.86,108,5,0.0,Clear,clear sky,10
Tiszalúc,48.039722,21.0575,2026-03-09 10:07:08.778293,12.63,11.23,12.63,12.63,1030,49,0.79,80,4,0.0,Clear,clear sky,10
Taktaharkány,48.091667,21.128611,2026-03-09 10:07:09.982629,12.7,11.31,12.7,12.7,1030,49,1.03,98,3,0.0,Clear,clear sky,10
Taktaszada,48.1125,21.149444,2026-03-09 10:07:11.175199,12.71,11.32,12.71,12.71,1030,49,1.19,103,3,0.0,Clear,clear sky,10
Szerencs,48.155556,21.214444,2026-03-09 10:07:12.375804,12.83,11.45,12.83,12.83,1030,49,1.58,102,2,0.0,Clear,clear sky,10
Mezőzombor,48.156944,21.267778,2026-03-09 10:07:13.574285,12.76,11.37,12.76,12.76,1030,49,1.67,96,2,0.0,Clear,clear sky,10
Tarcal,48.125,21.34,2026-03-09 10:07:14.773842,12.88,11.5,12.88,12.88,1030,49,1.77,77,2,0.0,Clear,clear sky,10
Tokaj,48.112778,21.406667,2026-03-09 10:07:15.970328,12.36,10.93,12.36,12.36,1030,49,1.93,74,2,0.0,Clear,clear sky,10
Rakamaz,48.12,21.475,2026-03-09 10:07:17.166542,12.89,11.51,12.89,12.89,1030,49,1.96,75,2,0.0,Clear,clear sky,10
Görögszállás,48.04,21.555,2026-03-09 10:07:18.365238,12.89,11.49,12.89,12.89,1031,48,1.45,73,2,0.0,Clear,clear sky,10
Nyírtelek,48.005,21.615556,2026-03-09 10:07:19.561972,12.89,11.49,12.89,12.89,1031,48,1.34,95,1,0.0,Clear,clear sky,10
Rákoshegy,47.468611,19.245556,2026-03-09 10:07:20.757437,13.37,12.02,13.37,13.37,1030,48,3.55,158,6,0.0,Clear,clear sky,10
Ecser,47.439444,19.318056,2026-03-09 10:07:21.954039,13.47,12.13,13.47,13.47,1030,48,3.7,158,6,0.0,Clear,clear sky,10
Maglód,47.438889,19.340833,2026-03-09 10:07:23.152066,13.26,11.89,13.26,13.26,1030,48,3.71,158,6,0.0,Clear,clear sky,10
Maglódi nyaraló,47.434167,19.363611,2026-03-09 10:07:24.349564,13.01,11.62,13.01,13.01,1030,48,3.72,159,6,0.0,Clear,clear sky,10
Gyömrő,47.429722,19.393333,2026-03-09 10:07:25.541867,13.01,11.62,13.01,13.01,1030,48,3.72,159,6,0.0,Clear,clear sky,10
Mende,47.426944,19.439722,2026-03-09 10:07:26.752329,12.95,11.55,12.95,12.95,1030,48,3.89,159,6,0.0,Clear,clear sky,10
Szőlősnyaraló,47.450278,19.561111,2026-03-09 10:07:27.952292,13.3,11.94,13.3,13.3,1030,48,3.64,161,6,0.0,Clear,clear sky,10
Sülysáp,47.451944,19.5275,2026-03-09 10:07:29.153335,13.2,11.83,13.2,13.2,1030,48,3.73,160,6,0.0,Clear,clear sky,10
Tápiószecső,47.443056,19.614722,2026-03-09 10:07:30.346524,13.35,11.99,13.35,13.35,1030,48,3.56,161,6,0.0,Clear,clear sky,10
Szentmártonkáta,47.431944,19.680556,2026-03-09 10:07:31.552910,13.33,11.97,13.33,13.33,1030,48,3.38,163,5,0.0,Clear,clear sky,10
Nagykáta,47.409722,19.737778,2026-03-09 10:07:32.755251,13.38,12.03,13.38,13.38,1030,48,3.45,164,5,0.0,Clear,clear sky,10
Farmos,47.355278,19.8375,2026-03-09 10:07:33.956462,13.54,12.18,13.54,13.54,1030,47,3.49,165,5,0.0,Clear,clear sky,10
Tápiószele,47.346313,19.873504,2026-03-09 10:07:35.154679,13.54,12.18,13.54,13.54,1031,47,3.57,164,5,0.0,Clear,clear sky,10
Tápiógyörgye,47.325,19.95,2026-03-09 10:07:36.356931,13.55,12.19,13.55,13.55,1031,47,3.31,166,6,0.0,Clear,clear sky,10
Újszász,47.285833,20.066944,2026-03-09 10:07:37.556160,13.59,12.26,13.59,13.59,1031,48,3.21,166,6,0.0,Clear,clear sky,10
Szurdokpüspöki,47.851944,19.690278,2026-03-09 10:07:38.753027,13.08,11.75,13.08,13.08,1030,50,2.39,175,5,0.0,Clear,clear sky,10
Lőrinci,47.739444,19.673611,2026-03-09 10:07:39.949075,13.21,11.89,13.21,13.21,1030,50,2.69,163,5,0.0,Clear,clear sky,10
Selyp,47.759167,19.670833,2026-03-09 10:07:41.160093,13.18,11.86,13.18,13.18,1030,50,2.65,164,5,0.0,Clear,clear sky,10
Apc-Zagyvaszántó,47.791328,19.66822,2026-03-09 10:07:42.362095,13.18,11.86,13.18,13.18,1030,50,2.6,166,5,0.0,Clear,clear sky,10
Pásztó,47.918889,19.688889,2026-03-09 10:07:43.561097,12.93,11.58,12.93,12.93,1030,50,2.24,183,5,0.0,Clear,clear sky,10
Mátraszőlős-Hasznos,47.938506,19.706122,2026-03-09 10:07:44.765924,12.92,11.57,12.92,12.92,1030,50,2.12,188,5,0.0,Clear,clear sky,10
Tar,47.956111,19.746389,2026-03-09 10:07:45.974256,12.49,11.1,12.49,12.49,1030,50,1.97,196,6,0.0,Clear,clear sky,10
Mátraverebély,47.968333,19.778611,2026-03-09 10:07:47.173317,12.49,11.1,12.49,12.49,1030,50,1.97,196,6,0.0,Clear,clear sky,10
Nagybátony,47.981111,19.82,2026-03-09 10:07:48.376351,12.65,11.28,12.65,12.65,1030,50,1.86,200,6,0.0,Clear,clear sky,10
Kisterenye,48.009444,19.831944,2026-03-09 10:07:49.574589,12.72,11.35,12.72,12.72,1030,50,1.73,204,6,0.0,Clear,clear sky,10
Kisterenye-Bányatelep,48.021389,19.831944,2026-03-09 10:07:50.774115,12.72,11.35,12.72,12.72,1030,50,1.73,204,6,0.0,Clear,clear sky,10
Salgótarján külső,48.089444,19.790833,2026-03-09 10:07:51.970139,12.21,10.79,12.21,12.21,1030,50,1.47,211,6,0.0,Clear,clear sky,10
Balatonfenyves GV,46.7125,17.479167,2026-03-09 10:07:53.176310,13.63,12.41,13.63,13.63,1028,52,3.86,124,23,0.0,Clouds,few clouds,10
Várhegyalja,47.737778,18.366667,2026-03-09 10:07:54.375480,13.74,12.4,13.74,13.74,1029,47,6.02,152,24,0.0,Clouds,few clouds,10
Imremajor,46.680556,17.499722,2026-03-09 10:07:55.579484,13.66,12.44,13.66,13.66,1028,52,3.81,125,23,0.0,Clouds,few clouds,10
Rákospalota-Kertváros,47.578333,19.122778,2026-03-09 10:07:56.775965,13.77,12.46,13.77,13.77,1029,48,3.38,157,5,0.0,Clear,clear sky,10
Vicziántelep,47.675833,19.286111,2026-03-09 10:07:57.986547,13.01,11.62,13.01,13.01,1030,48,3.67,159,5,0.0,Clear,clear sky,10
Pálmajor,46.662831,17.457526,2026-03-09 10:07:59.186398,13.65,12.4,13.65,13.65,1028,51,3.75,124,22,0.0,Clouds,few clouds,10
Somogyszentpál felső,46.649758,17.471404,2026-03-09 10:08:00.390702,13.63,12.38,13.63,13.63,1028,51,3.8,125,24,0.0,Clouds,few clouds,10
Somogyszentpál,46.638611,17.478611,2026-03-09 10:08:01.598397,13.56,12.3,13.56,13.56,1028,51,3.81,126,25,0.0,Clouds,scattered clouds,10
Rudnaykert,47.7175,19.257778,2026-03-09 10:08:02.791613,13.09,11.71,13.09,13.09,1030,48,3.89,160,4,0.0,Clear,clear sky,10
Maroshegy,47.158333,18.406667,2026-03-09 10:08:03.995494,13.66,12.33,13.66,13.66,1029,48,6.05,155,38,0.0,Clouds,scattered clouds,10
Bánhida,47.573703,18.371737,2026-03-09 10:08:05.193378,13.46,12.09,13.46,13.46,1029,47,6.22,153,24,0.0,Clouds,few clouds,10
Magyarkút,47.850278,19.045,2026-03-09 10:08:06.408447,12.82,11.41,12.82,12.82,1030,48,4.13,161,3,0.0,Clear,clear sky,10
Becske alsó,47.897222,19.364722,2026-03-09 10:08:07.617424,12.27,10.83,12.27,12.27,1030,49,3.78,168,4,0.0,Clear,clear sky,10
Hosszúberek-Péteri,47.370556,19.389722,2026-03-09 10:08:08.815772,13.49,12.15,13.49,13.49,1030,48,4.28,159,7,0.0,Clear,clear sky,10
Monorierdő,47.308889,19.499167,2026-03-09 10:08:10.009677,13.34,11.96,13.34,13.34,1030,47,4.63,159,7,0.0,Clear,clear sky,10
Ceglédbercel,47.215833,19.658611,2026-03-09 10:08:11.218644,13.41,12.03,13.41,13.41,1030,47,4.98,159,7,0.0,Clear,clear sky,10
Budai út,47.208333,19.731389,2026-03-09 10:08:12.424412,13.38,12.0,13.38,13.38,1030,47,4.8,160,6,0.0,Clear,clear sky,10
Büdöskútpuszta,48.373056,20.726111,2026-03-09 10:08:13.624091,12.73,11.34,12.73,12.73,1030,49,1.05,103,3,0.0,Clear,clear sky,10
Bánrévei Vízmű,48.282778,20.368333,2026-03-09 10:08:14.824723,12.81,11.43,12.81,12.81,1030,49,0.27,294,3,0.0,Clear,clear sky,10
Rákoskert,47.456389,19.296111,2026-03-09 10:08:16.027487,13.27,11.91,13.27,13.27,1030,48,3.56,158,6,0.0,Clear,clear sky,10
Szirmabesenyő,48.146944,20.783056,2026-03-09 10:08:17.227822,11.7,10.21,11.7,11.7,1030,49,1.12,100,6,0.0,Clear,clear sky,10
Kitérőgyár,47.766944,19.935278,2026-03-09 10:08:18.425938,12.89,11.54,12.89,12.89,1030,50,2.09,194,8,0.0,Clear,clear sky,10
Tápiószentmárton,47.373333,19.797778,2026-03-09 10:08:19.624672,13.44,12.09,13.44,13.44,1030,48,3.57,164,5,0.0,Clear,clear sky,10
Zagyvarékas,47.244229,20.097435,2026-03-09 10:08:20.819492,13.58,12.25,13.58,13.58,1031,48,3.28,163,6,0.0,Clear,clear sky,10
Abonyi út,47.206401,20.125204,2026-03-09 10:08:22.024197,13.58,12.25,13.58,13.58,1031,48,3.37,162,6,0.0,Clear,clear sky,10
Jászkisér felső,47.438056,20.202222,2026-03-09 10:08:23.222670,13.56,12.22,13.56,13.56,1030,48,2.62,185,9,0.0,Clear,clear sky,10
Szellőhát,47.425556,20.188889,2026-03-09 10:08:24.421264,13.57,12.24,13.57,13.57,1030,48,2.67,182,9,0.0,Clear,clear sky,10
Szilvásvárad-Szalajkavölgy,48.0956,20.38272,2026-03-09 10:08:25.620411,11.58,10.1,11.58,11.58,1030,50,1.06,233,9,0.0,Clear,clear sky,10
Vásárosnamény külső,48.084444,22.255556,2026-03-09 10:08:26.827596,12.99,11.47,12.99,12.99,1031,43,5.61,140,0,0.0,Clear,clear sky,10
Újváros,46.660556,20.536111,2026-03-09 10:08:28.041425,13.6,12.4,13.6,13.6,1030,53,2.94,157,4,0.0,Clear,clear sky,10
Városi park,46.697778,19.864722,2026-03-09 10:08:29.239687,14.0,12.63,14.0,14.0,1031,45,5.96,151,7,0.0,Clear,clear sky,10
Belsőkamaráspuszta,46.341944,20.848889,2026-03-09 10:08:30.446102,13.49,12.7,13.49,13.49,1030,69,2.48,156,3,0.0,Clear,clear sky,10
Sajószöged,47.945278,20.981667,2026-03-09 10:08:31.649662,12.79,11.4,12.79,12.79,1030,49,0.43,347,7,0.0,Clear,clear sky,10
Kazincbarcika alsó,48.255278,20.649167,2026-03-09 10:08:32.852044,12.51,11.1,12.51,12.51,1030,49,0.77,66,5,0.0,Clear,clear sky,10
Nyárjas,46.857778,19.923611,2026-03-09 10:08:34.051174,13.6,12.19,13.6,13.6,1030,45,5.3,154,7,0.0,Clear,clear sky,10
Pogonyipuszta,48.296389,20.381667,2026-03-09 10:08:35.251779,12.81,11.43,12.81,12.81,1030,49,0.27,294,3,0.0,Clear,clear sky,10
Sióvölgy,46.911103,18.076964,2026-03-09 10:08:36.451405,13.61,12.51,13.61,13.61,1029,57,5.47,144,44,0.0,Clouds,scattered clouds,10
Répáspuszta,46.430278,17.847222,2026-03-09 10:08:37.648244,13.02,11.71,13.02,13.02,1028,51,4.97,131,59,0.0,Clouds,broken clouds,10
Virányos,48.066667,21.527222,2026-03-09 10:08:38.847291,12.89,11.49,12.89,12.89,1031,48,1.64,77,2,0.0,Clear,clear sky,10
Füzesbokor,47.988611,21.6475,2026-03-09 10:08:40.045816,12.91,11.48,12.91,12.91,1031,47,1.23,102,1,0.0,Clear,clear sky,10
Kunfehértó,46.355833,19.417222,2026-03-09 10:08:41.241339,13.36,11.93,13.36,13.36,1030,45,8.15,145,9,0.0,Clear,clear sky,10
Erdőszél,46.329444,19.395,2026-03-09 10:08:42.436223,13.21,11.76,13.21,13.21,1030,45,8.23,144,12,0.0,Clouds,few clouds,10
Jánoshalma,46.293056,19.330278,2026-03-09 10:08:43.633966,13.27,11.83,13.27,13.27,1030,45,8.28,143,16,0.0,Clouds,few clouds,10
Mélykút,46.213056,19.370556,2026-03-09 10:08:44.838398,13.23,11.78,13.23,13.23,1029,45,8.35,141,16,0.0,Clouds,few clouds,10
Bácsalmás,46.118056,19.346389,2026-03-09 10:08:46.032232,13.19,11.74,13.19,13.19,1029,45,8.38,139,22,0.0,Clouds,few clouds,10
Almás,46.116216,19.328803,2026-03-09 10:08:47.232265,13.19,11.74,13.19,13.19,1029,45,8.38,139,22,0.0,Clouds,few clouds,10
Bácsbokod-Bácsborsód,46.115833,19.16,2026-03-09 10:08:48.433194,13.14,11.66,13.14,13.14,1029,44,8.2,138,41,0.0,Clouds,scattered clouds,10
Baja,46.187014,18.957602,2026-03-09 10:08:49.633511,13.33,11.87,13.33,13.33,1029,44,7.76,139,60,0.0,Clouds,broken clouds,10
Harkakötöny,46.458333,19.601944,2026-03-09 10:08:50.831349,13.6,12.19,13.6,13.6,1030,45,7.56,146,8,0.0,Clear,clear sky,10
Tajó,46.473056,19.650556,2026-03-09 10:08:52.037867,13.64,12.23,13.64,13.64,1030,45,7.47,146,8,0.0,Clear,clear sky,10
Kiskunmajsa,46.501667,19.728056,2026-03-09 10:08:53.240725,13.72,12.32,13.72,13.72,1030,45,7.21,147,7,0.0,Clear,clear sky,10
Jászszentlászló,46.565833,19.753611,2026-03-09 10:08:54.433918,13.84,12.45,13.84,13.84,1030,45,6.77,148,7,0.0,Clear,clear sky,10
Galambos,46.625,19.801111,2026-03-09 10:08:55.639389,13.9,12.52,13.9,13.9,1031,45,6.47,149,7,0.0,Clear,clear sky,10
Pestszentimre,47.402222,19.188611,2026-03-09 10:08:56.835093,13.64,12.29,13.64,13.64,1030,47,4.19,156,5,0.0,Clear,clear sky,10
Gyál felső,47.390278,19.204722,2026-03-09 10:08:58.040348,13.59,12.23,13.59,13.59,1030,47,4.13,157,5,0.0,Clear,clear sky,10
Gyál,47.376667,19.219444,2026-03-09 10:08:59.237901,13.59,12.23,13.59,13.59,1030,47,4.13,157,5,0.0,Clear,clear sky,10
Ócsa,47.301389,19.232222,2026-03-09 10:09:00.438650,13.64,12.29,13.64,13.64,1030,47,4.93,157,6,0.0,Clear,clear sky,10
Inárcs-Kakucs,47.247222,19.317778,2026-03-09 10:09:01.651513,13.64,12.29,13.64,13.64,1030,47,5.19,158,7,0.0,Clear,clear sky,10
Dabas,47.194722,19.328889,2026-03-09 10:09:02.847130,13.57,12.21,13.57,13.57,1030,47,5.47,158,6,0.0,Clear,clear sky,10
Gyón,47.178333,19.355556,2026-03-09 10:09:04.051211,13.58,12.22,13.58,13.58,1030,47,5.62,157,6,0.0,Clear,clear sky,10
Hernád,47.161389,19.4025,2026-03-09 10:09:05.251186,13.47,12.1,13.47,13.47,1030,47,5.59,158,6,0.0,Clear,clear sky,10
Bakonygyirót,47.416389,17.811944,2026-03-09 10:09:06.471911,13.56,12.22,13.56,13.56,1028,48,6.42,145,69,0.0,Clouds,broken clouds,10
Vinye,47.360317,17.819635,2026-03-09 10:09:07.666160,13.04,11.68,13.04,13.04,1028,49,6.5,145,64,0.0,Clouds,broken clouds,10
Nemesgörzsöny,47.402924,17.376385,2026-03-09 10:09:08.864895,14.0,12.71,14.0,14.0,1028,48,5.35,153,26,0.0,Clouds,scattered clouds,10
Rábahíd,47.438618,17.337525,2026-03-09 10:09:10.062227,14.04,12.78,14.04,14.04,1028,49,5.35,155,23,0.0,Clouds,few clouds,10
Öskü,47.162222,18.076389,2026-03-09 10:09:11.262721,13.28,12.0,13.28,13.28,1029,51,5.95,149,39,0.0,Clouds,scattered clouds,10
Márkó,47.1275,17.813889,2026-03-09 10:09:12.457128,12.46,11.09,12.46,12.46,1028,51,5.15,135,32,0.0,Clouds,scattered clouds,10
Nemeskocs,47.203333,17.188889,2026-03-09 10:09:13.661429,13.89,12.67,13.89,13.89,1028,51,5.15,150,22,0.0,Clouds,few clouds,10
Zalagyömörő,47.011111,17.220833,2026-03-09 10:09:14.863064,13.71,12.47,13.71,13.71,1028,51,4.54,141,14,0.0,Clouds,few clouds,10
Rigács,47.061667,17.199167,2026-03-09 10:09:16.063581,13.68,12.44,13.68,13.68,1028,51,4.66,142,15,0.0,Clouds,few clouds,10
Kemenespálfa,47.139722,17.183056,2026-03-09 10:09:17.258012,13.81,12.58,13.81,13.81,1028,51,4.89,147,18,0.0,Clouds,few clouds,10
Lentiszombathely,46.611389,16.5725,2026-03-09 10:09:18.453500,13.54,12.41,13.54,13.54,1027,56,3.96,131,50,0.0,Clouds,scattered clouds,10
Ortaháza,46.626667,16.685833,2026-03-09 10:09:19.650050,13.35,12.18,13.35,13.35,1027,55,3.66,130,52,0.0,Clouds,broken clouds,10
Rádiháza,46.654722,16.765833,2026-03-09 10:09:20.847044,13.31,12.13,13.31,13.31,1027,55,3.64,131,50,0.0,Clouds,scattered clouds,10
Baktüttös,46.690833,16.826389,2026-03-09 10:09:22.048151,13.39,12.19,13.39,13.39,1027,54,3.92,132,44,0.0,Clouds,scattered clouds,10
Budafa,46.851667,16.624722,2026-03-09 10:09:23.242182,13.5,12.37,13.5,13.5,1027,56,3.82,143,47,0.0,Clouds,scattered clouds,10
Zalapatakalja,46.845556,16.603889,2026-03-09 10:09:24.435098,13.49,12.36,13.49,13.49,1027,56,3.75,144,49,0.0,Clouds,scattered clouds,10
Tormásliget,47.430556,16.781667,2026-03-09 10:09:25.636419,13.88,12.66,13.88,13.88,1027,51,4.7,168,14,0.0,Clouds,few clouds,10
Belecska,46.64,18.411389,2026-03-09 10:09:26.833949,13.42,12.12,13.42,13.42,1029,50,6.41,143,86,0.0,Clouds,overcast clouds,10
Almár,47.956111,20.356944,2026-03-09 10:09:28.033398,12.04,10.61,12.04,12.04,1030,50,1.94,222,11,0.0,Clouds,few clouds,10
Vasútmúzeum,47.543889,19.099444,2026-03-09 10:09:29.228347,13.78,12.47,13.78,13.78,1029,48,3.4,156,5,0.0,Clear,clear sky,10
Abda,47.690833,17.540556,2026-03-09 10:09:30.427701,14.17,12.92,14.17,14.17,1028,49,5.54,145,42,0.0,Clouds,scattered clouds,10
Vadaspark,47.526111,18.949167,2026-03-09 10:09:31.635791,12.25,10.81,12.25,12.25,1029,49,4.41,155,8,0.0,Clear,clear sky,10
Barosstelep,47.398889,18.989167,2026-03-09 10:09:32.834461,13.78,12.44,13.78,13.78,1029,47,5.01,155,6,0.0,Clear,clear sky,10
Fegyvernek-Örményes,47.194444,20.5575,2026-03-09 10:09:34.036106,13.6,12.3,13.6,13.6,1031,49,2.34,165,11,0.0,Clouds,few clouds,10
Zagyvapálfalva,48.068889,19.785,2026-03-09 10:09:35.232967,12.42,11.02,12.42,12.42,1030,50,1.59,208,6,0.0,Clear,clear sky,10
Salgótarján,48.105556,19.807222,2026-03-09 10:09:36.426310,11.77,10.31,11.77,11.77,1030,50,1.35,213,7,0.0,Clear,clear sky,10
Szabadisóstó,46.933889,18.118056,2026-03-09 10:09:37.635625,13.64,12.52,13.64,13.64,1029,56,5.67,146,47,0.0,Clouds,scattered clouds,10
Siófok,46.907778,18.053889,2026-03-09 10:09:38.836013,13.61,12.51,13.61,13.61,1029,57,5.47,144,44,0.0,Clouds,scattered clouds,10
Balatonszéplak felső,46.898056,18.018056,2026-03-09 10:09:40.035284,13.51,12.38,13.51,13.51,1029,56,5.43,142,45,0.0,Clouds,scattered clouds,10
Balatonszéplak alsó,46.891944,17.993333,2026-03-09 10:09:41.238944,13.61,12.46,13.61,13.61,1029,55,5.3,141,42,0.0,Clouds,scattered clouds,10
Zamárdi felső,46.886111,17.969444,2026-03-09 10:09:42.443300,13.62,12.47,13.62,13.62,1029,55,5.17,140,40,0.0,Clouds,scattered clouds,10
Zamárdi,46.88,17.944722,2026-03-09 10:09:43.641708,13.62,12.47,13.62,13.62,1029,55,5.17,140,40,0.0,Clouds,scattered clouds,10
Szántód,46.861944,17.899167,2026-03-09 10:09:44.845083,13.62,12.45,13.62,13.62,1028,54,5.03,136,41,0.0,Clouds,scattered clouds,10
Szőny-Déli,47.735278,18.141944,2026-03-09 10:09:46.047599,13.93,12.61,13.93,13.93,1029,47,6.43,150,42,0.0,Clouds,scattered clouds,10
Várpalota,47.194444,18.149167,2026-03-09 10:09:47.252477,13.06,11.73,13.06,13.06,1029,50,6.11,151,39,0.0,Clouds,scattered clouds,10
Pétfürdő,47.1675,18.121389,2026-03-09 10:09:48.453918,13.47,12.18,13.47,13.47,1029,50,6.06,151,39,0.0,Clouds,scattered clouds,10
Hajmáskér,47.141111,18.009444,2026-03-09 10:09:49.654094,13.04,11.73,13.04,13.04,1029,51,5.92,148,40,0.0,Clouds,scattered clouds,10
Veszprém,47.118889,17.91,2026-03-09 10:09:50.859578,12.96,11.67,12.96,12.96,1029,52,5.36,141,34,0.0,Clouds,scattered clouds,10
Herend,47.136944,17.760278,2026-03-09 10:09:52.061287,12.39,11.02,12.39,12.39,1028,51,5.15,134,32,0.0,Clouds,scattered clouds,10
Városlőd,47.144167,17.652778,2026-03-09 10:09:53.260887,12.25,10.84,12.25,12.25,1028,50,5.57,135,36,0.0,Clouds,scattered clouds,10
Városlőd-Kislőd,47.133889,17.631111,2026-03-09 10:09:54.459556,12.67,11.32,12.67,12.67,1028,51,5.5,134,34,0.0,Clouds,scattered clouds,10
Ajka,47.105902,17.572938,2026-03-09 10:09:55.656963,13.1,11.77,13.1,13.1,1028,50,5.76,135,34,0.0,Clouds,scattered clouds,10
Ajka-Gyártelep,47.096806,17.555219,2026-03-09 10:09:56.852523,13.1,11.77,13.1,13.1,1028,50,5.76,135,34,0.0,Clouds,scattered clouds,10
Devecser,47.1125,17.435278,2026-03-09 10:09:58.051488,13.49,12.2,13.49,13.49,1028,50,5.84,139,33,0.0,Clouds,scattered clouds,10
Somlóvásárhely,47.124444,17.369167,2026-03-09 10:09:59.255243,13.59,12.31,13.59,13.59,1028,50,5.62,142,29,0.0,Clouds,scattered clouds,10
Tüskevár,47.128611,17.331389,2026-03-09 10:10:00.456503,13.69,12.42,13.69,13.69,1028,50,5.49,143,27,0.0,Clouds,scattered clouds,10
Karakószörcsök,47.133611,17.287778,2026-03-09 10:10:01.668102,13.75,12.51,13.75,13.75,1028,51,5.35,144,25,0.0,Clouds,scattered clouds,10
Kerta,47.151944,17.237222,2026-03-09 10:10:02.875904,13.87,12.64,13.87,13.87,1028,51,5.09,147,21,0.0,Clouds,few clouds,10
Boba,47.183333,17.191389,2026-03-09 10:10:04.078566,13.85,12.62,13.85,13.85,1028,51,5.08,149,21,0.0,Clouds,few clouds,10
Börgönd,47.140278,18.515,2026-03-09 10:10:05.278861,13.57,12.24,13.57,13.57,1029,48,6.4,155,39,0.0,Clouds,scattered clouds,10
Belsőbáránd,47.102778,18.499722,2026-03-09 10:10:06.487449,13.51,12.17,13.51,13.51,1029,48,6.38,155,41,0.0,Clouds,scattered clouds,10
Zichyújfalu,47.124444,18.6725,2026-03-09 10:10:07.683151,13.57,12.21,13.57,13.57,1029,47,6.74,156,29,0.0,Clouds,scattered clouds,10
Seregélyes,47.121111,18.580556,2026-03-09 10:10:08.885824,13.71,12.36,13.71,13.71,1029,47,6.47,155,38,0.0,Clouds,scattered clouds,10
Polgárdi-Ipartelepek,47.079167,18.314444,2026-03-09 10:10:10.081387,13.25,11.94,13.25,13.25,1029,50,6.0,152,41,0.0,Clouds,scattered clouds,10
Polgárdi,47.07,18.284167,2026-03-09 10:10:11.277149,13.25,11.94,13.25,13.25,1029,50,6.0,152,41,0.0,Clouds,scattered clouds,10
Füle,47.05,18.255278,2026-03-09 10:10:12.483084,13.21,11.92,13.21,13.21,1029,51,5.98,151,43,0.0,Clouds,scattered clouds,10
Zánka-Erzsébettábor,46.8775,17.709167,2026-03-09 10:10:13.686683,13.68,12.49,13.68,13.68,1028,53,4.69,128,34,0.0,Clouds,scattered clouds,10
Csajág,47.033889,18.186389,2026-03-09 10:10:14.883170,13.32,12.09,13.32,13.32,1029,53,5.79,149,42,0.0,Clouds,scattered clouds,10
Balatonakarattya,47.017222,18.167778,2026-03-09 10:10:16.085270,13.32,12.09,13.32,13.32,1029,53,5.79,149,42,0.0,Clouds,scattered clouds,10
Csittényhegy,47.025278,18.1375,2026-03-09 10:10:17.292131,13.56,12.36,13.56,13.56,1029,53,5.7,148,40,0.0,Clouds,scattered clouds,10
Balatonkenese,47.0325,18.105556,2026-03-09 10:10:18.490121,13.68,12.49,13.68,13.68,1029,53,5.6,148,38,0.0,Clouds,scattered clouds,10
Balatonfűzfő,47.060278,18.0425,2026-03-09 10:10:19.686812,13.44,12.22,13.44,13.44,1029,53,5.34,145,33,0.0,Clouds,scattered clouds,10
Balatonalmádi,47.028333,18.015,2026-03-09 10:10:20.890178,13.62,12.45,13.62,13.62,1029,54,5.26,145,33,0.0,Clouds,scattered clouds,10
Káptalanfüred,47.008889,18.003889,2026-03-09 10:10:22.090644,12.74,11.48,12.74,12.74,1029,54,5.1,142,32,0.0,Clouds,scattered clouds,10
Alsóörs,46.985278,17.974722,2026-03-09 10:10:23.283609,12.74,11.48,12.74,12.74,1029,54,5.1,142,32,0.0,Clouds,scattered clouds,10
Csopak,46.974722,17.931111,2026-03-09 10:10:24.482128,13.11,11.89,13.11,13.11,1029,54,4.72,136,29,0.0,Clouds,scattered clouds,10
Balatonarács,46.9625,17.8975,2026-03-09 10:10:25.685385,13.11,11.89,13.11,13.11,1029,54,4.72,136,29,0.0,Clouds,scattered clouds,10
Balatonfüred,46.955833,17.883056,2026-03-09 10:10:26.882461,13.51,12.33,13.51,13.51,1028,54,4.65,133,31,0.0,Clouds,scattered clouds,10
Aszófő,46.925556,17.8325,2026-03-09 10:10:28.084015,13.47,12.26,13.47,13.47,1028,53,4.65,132,33,0.0,Clouds,scattered clouds,10
Örvényes,46.9125,17.818056,2026-03-09 10:10:29.278253,13.47,12.26,13.47,13.47,1028,53,4.65,132,33,0.0,Clouds,scattered clouds,10
Balatonudvari,46.904722,17.808056,2026-03-09 10:10:30.481312,12.97,11.71,12.97,12.97,1028,53,4.61,130,32,0.0,Clouds,scattered clouds,10
Fövenyes,46.893611,17.789444,2026-03-09 10:10:31.680021,13.59,12.39,13.59,13.59,1028,53,4.67,131,35,0.0,Clouds,scattered clouds,10
Balatonakali-Dörgicse,46.88,17.747778,2026-03-09 10:10:32.886347,13.25,12.01,13.25,13.25,1028,53,4.66,129,34,0.0,Clouds,scattered clouds,10
Zánka-Köveskál,46.872778,17.687778,2026-03-09 10:10:34.086182,13.3,12.07,13.3,13.3,1028,53,4.69,127,32,0.0,Clouds,scattered clouds,10
Balatonszepezd,46.851111,17.663056,2026-03-09 10:10:35.283216,13.67,12.48,13.67,13.67,1028,53,4.67,128,34,0.0,Clouds,scattered clouds,10
Szepezdfürdő,46.839722,17.649444,2026-03-09 10:10:36.482720,12.65,11.35,12.65,12.65,1028,53,4.64,127,32,0.0,Clouds,scattered clouds,10
Révfülöp,46.829167,17.632222,2026-03-09 10:10:37.680588,12.65,11.35,12.65,12.65,1028,53,4.64,127,32,0.0,Clouds,scattered clouds,10
Balatonrendes,46.824722,17.582778,2026-03-09 10:10:38.881366,13.31,12.08,13.31,13.31,1028,53,4.42,126,25,0.0,Clouds,scattered clouds,10
Ábrahámhegy,46.815,17.572222,2026-03-09 10:10:40.081450,13.31,12.08,13.31,13.31,1028,53,4.42,126,25,0.0,Clouds,scattered clouds,10
Badacsonyörs,46.805556,17.531667,2026-03-09 10:10:41.287941,13.58,12.38,13.58,13.58,1028,53,4.36,125,23,0.0,Clouds,few clouds,10
Kisújszállás,47.223889,20.751111,2026-03-09 10:10:42.481597,13.57,12.26,13.57,13.57,1031,49,1.57,174,10,0.0,Clear,clear sky,10
Karcag,47.303333,20.928056,2026-03-09 10:10:43.677403,13.47,12.13,13.47,13.47,1031,48,0.93,222,10,0.0,Clear,clear sky,10
Püspökladány,47.3275,21.128889,2026-03-09 10:10:44.875167,13.36,12.0,13.36,13.36,1031,48,1.0,277,9,0.0,Clear,clear sky,10
Kaba,47.368889,21.259444,2026-03-09 10:10:46.075383,13.26,11.87,13.26,13.26,1031,47,1.51,303,8,0.0,Clear,clear sky,10
Hajdúszoboszló,47.429444,21.406944,2026-03-09 10:10:47.271648,13.16,11.73,13.16,13.16,1031,46,2.39,311,7,0.0,Clear,clear sky,10
Ebes,47.462778,21.488889,2026-03-09 10:10:48.475190,13.14,11.71,13.14,13.14,1031,46,2.64,312,6,0.0,Clear,clear sky,10
Debrecen,47.520278,21.628611,2026-03-09 10:10:49.671588,13.09,11.66,13.09,13.09,1031,46,2.98,314,3,0.0,Clear,clear sky,10
Debrecen-Csapókert,47.540556,21.648056,2026-03-09 10:10:50.876569,12.95,11.5,12.95,12.95,1031,46,2.98,315,2,0.0,Clear,clear sky,10
Apafa,47.584045,21.655858,2026-03-09 10:10:52.082294,12.9,11.45,12.9,12.9,1031,46,2.97,314,1,0.0,Clear,clear sky,10
Bocskaikert,47.6425,21.666389,2026-03-09 10:10:53.288597,12.7,11.23,12.7,12.7,1031,46,2.7,313,1,0.0,Clear,clear sky,10
Hajdúhadház,47.686944,21.679167,2026-03-09 10:10:54.496696,12.77,11.3,12.77,12.77,1031,46,2.4,315,1,0.0,Clear,clear sky,10
Téglás,47.714722,21.684722,2026-03-09 10:10:55.702076,12.78,11.31,12.78,12.78,1031,46,2.19,316,1,0.0,Clear,clear sky,10
Újfehértó,47.814444,21.706389,2026-03-09 10:10:56.901110,12.88,11.45,12.88,12.88,1031,47,1.09,325,1,0.0,Clear,clear sky,10
Nyíregyháza,47.946667,21.705556,2026-03-09 10:10:58.099302,12.89,11.46,12.89,12.89,1031,47,0.82,100,1,0.0,Clear,clear sky,10
Sóstó,47.998051,21.729047,2026-03-09 10:10:59.300733,12.87,11.44,12.87,12.87,1031,47,1.88,123,1,0.0,Clear,clear sky,10
Sóstóhegy,48.012222,21.742778,2026-03-09 10:11:00.504415,12.96,11.54,12.96,12.96,1031,47,2.12,123,1,0.0,Clear,clear sky,10
Kemecse,48.065556,21.801667,2026-03-09 10:11:01.702912,12.99,11.55,12.99,12.99,1031,46,3.05,132,1,0.0,Clear,clear sky,10
Nyírbogdány,48.082222,21.855278,2026-03-09 10:11:02.904300,12.99,11.55,12.99,12.99,1031,46,3.49,135,0,0.0,Clear,clear sky,10
Kék,48.093333,21.883889,2026-03-09 10:11:04.106878,13.03,11.56,13.03,13.03,1031,45,4.03,138,0,0.0,Clear,clear sky,10
Demecser,48.111667,21.926667,2026-03-09 10:11:05.301430,13.06,11.6,13.06,13.06,1031,45,4.37,139,0,0.0,Clear,clear sky,10
Gégény,48.128333,21.951944,2026-03-09 10:11:06.498191,13.06,11.57,13.06,13.06,1031,44,4.63,140,0,0.0,Clear,clear sky,10
Pátroha,48.158611,21.996667,2026-03-09 10:11:07.704420,13.09,11.6,13.09,13.09,1031,44,4.81,140,0,0.0,Clear,clear sky,10
Ajak,48.1865,22.048972,2026-03-09 10:11:08.899544,13.1,11.61,13.1,13.1,1031,44,4.94,141,0,0.0,Clear,clear sky,10
Kisvárda,48.208333,22.078333,2026-03-09 10:11:10.098576,13.12,11.64,13.12,13.12,1031,44,5.11,141,0,0.0,Clear,clear sky,10
Kisvárda-Hármasút,48.228333,22.091944,2026-03-09 10:11:11.294164,13.12,11.64,13.12,13.12,1031,44,5.11,141,0,0.0,Clear,clear sky,10
Fényeslitke,48.267222,22.107222,2026-03-09 10:11:12.492128,13.08,11.59,13.08,13.08,1031,44,5.03,142,0,0.0,Clear,clear sky,10
Komoró,48.305278,22.118056,2026-03-09 10:11:13.687425,13.1,11.61,13.1,13.1,1031,44,4.97,142,0,0.0,Clear,clear sky,10
Tuzsér,48.342222,22.131667,2026-03-09 10:11:14.885863,13.06,11.57,13.06,13.06,1031,44,4.87,143,0,0.0,Clear,clear sky,10
Tiszabezdéd,48.371389,22.145,2026-03-09 10:11:16.086316,13.07,11.58,13.07,13.07,1031,44,4.79,143,0,0.0,Clear,clear sky,10
Záhony,48.402222,22.183611,2026-03-09 10:11:17.286417,13.06,11.57,13.06,13.06,1031,44,4.63,144,0,0.0,Clear,clear sky,10
Karcag-Vásártér,47.3225,20.9075,2026-03-09 10:11:18.482518,13.47,12.13,13.47,13.47,1031,48,0.93,222,10,0.0,Clear,clear sky,10
Berekfürdő,47.374722,20.827222,2026-03-09 10:11:19.684659,13.54,12.23,13.54,13.54,1031,49,1.2,217,11,0.0,Clouds,few clouds,10
Kunmadaras,47.415278,20.793056,2026-03-09 10:11:20.879608,13.57,12.24,13.57,13.57,1031,48,1.32,224,11,0.0,Clouds,few clouds,10
Tiszaszentimre,47.490833,20.733056,2026-03-09 10:11:22.079845,13.68,12.36,13.68,13.68,1030,48,1.6,232,11,0.0,Clouds,few clouds,10
Tiszaszőlős,47.555556,20.728056,2026-03-09 10:11:23.281104,13.56,12.22,13.56,13.56,1030,48,1.8,242,12,0.0,Clouds,few clouds,10
Hosszúhát,47.235556,21.101944,2026-03-09 10:11:24.485197,13.37,12.02,13.37,13.37,1031,48,0.42,252,9,0.0,Clear,clear sky,10
Szerep,47.234444,21.145833,2026-03-09 10:11:25.687351,13.35,11.99,13.35,13.35,1031,48,0.43,271,9,0.0,Clear,clear sky,10
Sárrétudvari,47.231667,21.180833,2026-03-09 10:11:26.885273,13.32,11.93,13.32,13.32,1031,47,0.48,288,8,0.0,Clear,clear sky,10
Biharnagybajom,47.208889,21.221944,2026-03-09 10:11:28.107254,13.29,11.9,13.29,13.29,1031,47,0.49,317,7,0.0,Clear,clear sky,10
Füzesgyarmat,47.113056,21.194444,2026-03-09 10:11:29.309203,13.33,11.97,13.33,13.33,1031,48,0.52,112,8,0.0,Clear,clear sky,10
Füzesgyarmatfürdő,47.093787,21.201582,2026-03-09 10:11:30.510322,13.33,11.97,13.33,13.33,1031,48,0.52,112,8,0.0,Clear,clear sky,10
Báránd,47.299722,21.235278,2026-03-09 10:11:31.708664,13.31,11.92,13.31,13.31,1031,47,1.12,301,8,0.0,Clear,clear sky,10
Sáp,47.259722,21.360556,2026-03-09 10:11:32.915684,13.24,11.82,13.24,13.24,1031,46,1.11,319,7,0.0,Clear,clear sky,10
Berettyóújfalu,47.211944,21.535556,2026-03-09 10:11:34.116232,13.11,11.63,13.11,13.11,1031,44,1.57,339,6,0.0,Clear,clear sky,10
Mezőpeterd,47.176111,21.625278,2026-03-09 10:11:35.314933,13.05,11.56,13.05,13.05,1031,44,1.73,346,6,0.0,Clear,clear sky,10
Biharkeresztes,47.135556,21.721389,2026-03-09 10:11:36.513494,12.93,11.38,12.93,12.93,1031,42,1.96,354,4,0.0,Clear,clear sky,10
Tócóvölgy,47.529444,21.588889,2026-03-09 10:11:37.707847,13.11,11.68,13.11,13.11,1031,46,2.96,313,3,0.0,Clear,clear sky,10
Sáregres,46.7825,18.588889,2026-03-09 10:11:38.905069,13.6,12.27,13.6,13.6,1029,48,7.01,150,47,0.0,Clouds,scattered clouds,10
Simontornya,46.756582,18.540674,2026-03-09 10:11:40.111859,13.48,12.16,13.48,13.48,1029,49,6.83,149,57,0.0,Clouds,broken clouds,10
Tolnanémedi,46.727778,18.475833,2026-03-09 10:11:41.315705,13.53,12.22,13.53,13.53,1029,49,6.76,148,63,0.0,Clouds,broken clouds,10
Pincehely,46.681389,18.43,2026-03-09 10:11:42.515691,13.33,12.02,13.33,13.33,1029,50,6.53,145,83,0.0,Clouds,broken clouds,10
Keszőhidegkút-Gyönk,46.597778,18.426111,2026-03-09 10:11:43.712461,13.32,12.01,13.32,13.32,1029,50,6.35,142,87,0.0,Clouds,overcast clouds,10
Szárazd,46.575556,18.420833,2026-03-09 10:11:44.915307,13.34,12.04,13.34,13.34,1029,50,6.3,141,88,0.0,Clouds,overcast clouds,10
Regöly,46.568889,18.396111,2026-03-09 10:11:46.114352,13.34,12.04,13.34,13.34,1029,50,6.3,141,88,0.0,Clouds,overcast clouds,10
Szakály-Hőgyész,46.523611,18.389444,2026-03-09 10:11:47.310979,13.2,11.88,13.2,13.2,1029,50,6.14,139,94,0.0,Clouds,overcast clouds,10
Dúzs,46.493889,18.377222,2026-03-09 10:11:48.509518,13.22,11.9,13.22,13.22,1029,50,6.11,139,96,0.0,Clouds,overcast clouds,10
Csibrák,46.466667,18.336389,2026-03-09 10:11:49.703078,13.25,11.94,13.25,13.25,1029,50,6.0,138,99,0.0,Clouds,overcast clouds,10
Kurd,46.449167,18.319167,2026-03-09 10:11:50.899224,12.88,11.53,12.88,12.88,1029,50,5.98,138,100,0.0,Clouds,overcast clouds,10
Döbrököz,46.418889,18.255,2026-03-09 10:11:52.098864,13.15,11.85,13.15,13.15,1028,51,5.77,137,100,0.0,Clouds,overcast clouds,10
Dombóvár,46.37,18.149722,2026-03-09 10:11:53.306641,13.12,11.82,13.12,13.12,1028,51,5.3,135,96,0.0,Clouds,overcast clouds,10
Dombóvár alsó,46.363889,18.134167,2026-03-09 10:11:54.509216,13.12,11.82,13.12,13.12,1028,51,5.3,135,96,0.0,Clouds,overcast clouds,10
Somoskőújfalu,48.154722,19.815556,2026-03-09 10:11:55.710956,10.66,9.09,10.66,10.66,1030,50,1.12,216,7,0.0,Clear,clear sky,10
Jászfényszaru,47.593056,19.754444,2026-03-09 10:11:56.915717,13.33,12.0,13.33,13.33,1030,49,2.59,168,5,0.0,Clear,clear sky,10
Pusztamonostor,47.564444,19.794167,2026-03-09 10:11:58.118476,13.34,12.01,13.34,13.34,1030,49,2.59,171,5,0.0,Clear,clear sky,10
Jászberény,47.494444,19.893333,2026-03-09 10:11:59.326333,13.45,12.1,13.45,13.45,1030,48,2.75,173,5,0.0,Clear,clear sky,10
Meggyespele,47.441944,19.938889,2026-03-09 10:12:00.527041,13.52,12.18,13.52,13.52,1030,48,2.84,175,6,0.0,Clear,clear sky,10
Portelek,47.418056,19.958889,2026-03-09 10:12:01.725385,13.54,12.2,13.54,13.54,1030,48,2.95,172,6,0.0,Clear,clear sky,10
Jászboldogháza-Jánoshida,47.366944,20.001389,2026-03-09 10:12:02.920323,13.55,12.21,13.55,13.55,1030,48,3.12,169,6,0.0,Clear,clear sky,10
Jászárokszállás,47.635556,19.971111,2026-03-09 10:12:04.114887,13.36,12.03,13.36,13.36,1030,49,2.36,190,8,0.0,Clear,clear sky,10
Jászdózsa,47.563056,20.028056,2026-03-09 10:12:05.326356,13.43,12.11,13.43,13.43,1030,49,2.49,191,8,0.0,Clear,clear sky,10
Jászapáti,47.513611,20.155,2026-03-09 10:12:06.529284,13.47,12.13,13.47,13.47,1030,48,2.54,193,9,0.0,Clear,clear sky,10
Jászkisér,47.456111,20.203333,2026-03-09 10:12:07.733986,13.54,12.2,13.54,13.54,1030,48,2.58,188,9,0.0,Clear,clear sky,10
Jászladány,47.373333,20.159167,2026-03-09 10:12:08.933120,13.59,12.26,13.59,13.59,1031,48,2.84,175,8,0.0,Clear,clear sky,10
Szászberek,47.320556,20.090833,2026-03-09 10:12:10.127911,13.58,12.25,13.58,13.58,1030,48,3.05,169,7,0.0,Clear,clear sky,10
Gyöngyöshalász,47.743056,19.932222,2026-03-09 10:12:11.328043,13.08,11.75,13.08,13.08,1030,50,2.12,193,8,0.0,Clear,clear sky,10
Gyöngyös,47.783056,19.937222,2026-03-09 10:12:12.529886,12.71,11.34,12.71,12.71,1030,50,2.1,199,8,0.0,Clear,clear sky,10
Erdőtelek,47.683333,20.3025,2026-03-09 10:12:13.725009,13.22,11.9,13.22,13.22,1030,50,2.44,223,12,0.0,Clouds,few clouds,10
Heves,47.609444,20.306111,2026-03-09 10:12:14.922858,13.4,12.08,13.4,13.4,1030,49,2.43,212,12,0.0,Clouds,few clouds,10
Hevesvezekény,47.562222,20.365833,2026-03-09 10:12:16.128372,13.52,12.21,13.52,13.52,1030,49,2.39,212,12,0.0,Clouds,few clouds,10
Tarnaszentmiklós,47.546944,20.390833,2026-03-09 10:12:17.334992,13.57,12.26,13.57,13.57,1030,49,2.38,208,12,0.0,Clouds,few clouds,10
Kisköre,47.495556,20.481667,2026-03-09 10:12:18.535228,13.82,12.51,13.82,13.82,1030,48,2.15,209,12,0.0,Clouds,few clouds,10
Abádszalók,47.455278,20.553056,2026-03-09 10:12:19.736786,13.94,12.64,13.94,13.94,1030,48,2.06,206,12,0.0,Clouds,few clouds,10
Kunhegyes,47.376667,20.641111,2026-03-09 10:12:20.934420,13.77,12.48,13.77,13.77,1031,49,1.71,201,12,0.0,Clouds,few clouds,10
Kenderes,47.254444,20.686111,2026-03-09 10:12:22.135490,13.62,12.32,13.62,13.62,1031,49,1.82,176,11,0.0,Clouds,few clouds,10
Maklár,47.808056,20.404722,2026-03-09 10:12:23.514303,13.0,11.66,13.0,13.0,1030,50,2.44,233,13,0.0,Clouds,few clouds,10
Andornaktálya,47.852203,20.402295,2026-03-09 10:12:24.716684,12.81,11.45,12.81,12.81,1030,50,2.34,232,13,0.0,Clouds,few clouds,10
Eger,47.891667,20.381667,2026-03-09 10:12:25.926373,12.7,11.33,12.7,12.7,1030,50,2.27,228,12,0.0,Clouds,few clouds,10
Egervár,47.908056,20.380556,2026-03-09 10:12:27.126124,12.82,11.46,12.82,12.82,1030,50,2.19,227,12,0.0,Clouds,few clouds,10
Eger-Felnémet,47.936667,20.370556,2026-03-09 10:12:28.323073,12.75,11.39,12.75,12.75,1030,50,2.08,226,12,0.0,Clouds,few clouds,10
Szarvaskő,47.988611,20.3325,2026-03-09 10:12:29.536664,12.14,10.72,12.14,12.14,1030,50,1.79,221,11,0.0,Clouds,few clouds,10
Mónosbél,48.031944,20.33,2026-03-09 10:12:30.730310,12.22,10.8,12.22,12.22,1030,50,1.45,222,10,0.0,Clear,clear sky,10
Bélapátfalva,48.055556,20.340556,2026-03-09 10:12:31.930410,11.95,10.51,11.95,11.95,1030,50,1.27,225,9,0.0,Clear,clear sky,10
Bélapátfalvi Cementgyár,48.058056,20.355,2026-03-09 10:12:33.130236,11.95,10.51,11.95,11.95,1030,50,1.27,225,9,0.0,Clear,clear sky,10
Szilvásvárad,48.11345,20.37919,2026-03-09 10:12:34.326336,11.6,10.12,11.6,11.6,1030,50,0.87,239,8,0.0,Clear,clear sky,10
Hejőkeresztúr,47.960278,20.869444,2026-03-09 10:12:35.527074,12.71,11.32,12.71,12.71,1030,49,0.34,118,8,0.0,Clear,clear sky,10
Tiszaújváros,47.926111,21.030556,2026-03-09 10:12:36.726410,12.81,11.43,12.81,12.81,1030,49,0.56,348,7,0.0,Clear,clear sky,10
Miskolc-Gömöri,48.106667,20.800278,2026-03-09 10:12:37.922667,12.22,10.78,12.22,12.22,1030,49,1.17,106,6,0.0,Clear,clear sky,10
Sajókeresztúr,48.168008,20.774014,2026-03-09 10:12:39.125688,12.33,10.9,12.33,12.33,1030,49,1.1,97,6,0.0,Clear,clear sky,10
Sajóecseg,48.186111,20.766667,2026-03-09 10:12:40.319872,12.49,11.07,12.49,12.49,1030,49,1.06,95,5,0.0,Clear,clear sky,10
Sajószentpéter,48.222222,20.708056,2026-03-09 10:12:41.524370,12.58,11.17,12.58,12.58,1030,49,1.0,88,5,0.0,Clear,clear sky,10
Kazincbarcika,48.264444,20.6275,2026-03-09 10:12:42.722170,12.74,11.35,12.74,12.74,1030,49,0.68,61,5,0.0,Clear,clear sky,10
Sajókaza,48.272778,20.581944,2026-03-09 10:12:43.922214,12.77,11.38,12.77,12.77,1030,49,0.58,51,5,0.0,Clear,clear sky,10
Vadna,48.276389,20.555278,2026-03-09 10:12:45.123633,12.77,11.38,12.77,12.77,1030,49,0.58,51,5,0.0,Clear,clear sky,10
Dubicsány,48.280833,20.504722,2026-03-09 10:12:46.327734,12.82,11.44,12.82,12.82,1030,49,0.34,8,5,0.0,Clear,clear sky,10
Raposka,46.851389,17.412778,2026-03-09 10:12:47.534041,13.7,12.48,13.7,13.7,1028,52,4.16,125,17,0.0,Clouds,few clouds,10
Ivacs,47.641944,19.273889,2026-03-09 10:12:48.733580,13.01,11.62,13.01,13.01,1030,48,3.57,159,5,0.0,Clear,clear sky,10
Kisköre-Tiszahíd,47.480835,20.507698,2026-03-09 10:12:49.951475,13.86,12.55,13.86,13.86,1030,48,2.12,205,12,0.0,Clouds,few clouds,10
Rozsály,47.912778,22.7825,2026-03-09 10:12:51.153411,13.44,11.78,13.44,13.44,1031,36,5.17,142,0,0.0,Clear,clear sky,10
Pusztakettős,47.453611,20.749722,2026-03-09 10:12:52.352860,13.63,12.3,13.63,13.63,1031,48,1.41,225,11,0.0,Clouds,few clouds,10
Kisvác,47.795278,19.113611,2026-03-09 10:12:53.548459,13.42,12.07,13.42,13.42,1030,48,4.19,163,3,0.0,Clear,clear sky,10
Tiszafüred-Gyártelep,47.6075,20.736111,2026-03-09 10:12:54.751024,13.44,12.09,13.44,13.44,1030,48,2.04,251,12,0.0,Clouds,few clouds,10
Újkenéz,48.251111,22.221667,2026-03-09 10:12:55.950782,13.05,11.53,13.05,13.05,1031,43,5.09,142,0,0.0,Clear,clear sky,10
Püspökladány-Vásártér,47.319167,21.096111,2026-03-09 10:12:57.146285,13.36,12.0,13.36,13.36,1031,48,0.86,273,9,0.0,Clear,clear sky,10
Végegyháza alsó,46.3675,20.866944,2026-03-09 10:12:58.348577,13.5,12.71,13.5,13.5,1030,69,2.37,153,2,0.0,Clear,clear sky,10
Orosháza felső,46.553611,20.655278,2026-03-09 10:12:59.548612,13.56,12.49,13.56,13.56,1030,58,2.81,160,3,0.0,Clear,clear sky,10
Ambrózfalva,46.353056,20.740556,2026-03-09 10:13:00.750119,13.52,12.65,13.52,13.52,1030,66,2.7,160,3,0.0,Clear,clear sky,10
Alsónyék,46.199444,18.738056,2026-03-09 10:13:01.956428,13.25,11.83,13.25,13.25,1029,46,7.08,138,90,0.0,Clouds,overcast clouds,10
Tompapuszta,46.321389,20.966389,2026-03-09 10:13:03.153266,13.49,12.8,13.49,13.49,1030,73,2.05,146,3,0.0,Clear,clear sky,10
Halászlak,46.911879,20.56228,2026-03-09 10:13:04.347344,13.58,12.3,13.58,13.58,1030,50,3.12,148,6,0.0,Clear,clear sky,10
Sirató,46.840556,20.61,2026-03-09 10:13:05.552168,13.59,12.36,13.59,13.59,1030,52,3.14,150,5,0.0,Clear,clear sky,10
Csabacsűd felső,46.829167,20.649167,2026-03-09 10:13:06.766094,13.57,12.34,13.57,13.57,1030,52,3.18,150,5,0.0,Clear,clear sky,10
Orosháza-Üveggyár,46.579979,20.683644,2026-03-09 10:13:07.972351,13.52,12.44,13.52,13.52,1030,58,2.81,159,3,0.0,Clear,clear sky,10
Gyulai városerdő,46.69482,21.32281,2026-03-09 10:13:09.168578,13.35,12.23,13.35,13.35,1031,57,2.68,118,7,0.0,Clear,clear sky,10
Kórógyszentgyörgy,46.564377,20.224998,2026-03-09 10:13:10.367227,13.76,12.42,13.76,13.76,1030,47,4.66,151,5,0.0,Clear,clear sky,10
Kunszállás,46.784444,19.767222,2026-03-09 10:13:11.563569,13.72,12.32,13.72,13.72,1031,45,6.06,151,6,0.0,Clear,clear sky,10
Selymes,46.655321,19.8534,2026-03-09 10:13:12.762383,13.96,12.59,13.96,13.96,1031,45,6.27,150,7,0.0,Clear,clear sky,10
Petőfiszállási tanyák,46.587805,19.874509,2026-03-09 10:13:13.961313,13.91,12.53,13.91,13.91,1030,45,6.36,149,7,0.0,Clear,clear sky,10
Kisteleki szőlők,46.514199,19.92868,2026-03-09 10:13:15.161235,13.79,12.4,13.79,13.79,1030,45,6.38,149,7,0.0,Clear,clear sky,10
Kapitányság,46.435336,19.987564,2026-03-09 10:13:16.361279,13.78,12.41,13.78,13.78,1030,46,6.43,149,6,0.0,Clear,clear sky,10
Őszeszék,46.39025,20.016017,2026-03-09 10:13:17.560190,13.75,12.41,13.75,13.75,1030,47,6.58,149,6,0.0,Clear,clear sky,10
Vilmaszállás,46.366389,20.030833,2026-03-09 10:13:18.758926,13.73,12.41,13.73,13.73,1030,48,6.71,149,6,0.0,Clear,clear sky,10
Jánosszállás,46.334359,20.051199,2026-03-09 10:13:19.962517,13.72,12.4,13.72,13.72,1030,48,6.85,149,6,0.0,Clear,clear sky,10
Felsőpakony,47.343056,19.230556,2026-03-09 10:13:21.156918,13.64,12.29,13.64,13.64,1030,47,4.67,157,6,0.0,Clear,clear sky,10
Felsőméntelek,46.987074,19.557745,2026-03-09 10:13:22.357471,13.37,11.96,13.37,13.37,1030,46,5.98,155,7,0.0,Clear,clear sky,10
Alsóméntelek,46.961558,19.579121,2026-03-09 10:13:23.561272,13.38,11.97,13.38,13.38,1030,46,6.04,154,7,0.0,Clear,clear sky,10
Nagynyír,46.943319,19.585447,2026-03-09 10:13:24.756589,13.39,11.99,13.39,13.39,1030,46,6.11,154,7,0.0,Clear,clear sky,10
Úrihegy,46.917778,19.621389,2026-03-09 10:13:25.957698,13.45,12.05,13.45,13.45,1030,46,6.12,153,6,0.0,Clear,clear sky,10
Miklóstelep,46.913412,19.630913,2026-03-09 10:13:27.159926,13.45,12.05,13.45,13.45,1030,46,6.04,153,7,0.0,Clear,clear sky,10
Tiszajenő alsó,47.016944,20.134444,2026-03-09 10:13:28.353713,13.62,12.26,13.62,13.62,1030,47,3.89,155,5,0.0,Clear,clear sky,10
Óbög,46.987222,20.111111,2026-03-09 10:13:29.551776,13.64,12.29,13.64,13.64,1030,47,4.08,155,5,0.0,Clear,clear sky,10
Árpádszállás,46.866456,19.989163,2026-03-09 10:13:30.752072,13.68,12.28,13.68,13.68,1030,45,5.03,154,7,0.0,Clear,clear sky,10
Tőserdő,46.851111,19.980278,2026-03-09 10:13:31.950011,13.74,12.32,13.74,13.74,1030,44,5.1,154,7,0.0,Clear,clear sky,10
Tiszaalpár felső,46.836256,19.976753,2026-03-09 10:13:33.170849,13.74,12.32,13.74,13.74,1030,44,5.1,154,7,0.0,Clear,clear sky,10
Borsihalom,46.773056,19.92,2026-03-09 10:13:34.370682,13.83,12.44,13.83,13.83,1030,45,5.51,153,7,0.0,Clear,clear sky,10
Petőfiváros,46.725556,19.848611,2026-03-09 10:13:35.569282,13.97,12.6,13.97,13.97,1031,45,6.0,151,7,0.0,Clear,clear sky,10
Csorna,47.601944,17.248889,2026-03-09 10:13:36.764676,14.18,12.93,14.18,14.18,1027,49,5.16,159,25,0.0,Clouds,scattered clouds,10
Szorgalmatos,47.986667,21.366389,2026-03-09 10:13:37.963321,12.88,11.5,12.88,12.88,1030,49,1.27,39,1,0.0,Clear,clear sky,10
Fótfürdő,47.6225,19.200556,2026-03-09 10:13:39.164241,13.42,12.07,13.42,13.42,1029,48,3.41,159,4,0.0,Clear,clear sky,10
Fenyveshegy,47.818333,19.068056,2026-03-09 10:13:40.363324,13.63,12.3,13.63,13.63,1030,48,4.13,162,3,0.0,Clear,clear sky,10
Hűvösvölgy,47.541202,18.96351,2026-03-09 10:13:41.557985,12.54,11.13,12.54,12.54,1029,49,4.31,156,8,0.0,Clear,clear sky,10
Hárshegy,47.535318,18.961433,2026-03-09 10:13:42.745047,12.54,11.13,12.54,12.54,1029,49,4.31,156,8,0.0,Clear,clear sky,10
Szépjuhászné,47.528277,18.955246,2026-03-09 10:13:43.949601,12.25,10.81,12.25,12.25,1029,49,4.41,155,8,0.0,Clear,clear sky,10
Jánoshegy,47.51433,18.95047,2026-03-09 10:13:45.148592,12.25,10.81,12.25,12.25,1029,49,4.41,155,8,0.0,Clear,clear sky,10
Virágvölgy,47.505965,18.95876,2026-03-09 10:13:46.348832,12.41,10.96,12.41,12.41,1029,48,4.53,155,8,0.0,Clear,clear sky,10
Csillebérc,47.498196,18.961694,2026-03-09 10:13:47.552036,12.41,10.96,12.41,12.41,1029,48,4.53,155,8,0.0,Clear,clear sky,10
Normafa,47.5,18.970558,2026-03-09 10:13:48.750156,12.41,10.96,12.41,12.41,1029,48,4.53,155,8,0.0,Clear,clear sky,10
Széchenyihegy,47.49413,18.977049,2026-03-09 10:13:49.952455,11.59,10.06,11.59,11.59,1029,48,4.26,155,7,0.0,Clear,clear sky,10
Balatonfőkajár felső,47.031389,18.215278,2026-03-09 10:13:51.153871,13.45,12.21,13.45,13.45,1029,52,5.88,149,44,0.0,Clouds,scattered clouds,10
Piroska,47.148333,20.129722,2026-03-09 10:13:52.352522,13.55,12.21,13.55,13.55,1031,48,3.46,159,6,0.0,Clear,clear sky,10
Somodor,46.4725,17.836667,2026-03-09 10:13:53.546551,13.12,11.82,13.12,13.12,1028,51,5.02,131,59,0.0,Clouds,broken clouds,10
Középmező,45.995833,18.668889,2026-03-09 10:13:54.744662,13.05,11.61,13.05,13.05,1028,46,6.36,130,71,0.0,Clouds,broken clouds,10
Jobbágyi,47.828889,19.6875,2026-03-09 10:13:55.952444,13.08,11.75,13.08,13.08,1030,50,2.47,172,5,0.0,Clear,clear sky,10
Ferihegy,47.437222,19.223889,2026-03-09 10:13:57.152343,13.51,12.17,13.51,13.51,1030,48,3.69,157,5,0.0,Clear,clear sky,10
Máriapócs,47.852778,22.019167,2026-03-09 10:13:58.348644,12.78,11.29,12.78,12.78,1031,45,3.02,127,0,0.0,Clear,clear sky,10
Máriaudvar,47.751944,19.165,2026-03-09 10:13:59.553244,13.67,12.35,13.67,13.67,1030,48,4.0,162,3,0.0,Clear,clear sky,10
Nagyberki,46.353333,18.004167,2026-03-09 10:14:00.761378,13.03,11.72,13.03,13.03,1028,51,4.94,133,76,0.0,Clouds,broken clouds,10
Badacsonytomaj,46.804722,17.518056,2026-03-09 10:14:01.969692,13.58,12.38,13.58,13.58,1028,53,4.36,125,23,0.0,Clouds,few clouds,10
Badacsony,46.788611,17.506389,2026-03-09 10:14:03.162849,13.63,12.43,13.63,13.63,1028,53,4.15,124,21,0.0,Clouds,few clouds,10
Badacsonylábdihegy,46.793889,17.470833,2026-03-09 10:14:04.359860,13.63,12.43,13.63,13.63,1028,53,4.15,124,21,0.0,Clouds,few clouds,10
Badacsonytördemic-Szigliget,46.809722,17.469167,2026-03-09 10:14:05.558107,13.64,12.44,13.64,13.64,1028,53,4.29,125,21,0.0,Clouds,few clouds,10
Nemesgulács-Kisapáti,46.836944,17.476389,2026-03-09 10:14:06.757564,13.67,12.48,13.67,13.67,1028,53,4.45,125,21,0.0,Clouds,few clouds,10
Tapolca,46.877778,17.428611,2026-03-09 10:14:07.953935,13.67,12.45,13.67,13.67,1028,52,4.33,126,18,0.0,Clouds,few clouds,10
Uzsabánya alsó,46.898333,17.345278,2026-03-09 10:14:09.163219,12.64,11.32,12.64,12.64,1028,52,4.25,128,16,0.0,Clouds,few clouds,10
Uzsa,46.920278,17.331667,2026-03-09 10:14:10.357369,13.44,12.2,13.44,13.44,1028,52,4.41,131,17,0.0,Clouds,few clouds,10
Sümegi Bazaltbánya,46.9525,17.2925,2026-03-09 10:14:11.554996,13.48,12.24,13.48,13.48,1028,52,4.44,133,16,0.0,Clouds,few clouds,10
Sümeg,46.981111,17.270833,2026-03-09 10:14:12.756010,13.68,12.46,13.68,13.68,1028,52,4.36,137,14,0.0,Clouds,few clouds,10
Gógánfa,47.021111,17.207778,2026-03-09 10:14:13.962124,13.71,12.47,13.71,13.71,1028,51,4.54,141,14,0.0,Clouds,few clouds,10
Ukk,47.041944,17.195833,2026-03-09 10:14:15.167933,13.78,12.55,13.78,13.78,1028,51,4.57,143,14,0.0,Clouds,few clouds,10
Nemeskeresztúr,47.093611,17.183611,2026-03-09 10:14:16.361015,13.73,12.49,13.73,13.73,1028,51,4.79,146,17,0.0,Clouds,few clouds,10
Jánosháza,47.115833,17.171667,2026-03-09 10:14:17.560049,13.81,12.58,13.81,13.81,1028,51,4.89,147,18,0.0,Clouds,few clouds,10
Keszthely,46.758333,17.248056,2026-03-09 10:14:18.756291,13.63,12.38,13.63,13.63,1028,51,3.81,124,16,0.0,Clouds,few clouds,10
Alsógyenes,46.765844,17.276435,2026-03-09 10:14:19.965060,13.67,12.42,13.67,13.67,1028,51,3.73,122,16,0.0,Clouds,few clouds,10
Gyenesdiás,46.763333,17.292778,2026-03-09 10:14:21.166378,13.67,12.42,13.67,13.67,1028,51,3.73,122,16,0.0,Clouds,few clouds,10
Vonyarcvashegy,46.755278,17.318333,2026-03-09 10:14:22.364579,13.1,11.8,13.1,13.1,1028,51,3.73,121,16,0.0,Clouds,few clouds,10
Balatongyörök,46.751944,17.354444,2026-03-09 10:14:23.560249,13.67,12.42,13.67,13.67,1028,51,3.76,121,16,0.0,Clouds,few clouds,10
Becehegy,46.776111,17.372778,2026-03-09 10:14:24.758677,12.54,11.21,12.54,12.54,1028,52,3.84,122,16,0.0,Clouds,few clouds,10
Balatonederics,46.8025,17.385,2026-03-09 10:14:25.958958,12.49,11.15,12.49,12.49,1028,52,3.94,123,16,0.0,Clouds,few clouds,10
Dabronc,47.025766,17.167006,2026-03-09 10:14:27.159973,13.75,12.54,13.75,13.75,1028,52,4.46,142,13,0.0,Clouds,few clouds,10
Türje,46.994444,17.093611,2026-03-09 10:14:28.355273,13.73,12.52,13.73,13.73,1028,52,4.28,142,12,0.0,Clouds,few clouds,10
Zalabér-Batyk,46.983056,17.040833,2026-03-09 10:14:29.557512,13.83,12.63,13.83,13.83,1028,52,4.26,144,15,0.0,Clouds,few clouds,10
Pakod,46.959167,16.996667,2026-03-09 10:14:30.757474,13.73,12.54,13.73,13.73,1027,53,4.3,145,17,0.0,Clouds,few clouds,10
Pókaszepetk,46.924444,16.972222,2026-03-09 10:14:31.958674,13.8,12.62,13.8,13.8,1028,53,4.27,142,18,0.0,Clouds,few clouds,10
Kemendollár,46.905833,16.946667,2026-03-09 10:14:33.170446,13.52,12.31,13.52,13.52,1027,53,4.3,143,20,0.0,Clouds,few clouds,10
Zalaegerszeg,46.833056,16.848333,2026-03-09 10:14:34.374652,13.57,12.39,13.57,13.57,1027,54,4.11,141,35,0.0,Clouds,scattered clouds,10
Bocfölde,46.780278,16.853611,2026-03-09 10:14:35.584945,13.61,12.44,13.61,13.61,1027,54,4.11,137,34,0.0,Clouds,scattered clouds,10
Sárhida,46.755833,16.851389,2026-03-09 10:14:36.782214,12.81,11.56,12.81,12.81,1027,54,3.97,136,39,0.0,Clouds,scattered clouds,10
Bak,46.7325,16.849167,2026-03-09 10:14:37.981689,13.22,12.01,13.22,13.22,1027,54,3.95,135,40,0.0,Clouds,scattered clouds,10
Tófej,46.670833,16.801944,2026-03-09 10:14:39.196435,13.05,11.82,13.05,13.05,1027,54,3.8,132,46,0.0,Clouds,scattered clouds,10
Gutorfölde,46.646944,16.739722,2026-03-09 10:14:40.391352,13.31,12.13,13.31,13.31,1027,55,3.64,131,50,0.0,Clouds,scattered clouds,10
Csömödér-Páka,46.608056,16.641111,2026-03-09 10:14:41.587832,13.52,12.36,13.52,13.52,1027,55,3.75,129,52,0.0,Clouds,broken clouds,10
Iklódbördőce,46.603056,16.604722,2026-03-09 10:14:42.795356,13.35,12.2,13.35,13.35,1027,56,3.88,130,50,0.0,Clouds,scattered clouds,10
Lenti,46.621389,16.528611,2026-03-09 10:14:44.010424,13.55,12.45,13.55,13.55,1027,57,3.96,132,49,0.0,Clouds,scattered clouds,10
Rédics,46.618056,16.471111,2026-03-09 10:14:45.211909,13.55,12.45,13.55,13.55,1027,57,4.03,133,49,0.0,Clouds,scattered clouds,10
Zalalövő,46.845556,16.576389,2026-03-09 10:14:46.417141,13.44,12.33,13.44,13.44,1027,57,3.73,144,50,0.0,Clouds,scattered clouds,10
Zalaegerszeg-Ola,46.849167,16.844722,2026-03-09 10:14:47.613370,13.57,12.39,13.57,13.57,1027,54,4.11,141,35,0.0,Clouds,scattered clouds,10
Andráshida,46.863116,16.7792,2026-03-09 10:14:48.818019,13.55,12.4,13.55,13.55,1027,55,4.13,143,38,0.0,Clouds,scattered clouds,10
Bagod,46.875,16.746111,2026-03-09 10:14:50.012436,13.65,12.51,13.65,13.65,1027,55,4.03,144,42,0.0,Clouds,scattered clouds,10
Zalaszentgyörgy,46.872222,16.7125,2026-03-09 10:14:51.212147,13.6,12.45,13.6,13.6,1027,55,3.99,144,44,0.0,Clouds,scattered clouds,10
Zalacséb-Salomvár,46.858056,16.662222,2026-03-09 10:14:52.416662,13.37,12.22,13.37,13.37,1027,56,3.95,144,45,0.0,Clouds,scattered clouds,10
Kópháza,47.631389,16.6375,2026-03-09 10:14:53.617094,13.79,12.56,13.79,13.79,1026,51,5.69,169,26,0.0,Clouds,scattered clouds,10
Nagycenk,47.601111,16.690278,2026-03-09 10:14:54.818936,13.96,12.74,13.96,13.96,1026,51,5.56,169,23,0.0,Clouds,few clouds,10
Sopronkövesd,47.548333,16.748056,2026-03-09 10:14:56.025090,13.77,12.53,13.77,13.77,1026,51,5.29,170,19,0.0,Clouds,few clouds,10
Lövő,47.509444,16.7775,2026-03-09 10:14:57.225375,13.72,12.48,13.72,13.72,1026,51,5.14,168,16,0.0,Clouds,few clouds,10
Újkér,47.457778,16.786667,2026-03-09 10:14:58.434697,13.78,12.55,13.78,13.78,1027,51,4.85,168,14,0.0,Clouds,few clouds,10
Bük,47.388611,16.752222,2026-03-09 10:14:59.632448,13.83,12.63,13.83,13.83,1027,52,4.31,170,16,0.0,Clouds,few clouds,10
Acsád,47.308333,16.734722,2026-03-09 10:15:00.832524,13.52,12.31,13.52,13.52,1027,53,3.9,168,20,0.0,Clouds,few clouds,10
Salköveskút-Vassurány,47.291389,16.704167,2026-03-09 10:15:02.044035,13.55,12.34,13.55,13.55,1027,53,3.86,167,20,0.0,Clouds,few clouds,10
Zalaszentiván,46.8875,16.909444,2026-03-09 10:15:03.248098,13.68,12.51,13.68,13.68,1027,54,4.29,143,27,0.0,Clouds,scattered clouds,10
Alsónemesapáti,46.854167,16.936389,2026-03-09 10:15:04.446665,13.73,12.54,13.73,13.73,1028,53,4.29,140,22,0.0,Clouds,few clouds,10
Józsa,47.600833,21.584444,2026-03-09 10:15:05.649103,12.86,11.43,12.86,12.86,1031,47,2.98,311,2,0.0,Clear,clear sky,10
Hajdúszentgyörgy,47.608056,21.578333,2026-03-09 10:15:06.850058,12.86,11.43,12.86,12.86,1031,47,2.98,311,2,0.0,Clear,clear sky,10
Zelemér,47.627778,21.578333,2026-03-09 10:15:08.058213,12.81,11.37,12.81,12.81,1031,47,2.94,310,2,0.0,Clear,clear sky,10
Hajdúböszörmény,47.668056,21.524167,2026-03-09 10:15:09.259023,12.87,11.44,12.87,12.87,1031,47,2.83,308,2,0.0,Clear,clear sky,10
Hajdúvid,47.749444,21.508056,2026-03-09 10:15:10.460818,12.95,11.53,12.95,12.95,1031,47,2.4,310,1,0.0,Clear,clear sky,10
Hajdúdorog,47.805556,21.493056,2026-03-09 10:15:11.661590,12.92,11.52,12.92,12.92,1031,48,1.94,315,1,0.0,Clear,clear sky,10
Hajdúnánás,47.831944,21.426667,2026-03-09 10:15:12.865674,12.99,11.6,12.99,12.99,1031,48,1.82,319,1,0.0,Clear,clear sky,10
Hajdúnánás-Vásártér,47.843056,21.407222,2026-03-09 10:15:14.062725,12.99,11.6,12.99,12.99,1031,48,1.82,319,1,0.0,Clear,clear sky,10
Tedej,47.903611,21.404444,2026-03-09 10:15:15.266851,12.94,11.54,12.94,12.94,1030,48,1.16,352,1,0.0,Clear,clear sky,10
Tiszavasvári,47.945278,21.374722,2026-03-09 10:15:16.461181,12.9,11.5,12.9,12.9,1030,48,1.15,8,1,0.0,Clear,clear sky,10
Egyházerdő,47.9725,21.365,2026-03-09 10:15:17.660582,12.91,11.51,12.91,12.91,1030,48,1.17,25,1,0.0,Clear,clear sky,10
Tiszalök,48.013056,21.369167,2026-03-09 10:15:18.860423,12.85,11.47,12.85,12.85,1030,49,1.39,50,1,0.0,Clear,clear sky,10
Hajnalos,47.998889,21.414167,2026-03-09 10:15:20.064024,12.9,11.5,12.9,12.9,1030,48,1.22,42,1,0.0,Clear,clear sky,10
Kisfástanya,47.989167,21.47,2026-03-09 10:15:21.265127,12.88,11.48,12.88,12.88,1031,48,1.16,46,1,0.0,Clear,clear sky,10
Tiszaeszlár,48.010556,21.491944,2026-03-09 10:15:22.469504,12.9,11.5,12.9,12.9,1031,48,1.28,62,1,0.0,Clear,clear sky,10
Bashalom,48.026111,21.514722,2026-03-09 10:15:23.671785,12.93,11.53,12.93,12.93,1031,48,1.48,68,2,0.0,Clear,clear sky,10
Sáránd,47.415556,21.625,2026-03-09 10:15:24.869875,13.15,11.7,13.15,13.15,1031,45,2.75,318,4,0.0,Clear,clear sky,10
Derecske,47.365,21.584167,2026-03-09 10:15:26.069771,13.13,11.67,13.13,13.13,1031,45,2.48,320,5,0.0,Clear,clear sky,10
Derecske-Vásártér,47.352222,21.58,2026-03-09 10:15:27.267812,13.13,11.67,13.13,13.13,1031,45,2.48,320,5,0.0,Clear,clear sky,10
Konyár,47.323611,21.666111,2026-03-09 10:15:28.472131,13.08,11.59,13.08,13.08,1031,44,2.37,326,5,0.0,Clear,clear sky,10
Konyári Sóstófürdő,47.324167,21.744444,2026-03-09 10:15:29.678512,13.06,11.57,13.06,13.06,1031,44,2.52,329,4,0.0,Clear,clear sky,10
Pocsaj-Esztár,47.288333,21.793056,2026-03-09 10:15:30.882685,13.0,11.48,13.0,13.0,1031,43,2.51,333,4,0.0,Clear,clear sky,10
Kismarja,47.243889,21.813889,2026-03-09 10:15:32.084619,12.97,11.45,12.97,12.97,1031,43,2.36,338,4,0.0,Clear,clear sky,10
Nagykereki,47.191667,21.8,2026-03-09 10:15:33.279228,12.91,11.35,12.91,12.91,1031,42,2.24,344,4,0.0,Clear,clear sky,10
Debrecen-Szabadságtelep,47.527778,21.658611,2026-03-09 10:15:34.475356,13.04,11.6,13.04,13.04,1031,46,2.98,315,2,0.0,Clear,clear sky,10
Kondoroskert,47.525556,21.713889,2026-03-09 10:15:35.675704,13.0,11.56,13.0,13.0,1031,46,2.87,320,1,0.0,Clear,clear sky,10
Nagycsere,47.523889,21.763056,2026-03-09 10:15:36.875031,12.98,11.51,12.98,12.98,1031,45,2.79,321,0,0.0,Clear,clear sky,10
Haláp,47.521667,21.818333,2026-03-09 10:15:38.080437,12.93,11.45,12.93,12.93,1031,45,2.68,323,0,0.0,Clear,clear sky,10
Vámospércs,47.518056,21.893889,2026-03-09 10:15:39.288439,12.87,11.39,12.87,12.87,1031,45,2.17,329,0,0.0,Clear,clear sky,10
Szentannapuszta,47.52,21.965833,2026-03-09 10:15:40.489865,12.89,11.38,12.89,12.89,1031,44,1.75,335,0,0.0,Clear,clear sky,10
Nyírábrány,47.523889,22.016944,2026-03-09 10:15:41.689639,12.87,11.36,12.87,12.87,1031,44,1.57,337,0,0.0,Clear,clear sky,10
Dombostanya,47.602778,21.706389,2026-03-09 10:15:42.889125,12.89,11.44,12.89,12.89,1031,46,2.84,315,1,0.0,Clear,clear sky,10
Hajdúsámson,47.608056,21.755278,2026-03-09 10:15:44.091398,12.88,11.42,12.88,12.88,1031,46,2.53,321,0,0.0,Clear,clear sky,10
Tamásipuszta,47.632778,21.796111,2026-03-09 10:15:45.291819,12.81,11.35,12.81,12.81,1031,46,2.23,325,0,0.0,Clear,clear sky,10
Aradványpuszta,47.662778,21.8425,2026-03-09 10:15:46.497632,12.8,11.34,12.8,12.8,1031,46,1.81,331,0,0.0,Clear,clear sky,10
Nyíradony,47.699444,21.903333,2026-03-09 10:15:47.696695,12.73,11.23,12.73,12.73,1031,45,0.78,27,0,0.0,Clear,clear sky,10
Nyírmihálydi,47.7375,21.958889,2026-03-09 10:15:48.903279,12.72,11.22,12.72,12.72,1031,45,0.88,75,0,0.0,Clear,clear sky,10
Nyírgelse,47.750833,21.987778,2026-03-09 10:15:50.107403,12.67,11.17,12.67,12.67,1031,45,1.37,102,0,0.0,Clear,clear sky,10
Nyírbogát,47.793056,22.066389,2026-03-09 10:15:51.309258,12.77,11.28,12.77,12.77,1031,45,3.11,126,0,0.0,Clear,clear sky,10
Nagykálló,47.871111,21.825833,2026-03-09 10:15:52.515566,12.86,11.4,12.86,12.86,1031,46,1.37,119,1,0.0,Clear,clear sky,10
Kállósemjén,47.854722,21.935,2026-03-09 10:15:53.713301,12.83,11.34,12.83,12.83,1031,45,1.99,121,0,0.0,Clear,clear sky,10
Nyírbátor,47.8425,22.131111,2026-03-09 10:15:54.916468,12.75,11.23,12.75,12.75,1031,44,3.85,131,0,0.0,Clear,clear sky,10
Nyírcsászári,47.865556,22.179167,2026-03-09 10:15:56.115382,12.84,11.33,12.84,12.84,1031,44,4.84,135,0,0.0,Clear,clear sky,10
Hodász,47.896111,22.213611,2026-03-09 10:15:57.313186,12.84,11.3,12.84,12.84,1031,43,5.53,137,0,0.0,Clear,clear sky,10
Nyírmeggyes,47.9225,22.256667,2026-03-09 10:15:58.523363,12.92,11.39,12.92,12.92,1031,43,5.81,138,0,0.0,Clear,clear sky,10
Mátészalka,47.951389,22.313333,2026-03-09 10:15:59.724252,13.0,11.45,13.0,13.0,1031,42,5.9,139,0,0.0,Clear,clear sky,10
Kocsord,47.941944,22.375833,2026-03-09 10:16:00.943086,13.18,11.62,13.18,13.18,1031,41,6.08,140,0,0.0,Clear,clear sky,10
Kocsord alsó,47.946389,22.400556,2026-03-09 10:16:02.141364,13.18,11.62,13.18,13.18,1031,41,6.08,140,0,0.0,Clear,clear sky,10
Győrtelek,47.936667,22.424722,2026-03-09 10:16:03.358511,13.22,11.67,13.22,13.22,1031,41,6.08,140,0,0.0,Clear,clear sky,10
Győrtelek alsó,47.921111,22.443333,2026-03-09 10:16:04.564538,13.24,11.66,13.24,13.24,1031,40,6.1,140,0,0.0,Clear,clear sky,10
Ököritófülpös,47.911389,22.495,2026-03-09 10:16:05.763437,13.27,11.7,13.27,13.27,1031,40,6.05,140,0,0.0,Clear,clear sky,10
Porcsalma-Tyukod,47.868056,22.568333,2026-03-09 10:16:06.970621,13.35,11.73,13.35,13.35,1031,38,5.93,141,0,0.0,Clear,clear sky,10
Csenger,47.826111,22.666389,2026-03-09 10:16:08.169040,13.39,11.75,13.39,13.39,1031,37,5.82,141,0,0.0,Clear,clear sky,10
Kisfái,46.888303,19.807366,2026-03-09 10:16:09.366414,13.54,12.15,13.54,13.54,1030,46,5.7,154,7,0.0,Clear,clear sky,10
Nyárlőrinci szőlők,46.8775,19.828333,2026-03-09 10:16:10.566272,13.62,12.21,13.62,13.62,1030,45,5.68,153,7,0.0,Clear,clear sky,10
Nyárlőrinc alsó,46.863889,19.878889,2026-03-09 10:16:11.761205,13.61,12.2,13.61,13.61,1030,45,5.55,153,7,0.0,Clear,clear sky,10
Tiszaug-Tiszahídfő,46.866106,20.052098,2026-03-09 10:16:12.961542,13.77,12.38,13.77,13.77,1030,45,4.89,154,7,0.0,Clear,clear sky,10
Csongrádi úti tanyák,46.690278,19.921667,2026-03-09 10:16:14.162246,13.98,12.61,13.98,13.98,1030,45,5.78,151,7,0.0,Clear,clear sky,10
Kettőshalom,46.689167,20.0225,2026-03-09 10:16:15.357226,13.9,12.47,13.9,13.9,1030,43,5.36,152,7,0.0,Clear,clear sky,10
Csongrád alsó,46.711389,20.126389,2026-03-09 10:16:16.557581,13.85,12.36,13.85,13.85,1029,41,4.76,153,6,0.0,Clear,clear sky,10
Dónát,46.66988,20.368168,2026-03-09 10:16:17.760803,13.67,12.37,13.67,13.67,1030,49,3.4,154,4,0.0,Clear,clear sky,10
Pusztatemplom,46.676667,20.407222,2026-03-09 10:16:18.956277,13.66,12.39,13.66,13.66,1030,50,3.12,155,4,0.0,Clear,clear sky,10
Előhát,47.364722,20.653611,2026-03-09 10:16:20.156650,13.71,12.42,13.71,13.71,1031,49,1.73,195,11,0.0,Clouds,few clouds,10
Polgárdi-Tekerespuszta,47.017778,18.297778,2026-03-09 10:16:21.355261,13.48,12.22,13.48,13.48,1029,51,6.11,151,47,0.0,Clouds,scattered clouds,10
Szatina-Kishajmás,46.202778,18.083611,2026-03-09 10:16:22.559518,12.57,11.21,12.57,12.57,1028,51,5.04,130,71,0.0,Clouds,broken clouds,10
Márok,45.886944,18.499167,2026-03-09 10:16:23.760204,12.67,11.22,12.67,12.67,1028,47,5.98,122,37,0.0,Clouds,scattered clouds,10
Nagynyárád,45.953333,18.564722,2026-03-09 10:16:24.959016,12.78,11.34,12.78,12.78,1028,47,6.0,125,65,0.0,Clouds,broken clouds,10
Szászvár,46.2875,18.369722222222222,2026-03-09 10:16:26.161717,12.57,11.19,12.57,12.57,1028,50,6.05,135,100,0.0,Clouds,overcast clouds,10
Cikó,46.263514,18.557605,2026-03-09 10:16:27.361784,12.94,11.57,12.94,12.94,1029,49,6.7,137,97,0.0,Clouds,overcast clouds,10
Gyöngyfa-Magyarmecske,45.983889,17.958889,2026-03-09 10:16:28.564117,13.03,11.69,13.03,13.03,1028,50,5.99,123,48,0.0,Clouds,scattered clouds,10
Nagyhát,47.581389,21.445,2026-03-09 10:16:29.767944,12.99,11.57,12.99,12.99,1031,47,2.89,307,5,0.0,Clear,clear sky,10
Balmazújváros,47.613889,21.348056,2026-03-09 10:16:30.963970,13.13,11.73,13.13,13.13,1031,47,2.87,303,6,0.0,Clear,clear sky,10
Kónya,47.600833,21.2375,2026-03-09 10:16:32.176501,13.17,11.8,13.17,13.17,1031,48,2.62,300,8,0.0,Clear,clear sky,10
Hortobágy,47.586111,21.154722,2026-03-09 10:16:33.375149,13.2,11.83,13.2,13.2,1031,48,2.38,296,10,0.0,Clear,clear sky,10
Hortobágyi Halastó,47.604167,21.074167,2026-03-09 10:16:34.578238,13.22,11.85,13.22,13.22,1031,48,2.23,292,11,0.0,Clouds,few clouds,10
Ohat-Pusztakócs,47.623333,20.951111,2026-03-09 10:16:35.773999,13.23,11.86,13.23,13.23,1030,48,2.15,282,12,0.0,Clouds,few clouds,10
Egyek,47.616944,20.883611,2026-03-09 10:16:36.975076,13.29,11.93,13.29,13.29,1030,48,2.08,270,12,0.0,Clouds,few clouds,10
Tiszafüred,47.627778,20.756111,2026-03-09 10:16:38.180023,13.34,11.98,13.34,13.34,1030,48,2.11,257,12,0.0,Clouds,few clouds,10
Poroszló,47.657778,20.654444,2026-03-09 10:16:39.373841,13.39,12.04,13.39,13.39,1030,48,2.29,245,13,0.0,Clouds,few clouds,10
Kétútköz,47.694167,20.565,2026-03-09 10:16:40.573710,13.26,11.92,13.26,13.26,1030,49,2.4,241,13,0.0,Clouds,few clouds,10
Egerfarmos,47.711667,20.5225,2026-03-09 10:16:41.779940,13.26,11.92,13.26,13.26,1030,49,2.44,236,13,0.0,Clouds,few clouds,10
Piliscsaba,47.638056,18.829722,2026-03-09 10:16:42.976698,12.61,11.18,12.61,12.61,1029,48,4.91,155,10,0.0,Clear,clear sky,10
Pilisjászfalu,47.656111,18.797778,2026-03-09 10:16:44.184083,13.34,11.98,13.34,13.34,1029,48,5.12,155,11,0.0,Clouds,few clouds,10
Leányvár,47.687594,18.772553,2026-03-09 10:16:45.379720,13.34,11.98,13.34,13.34,1029,48,5.09,154,11,0.0,Clouds,few clouds,10
Dorog,47.723333,18.732778,2026-03-09 10:16:46.575065,13.67,12.35,13.67,13.67,1029,48,5.02,152,10,0.0,Clear,clear sky,10
Esztergom-Kertváros,47.743333,18.719167,2026-03-09 10:16:47.774935,13.74,12.42,13.74,13.74,1029,48,4.88,152,9,0.0,Clear,clear sky,10
Esztergom,47.7775,18.743611,2026-03-09 10:16:48.979545,13.44,12.09,13.44,13.44,1029,48,4.45,153,7,0.0,Clear,clear sky,10
Dunaalmás,47.733056,18.326389,2026-03-09 10:16:50.185285,13.86,12.53,13.86,13.86,1029,47,6.05,151,26,0.0,Clouds,scattered clouds,10
Neszmély,47.734444,18.345278,2026-03-09 10:16:51.382951,13.86,12.53,13.86,13.86,1029,47,6.05,151,26,0.0,Clouds,scattered clouds,10
Süttő,47.761111,18.455,2026-03-09 10:16:52.579912,13.8,12.49,13.8,13.8,1029,48,5.94,152,18,0.0,Clouds,few clouds,10
