station_name,station_lat,station_lon,observation_time,temp,feels_like,temp_min,temp_max,pressure,humidity,wind_speed,wind_deg,clouds,precipitation_1h,weather_main,weather_description,collection_hour
Búcsúszentlászló,46.793056,16.932778,2026-03-08 13:02:11.916815,16.35,15.16,16.35,16.35,1027,43,2.72,103,0,0.0,Clear,clear sky,13
Angyalföld,47.549722,19.09,2026-03-08 13:02:13.121756,16.28,14.9,16.28,16.28,1028,36,2.1,93,5,0.0,Clear,clear sky,13
Felsőjánosfa,46.841389,16.544167,2026-03-08 13:02:14.320969,16.23,15.01,16.23,16.23,1026,42,2.34,111,0,0.0,Clear,clear sky,13
Pankasz,46.835833,16.496111,2026-03-08 13:02:15.530604,15.94,14.69,15.94,15.94,1026,42,2.34,111,0,0.0,Clear,clear sky,13
Nagyrákos,46.827222,16.455556,2026-03-08 13:02:16.742142,15.89,14.63,15.89,15.89,1026,42,2.34,111,0,0.0,Clear,clear sky,13
Őriszentpéter,46.828889,16.415278,2026-03-08 13:02:17.949504,16.0,14.73,16.0,16.0,1026,41,2.32,111,0,0.0,Clear,clear sky,13
Törökbálint,47.45,18.908611,2026-03-08 13:02:19.146508,15.89,14.45,15.89,15.89,1027,35,2.76,90,8,0.0,Clear,clear sky,13
Bicske alsó,47.486389,18.642778,2026-03-08 13:02:20.361218,15.99,14.64,15.99,15.99,1027,38,3.09,101,6,0.0,Clear,clear sky,13
Bajánsenye,46.818056,16.358056,2026-03-08 13:02:21.557878,16.1,14.84,16.1,16.1,1026,41,2.36,111,0,0.0,Clear,clear sky,13
Aquincum,47.566218,19.048273,2026-03-08 13:02:22.748118,16.42,15.08,16.42,16.42,1028,37,2.01,96,4,0.0,Clear,clear sky,13
Piliscsév,47.673889,18.791389,2026-03-08 13:02:23.952266,15.67,14.36,15.67,15.67,1027,41,1.9,108,3,0.0,Clear,clear sky,13
Tát,47.741201,18.64783,2026-03-08 13:02:25.149764,16.21,14.96,16.21,16.21,1027,41,1.84,116,9,0.0,Clear,clear sky,13
Süttő felső,47.756667,18.437222,2026-03-08 13:02:26.363444,16.32,15.03,16.32,16.32,1027,39,2.22,121,12,0.0,Clouds,few clouds,13
Budatétény,47.405,19.016389,2026-03-08 13:02:27.561469,15.95,14.51,15.95,15.95,1027,35,2.77,85,8,0.0,Clear,clear sky,13
Seregélyes-Szőlőhegy,47.119444,18.612222,2026-03-08 13:02:28.772468,16.37,14.92,16.37,16.37,1027,33,3.35,92,6,0.0,Clear,clear sky,13
Gödöllő-Állami telepek,47.564444,19.375556,2026-03-08 13:02:29.976609,15.15,13.77,15.15,15.15,1028,40,2.46,87,6,0.0,Clear,clear sky,13
Dunakeszi alsó,47.607778,19.128889,2026-03-08 13:02:31.174330,16.13,14.79,16.13,16.13,1028,38,2.02,95,6,0.0,Clear,clear sky,13
Vác-Alsóváros,47.773056,19.149722,2026-03-08 13:02:32.376506,15.63,14.4,15.63,15.63,1028,44,1.96,100,11,0.0,Clouds,few clouds,13
Szob alsó,47.816667,18.8725,2026-03-08 13:02:33.576010,15.99,14.79,15.99,15.99,1027,44,1.69,106,17,0.0,Clouds,few clouds,13
Zalaszentmihály-Pacsa,46.7225,16.951944,2026-03-08 13:02:34.775969,16.33,15.17,16.33,16.33,1027,44,2.62,98,0,0.0,Clear,clear sky,13
Pötréte,46.682778,16.9575,2026-03-08 13:02:35.985060,16.37,15.19,16.37,16.37,1027,43,2.51,92,0,0.0,Clear,clear sky,13
Felsőrajk,46.667222,16.982778,2026-03-08 13:02:37.189905,16.34,15.15,16.34,16.34,1027,43,2.56,90,0,0.0,Clear,clear sky,13
Gelse,46.600556,16.982778,2026-03-08 13:02:38.390596,16.43,15.2,16.43,16.43,1026,41,2.37,84,0,0.0,Clear,clear sky,13
Őrtilos,46.297778,16.887778,2026-03-08 13:02:39.593559,16.62,15.33,16.62,16.62,1026,38,2.14,81,0,0.0,Clear,clear sky,13
Zákány,46.251944,16.9425,2026-03-08 13:02:40.801748,16.47,15.16,16.47,16.47,1026,38,2.19,87,0,0.0,Clear,clear sky,13
Berzence,46.201389,17.143611,2026-03-08 13:02:42.003091,16.95,15.69,16.95,16.95,1026,38,2.34,98,0,0.0,Clear,clear sky,13
Somogyudvarhely,46.163333,17.179722,2026-03-08 13:02:43.208429,16.94,15.68,16.94,16.94,1026,38,2.39,100,0,0.0,Clear,clear sky,13
Bélavár,46.122778,17.207778,2026-03-08 13:02:44.414537,17.04,15.82,17.04,17.04,1026,39,2.42,101,0,0.0,Clear,clear sky,13
Vízvár,46.101389,17.239444,2026-03-08 13:02:45.631282,16.95,15.75,16.95,16.95,1026,40,2.48,102,0,0.0,Clear,clear sky,13
Babócsa,46.028359,17.342276,2026-03-08 13:02:46.828653,16.96,15.81,16.96,16.96,1026,42,2.64,103,0,0.0,Clear,clear sky,13
Péterhida-Komlósd,46.006667,17.358056,2026-03-08 13:02:48.025041,16.99,15.84,16.99,16.99,1026,42,2.72,102,0,0.0,Clear,clear sky,13
Barcs,45.951944,17.446944,2026-03-08 13:02:49.229893,16.92,15.82,16.92,16.92,1026,44,2.95,99,0,0.0,Clear,clear sky,13
Barcs felső,45.958333,17.486389,2026-03-08 13:02:50.430029,16.82,15.71,16.82,16.82,1026,44,2.96,99,0,0.0,Clear,clear sky,13
Középrigóc,45.970556,17.525,2026-03-08 13:02:51.629235,16.72,15.57,16.72,16.72,1026,43,2.98,99,0,0.0,Clear,clear sky,13
Darány,45.992222,17.598611,2026-03-08 13:02:52.831513,16.72,15.54,16.72,16.72,1026,42,2.95,101,0,0.0,Clear,clear sky,13
Kisdobsza,46.012222,17.668056,2026-03-08 13:02:54.029708,16.76,15.59,16.76,16.76,1026,42,2.92,100,0,0.0,Clear,clear sky,13
Nemeske,46.023333,17.705278,2026-03-08 13:02:55.235517,16.76,15.56,16.76,16.76,1026,41,2.94,100,0,0.0,Clear,clear sky,13
Molvány,46.035278,17.748611,2026-03-08 13:02:56.432601,16.73,15.53,16.73,16.73,1026,41,2.89,99,0,0.0,Clear,clear sky,13
Szigetvár,46.043333,17.801944,2026-03-08 13:02:57.634143,16.69,15.49,16.69,16.69,1026,41,2.9,98,0,0.0,Clear,clear sky,13
Nagypeterd,46.039444,17.871667,2026-03-08 13:02:58.831682,16.67,15.44,16.67,16.67,1026,40,2.89,97,0,0.0,Clear,clear sky,13
Szentdénes,46.036667,17.926944,2026-03-08 13:03:00.037588,16.61,15.37,16.61,16.61,1026,40,2.88,97,0,0.0,Clear,clear sky,13
Háros,47.412222,19.035,2026-03-08 13:03:01.233924,15.95,14.51,15.95,15.95,1027,35,2.77,85,8,0.0,Clear,clear sky,13
Nagytétény-Diósd,47.398333,18.974444,2026-03-08 13:03:02.435465,16.29,14.89,16.29,16.29,1027,35,2.94,85,8,0.0,Clear,clear sky,13
Érdliget,47.390278,18.937778,2026-03-08 13:03:03.637204,16.23,14.82,16.23,16.23,1027,35,2.98,86,8,0.0,Clear,clear sky,13
Érd felső,47.381111,18.922222,2026-03-08 13:03:04.842564,15.92,14.48,15.92,15.92,1027,35,3.01,87,8,0.0,Clear,clear sky,13
Érd,47.369722,18.900833,2026-03-08 13:03:06.038287,16.09,14.67,16.09,16.09,1027,35,3.13,86,8,0.0,Clear,clear sky,13
Százhalombatta,47.322222,18.899167,2026-03-08 13:03:07.235152,16.12,14.7,16.12,16.12,1027,35,3.33,84,8,0.0,Clear,clear sky,13
Dunai Finomító,47.294444,18.878889,2026-03-08 13:03:08.436323,16.03,14.6,16.03,16.03,1027,35,3.4,86,8,0.0,Clear,clear sky,13
Ercsi,47.247222,18.875278,2026-03-08 13:03:09.639242,16.17,14.76,16.17,16.17,1027,35,3.45,86,8,0.0,Clear,clear sky,13
Iváncsa,47.177778,18.811944,2026-03-08 13:03:10.835534,16.19,14.75,16.19,16.19,1027,34,3.47,88,8,0.0,Clear,clear sky,13
Pusztaszabolcs,47.139722,18.761667,2026-03-08 13:03:12.044529,16.3,14.85,16.3,16.3,1027,33,3.44,88,8,0.0,Clear,clear sky,13
Szabadegyháza,47.082778,18.704167,2026-03-08 13:03:13.251478,16.32,14.84,16.32,16.32,1027,32,3.38,89,8,0.0,Clear,clear sky,13
Sárosd,47.039722,18.660278,2026-03-08 13:03:14.465128,16.42,14.98,16.42,16.42,1027,33,3.34,90,7,0.0,Clear,clear sky,13
Nagylók,46.979444,18.635833,2026-03-08 13:03:15.669767,16.32,14.9,16.32,16.32,1027,34,3.31,89,6,0.0,Clear,clear sky,13
Sárbogárd,46.896944,18.611944,2026-03-08 13:03:16.870178,16.58,15.21,16.58,16.58,1027,35,3.26,90,4,0.0,Clear,clear sky,13
Rétszilas,46.814167,18.601389,2026-03-08 13:03:18.069188,16.65,15.34,16.65,16.65,1027,37,3.17,91,2,0.0,Clear,clear sky,13
Nagyatád,46.228611,17.354167,2026-03-08 13:03:19.272239,17.02,15.8,17.02,17.02,1026,39,2.42,99,0,0.0,Clear,clear sky,13
Budapest-Keleti,47.500278,19.084167,2026-03-08 13:03:20.467418,16.19,14.78,16.19,16.19,1027,35,2.31,91,6,0.0,Clear,clear sky,13
Ferencváros,47.468611,19.088056,2026-03-08 13:03:21.667878,16.26,14.86,16.26,16.26,1027,35,2.45,88,7,0.0,Clear,clear sky,13
Budapest-Nyugati,47.510833,19.0575,2026-03-08 13:03:22.875108,16.26,14.86,16.26,16.26,1028,35,2.19,92,5,0.0,Clear,clear sky,13
Kőbánya felső,47.491944,19.133889,2026-03-08 13:03:24.074037,16.17,14.76,16.17,16.17,1028,35,2.32,87,7,0.0,Clear,clear sky,13
Rákos,47.488889,19.174722,2026-03-08 13:03:25.274841,16.12,14.73,16.12,16.12,1028,36,2.36,86,7,0.0,Clear,clear sky,13
Rákosrendező,47.525556,19.089444,2026-03-08 13:03:26.473309,16.23,14.85,16.23,16.23,1028,36,2.19,91,6,0.0,Clear,clear sky,13
Zugló,47.511389,19.101389,2026-03-08 13:03:27.681176,16.23,14.85,16.23,16.23,1028,36,2.19,91,6,0.0,Clear,clear sky,13
Mezőtárkány,47.725,20.480278,2026-03-08 13:03:28.880843,11.94,10.03,11.94,11.94,1028,32,4.02,71,0,0.0,Clear,clear sky,13
Istvántelek,47.550278,19.106389,2026-03-08 13:03:30.083585,16.28,14.9,16.28,16.28,1028,36,2.1,93,5,0.0,Clear,clear sky,13
Rákospalota-Újpest,47.565833,19.111944,2026-03-08 13:03:31.287424,16.27,14.92,16.27,16.27,1028,37,2.04,95,5,0.0,Clear,clear sky,13
Kőbánya alsó,47.483056,19.127222,2026-03-08 13:03:32.487458,16.17,14.76,16.17,16.17,1028,35,2.32,87,7,0.0,Clear,clear sky,13
Kőbánya-Kispest,47.463889,19.149444,2026-03-08 13:03:33.690047,16.18,14.77,16.18,16.18,1028,35,2.45,85,7,0.0,Clear,clear sky,13
Pestszentlőrinc,47.454722,19.182778,2026-03-08 13:03:34.890981,16.17,14.76,16.17,16.17,1028,35,2.64,81,8,0.0,Clear,clear sky,13
Kispest,47.448135,19.157552,2026-03-08 13:03:36.097962,16.22,14.81,16.22,16.22,1028,35,2.6,82,8,0.0,Clear,clear sky,13
Újpest,47.558889,19.079722,2026-03-08 13:03:37.294930,16.34,14.97,16.34,16.34,1028,36,2.1,94,4,0.0,Clear,clear sky,13
Pestszentimre felső,47.413611,19.173333,2026-03-08 13:03:38.492417,16.18,14.77,16.18,16.18,1028,35,2.8,79,8,0.0,Clear,clear sky,13
Dunakeszi,47.626111,19.136111,2026-03-08 13:03:39.689965,16.01,14.68,16.01,16.01,1028,39,1.99,97,6,0.0,Clear,clear sky,13
Dunakeszi-Gyártelep,47.643611,19.135,2026-03-08 13:03:40.885418,15.99,14.69,15.99,15.99,1028,40,1.98,98,7,0.0,Clear,clear sky,13
Alsógöd,47.676944,19.134444,2026-03-08 13:03:42.087252,15.94,14.66,15.94,15.94,1028,41,1.97,99,8,0.0,Clear,clear sky,13
Göd,47.687778,19.1375,2026-03-08 13:03:43.295913,15.94,14.66,15.94,15.94,1028,41,1.97,99,8,0.0,Clear,clear sky,13
Felsőgöd,47.705556,19.143333,2026-03-08 13:03:44.493553,15.93,14.68,15.93,15.93,1028,42,1.98,99,9,0.0,Clear,clear sky,13
Sződ-Sződliget,47.728056,19.154722,2026-03-08 13:03:45.694587,15.89,14.66,15.89,15.89,1028,43,1.97,100,9,0.0,Clear,clear sky,13
Vác,47.782778,19.133056,2026-03-08 13:03:46.892707,15.63,14.4,15.63,15.63,1028,44,1.96,100,11,0.0,Clouds,few clouds,13
Verőce,47.823889,19.029444,2026-03-08 13:03:48.089535,14.99,13.75,14.99,14.99,1028,46,1.81,102,21,0.0,Clouds,few clouds,13
Kismaros,47.8275,19.010278,2026-03-08 13:03:49.292288,14.26,12.92,14.26,14.26,1028,45,1.79,103,22,0.0,Clouds,few clouds,13
Nagymaros-Visegrád,47.791389,18.959167,2026-03-08 13:03:50.491508,14.79,13.47,14.79,14.79,1028,44,1.71,105,13,0.0,Clouds,few clouds,13
Nagymaros,47.780278,18.952222,2026-03-08 13:03:51.697431,14.79,13.47,14.79,14.79,1028,44,1.71,105,13,0.0,Clouds,few clouds,13
Zebegény,47.801389,18.908889,2026-03-08 13:03:52.905777,15.5,14.25,15.5,15.5,1028,44,1.71,105,18,0.0,Clouds,few clouds,13
Szob,47.821111,18.861944,2026-03-08 13:03:54.102658,15.4,14.14,15.4,15.4,1027,44,1.73,105,23,0.0,Clouds,few clouds,13
Alagimajor,47.601944,19.153889,2026-03-08 13:03:55.298789,16.13,14.79,16.13,16.13,1028,38,2.02,95,6,0.0,Clear,clear sky,13
Fót,47.611389,19.181667,2026-03-08 13:03:56.503086,15.78,14.46,15.78,15.78,1028,40,2.04,96,7,0.0,Clear,clear sky,13
Fótújfalu,47.615,19.192778,2026-03-08 13:03:57.712185,15.78,14.46,15.78,15.78,1028,40,2.04,96,7,0.0,Clear,clear sky,13
Csomád,47.635556,19.222778,2026-03-08 13:03:58.909697,14.95,13.55,14.95,14.95,1028,40,2.09,95,7,0.0,Clear,clear sky,13
Veresegyház,47.649167,19.288611,2026-03-08 13:04:00.111268,15.37,14.06,15.37,15.37,1028,42,2.18,97,9,0.0,Clear,clear sky,13
Erdőkertes,47.662222,19.295833,2026-03-08 13:04:01.309541,15.37,14.06,15.37,15.37,1028,42,2.18,97,9,0.0,Clear,clear sky,13
Őrbottyán,47.685833,19.283611,2026-03-08 13:04:02.513349,15.13,13.82,15.13,15.13,1028,43,2.14,99,10,0.0,Clear,clear sky,13
Váchartyán,47.725833,19.248889,2026-03-08 13:04:03.709365,15.17,13.87,15.17,15.17,1028,43,2.08,101,10,0.0,Clear,clear sky,13
Magyarkút-Verőce,47.826111,19.044444,2026-03-08 13:04:04.908947,14.99,13.75,14.99,14.99,1028,46,1.81,102,21,0.0,Clouds,few clouds,13
Szokolya,47.871111,19.030556,2026-03-08 13:04:06.113154,14.2,12.88,14.2,14.2,1028,46,1.87,102,31,0.0,Clouds,scattered clouds,13
Berkenye,47.885278,19.071944,2026-03-08 13:04:07.314432,14.88,13.62,14.88,14.88,1028,46,1.88,102,28,0.0,Clouds,scattered clouds,13
Nógrád,47.901944,19.0475,2026-03-08 13:04:08.516016,14.52,13.23,14.52,14.52,1028,46,1.92,103,36,0.0,Clouds,scattered clouds,13
Diósjenő,47.94,19.049444,2026-03-08 13:04:09.712827,14.1,12.77,14.1,14.1,1028,46,1.97,103,42,0.0,Clouds,scattered clouds,13
Borsosberény,47.971389,19.093056,2026-03-08 13:04:10.919086,14.68,13.4,14.68,14.68,1028,46,1.93,103,32,0.0,Clouds,scattered clouds,13
Nagyoroszi,47.993611,19.101111,2026-03-08 13:04:12.118879,14.49,13.2,14.49,14.49,1028,46,1.98,103,37,0.0,Clouds,scattered clouds,13
Drégelyvár,48.001944,19.079444,2026-03-08 13:04:13.325868,14.76,13.49,14.76,14.76,1028,46,2.16,104,54,0.0,Clouds,broken clouds,13
Drégely,48.042222,19.056111,2026-03-08 13:04:14.521546,15.1,13.84,15.1,15.1,1028,45,2.25,105,59,0.0,Clouds,broken clouds,13
Drégelypalánk,48.055,19.046111,2026-03-08 13:04:15.716888,15.27,14.03,15.27,15.27,1028,45,2.36,107,69,0.0,Clouds,broken clouds,13
Ipolyvece,48.056944,19.106389,2026-03-08 13:04:16.920939,15.14,13.86,15.14,15.14,1028,44,2.26,104,54,0.0,Clouds,broken clouds,13
Dejtár,48.045556,19.196389,2026-03-08 13:04:18.124390,14.99,13.69,14.99,14.99,1028,44,2.05,101,36,0.0,Clouds,scattered clouds,13
Ipolyszög,48.054444,19.221944,2026-03-08 13:04:19.331078,14.93,13.6,14.93,14.93,1028,43,2.1,99,36,0.0,Clouds,scattered clouds,13
Iklad-Domony,47.658056,19.444444,2026-03-08 13:04:20.534450,15.24,13.94,15.24,15.24,1028,43,2.17,97,8,0.0,Clear,clear sky,13
Iklad-Domony felső,47.667778,19.428056,2026-03-08 13:04:21.732271,15.25,13.98,15.25,15.25,1028,44,2.09,101,9,0.0,Clear,clear sky,13
Galgamácsa,47.693889,19.3925,2026-03-08 13:04:22.939354,15.01,13.72,15.01,15.01,1028,44,2.07,102,10,0.0,Clear,clear sky,13
Vácrátót,47.732778,19.217778,2026-03-08 13:04:24.144248,15.49,14.22,15.49,15.49,1028,43,2.05,100,10,0.0,Clear,clear sky,13
Csörög,47.735833,19.196389,2026-03-08 13:04:25.337918,15.78,14.54,15.78,15.78,1028,43,2.02,99,10,0.0,Clear,clear sky,13
Galgagyörk,47.735278,19.372222,2026-03-08 13:04:26.542233,15.03,13.74,15.03,15.03,1028,44,2.0,104,9,0.0,Clear,clear sky,13
Püspökhatvan,47.768611,19.366944,2026-03-08 13:04:27.754243,14.93,13.63,14.93,14.93,1028,44,1.86,106,7,0.0,Clear,clear sky,13
Acsa-Erdőkürt,47.801111,19.386111,2026-03-08 13:04:28.961022,14.73,13.41,14.73,14.73,1028,44,1.77,107,6,0.0,Clear,clear sky,13
Galgaguta,47.848611,19.385556,2026-03-08 13:04:30.162265,14.35,12.99,14.35,14.35,1028,44,1.62,107,3,0.0,Clear,clear sky,13
Nógrádkövesd,47.879444,19.371111,2026-03-08 13:04:31.371865,14.47,13.12,14.47,14.47,1028,44,1.56,106,3,0.0,Clear,clear sky,13
Magyarnándor,47.970833,19.356667,2026-03-08 13:04:32.578714,14.31,12.92,14.31,14.31,1028,43,1.54,100,5,0.0,Clear,clear sky,13
Mohora,47.995556,19.347778,2026-03-08 13:04:33.776077,14.39,13.01,14.39,14.39,1028,43,1.59,97,7,0.0,Clear,clear sky,13
Szügy,48.036389,19.333056,2026-03-08 13:04:34.979956,14.56,13.17,14.56,14.56,1028,42,1.79,92,16,0.0,Clouds,few clouds,13
Balassagyarmat,48.071111,19.293611,2026-03-08 13:04:36.177837,14.7,13.32,14.7,14.7,1028,42,1.96,93,24,0.0,Clouds,few clouds,13
Őrhalom,48.078773,19.403936,2026-03-08 13:04:37.376985,14.2,12.69,14.2,14.2,1028,39,2.03,82,24,0.0,Clouds,few clouds,13
Hugyag,48.083056,19.421111,2026-03-08 13:04:38.578109,14.2,12.69,14.2,14.2,1028,39,2.03,82,24,0.0,Clouds,few clouds,13
Szécsény,48.093056,19.521111,2026-03-08 13:04:39.776824,14.14,12.6,14.14,14.14,1028,38,2.05,74,20,0.0,Clouds,few clouds,13
Ludányhalászi,48.1325,19.529444,2026-03-08 13:04:40.980738,14.08,12.51,14.08,14.08,1028,37,2.25,74,28,0.0,Clouds,scattered clouds,13
Nógrádszakál,48.178333,19.521667,2026-03-08 13:04:42.176337,14.02,12.44,14.02,14.02,1028,37,2.33,75,32,0.0,Clouds,scattered clouds,13
Ráróspuszta,48.207222,19.541389,2026-03-08 13:04:43.379103,13.46,11.83,13.46,13.46,1028,37,2.41,80,42,0.0,Clouds,scattered clouds,13
Litke,48.215833,19.598611,2026-03-08 13:04:44.582477,13.75,12.12,13.75,13.75,1028,36,2.24,76,25,0.0,Clouds,scattered clouds,13
Nyíregyháza külső,47.943056,21.740278,2026-03-08 13:04:45.778703,13.14,11.48,13.14,13.14,1028,37,3.47,55,5,0.0,Clear,clear sky,13
Oros,47.945833,21.806389,2026-03-08 13:04:46.983380,13.35,11.71,13.35,13.35,1028,37,3.43,56,5,0.0,Clear,clear sky,13
Napkor,47.948889,21.873056,2026-03-08 13:04:48.189035,13.52,11.89,13.52,13.52,1028,37,3.29,57,5,0.0,Clear,clear sky,13
Apagy,47.953775,21.939044,2026-03-08 13:04:49.397213,13.62,12.0,13.62,13.62,1028,37,3.26,58,4,0.0,Clear,clear sky,13
Levelek-Magy,47.948056,21.993611,2026-03-08 13:04:50.608315,13.77,12.17,13.77,13.77,1028,37,3.19,60,4,0.0,Clear,clear sky,13
Ófehértó,47.940556,22.041389,2026-03-08 13:04:51.813341,13.84,12.25,13.84,13.84,1028,37,3.22,62,3,0.0,Clear,clear sky,13
Ligettanya,47.951667,22.071389,2026-03-08 13:04:53.017494,13.84,12.27,13.84,13.84,1028,38,3.06,63,2,0.0,Clear,clear sky,13
Baktalórántháza,47.988611,22.083333,2026-03-08 13:04:54.227709,13.79,12.22,13.79,13.79,1028,38,3.0,62,3,0.0,Clear,clear sky,13
Vaja-Rohod,48.006389,22.164167,2026-03-08 13:04:55.430797,13.95,12.42,13.95,13.95,1028,39,2.81,62,2,0.0,Clear,clear sky,13
Rákóczitanya,48.022222,22.178333,2026-03-08 13:04:56.628826,14.01,12.48,14.01,14.01,1028,39,2.74,63,1,0.0,Clear,clear sky,13
Nyírmada,48.059167,22.203056,2026-03-08 13:04:57.826099,13.91,12.37,13.91,13.91,1028,39,2.63,60,1,0.0,Clear,clear sky,13
Tunyogmatolcs,47.960244,22.442247,2026-03-08 13:04:59.028924,14.93,13.55,14.93,14.93,1028,41,2.37,67,0,0.0,Clear,clear sky,13
Tunyogmatolcs alsó,47.966025,22.464713,2026-03-08 13:05:00.226492,15.01,13.64,15.01,15.01,1028,41,2.31,68,0,0.0,Clear,clear sky,13
Fehérgyarmat,47.979167,22.524444,2026-03-08 13:05:01.439651,15.17,13.81,15.17,15.17,1028,41,2.05,68,0,0.0,Clear,clear sky,13
Penyige,47.995278,22.566944,2026-03-08 13:05:02.635545,15.29,13.92,15.29,15.29,1028,40,1.99,68,0,0.0,Clear,clear sky,13
Nagyszekeres,47.976111,22.6125,2026-03-08 13:05:03.834591,15.38,14.02,15.38,15.38,1028,40,1.91,69,0,0.0,Clear,clear sky,13
Kisszekeres,47.965833,22.629444,2026-03-08 13:05:05.040911,15.45,14.1,15.45,15.45,1028,40,2.0,69,0,0.0,Clear,clear sky,13
Jánkmajtis,47.941944,22.657222,2026-03-08 13:05:06.245419,15.6,14.26,15.6,15.6,1028,40,2.03,70,1,0.0,Clear,clear sky,13
Gacsály,47.926111,22.745,2026-03-08 13:05:07.451135,15.82,14.48,15.82,15.82,1028,39,1.83,71,1,0.0,Clear,clear sky,13
Zajta,47.9025,22.796111,2026-03-08 13:05:08.653762,16.04,14.72,16.04,16.04,1028,39,1.87,72,2,0.0,Clear,clear sky,13
Eperjeske alsó,48.360556,22.19,2026-03-08 13:05:09.856053,13.58,12.04,13.58,13.58,1028,40,1.49,22,4,0.0,Clear,clear sky,13
Mándok,48.326944,22.196389,2026-03-08 13:05:11.063094,13.58,12.06,13.58,13.58,1028,41,1.72,32,3,0.0,Clear,clear sky,13
Tornyospálca,48.268333,22.201944,2026-03-08 13:05:12.272608,13.65,12.14,13.65,13.65,1028,41,1.94,40,2,0.0,Clear,clear sky,13
Aranyosapáti,48.211303,22.253534,2026-03-08 13:05:13.477088,13.96,12.48,13.96,13.96,1028,41,2.0,46,0,0.0,Clear,clear sky,13
Gyüre,48.171389,22.269167,2026-03-08 13:05:14.674834,14.03,12.56,14.03,14.03,1028,41,2.19,51,0,0.0,Clear,clear sky,13
Varsány,48.151722,22.290047,2026-03-08 13:05:15.873518,14.17,12.71,14.17,14.17,1028,41,2.22,54,0,0.0,Clear,clear sky,13
Vásárosnamény,48.126667,22.306111,2026-03-08 13:05:17.076890,14.22,12.77,14.22,14.22,1028,41,2.29,56,0,0.0,Clear,clear sky,13
Vitka,48.095556,22.308056,2026-03-08 13:05:18.285869,14.27,12.82,14.27,14.27,1028,41,2.36,59,0,0.0,Clear,clear sky,13
Nagydobos,48.054167,22.311111,2026-03-08 13:05:19.486398,14.26,12.81,14.26,14.26,1028,41,2.41,61,0,0.0,Clear,clear sky,13
Ópályi,47.997778,22.318333,2026-03-08 13:05:20.680907,14.43,12.97,14.43,14.43,1028,40,2.56,65,0,0.0,Clear,clear sky,13
Nyírcsaholy,47.908056,22.348333,2026-03-08 13:05:21.885612,14.79,13.37,14.79,14.79,1028,40,2.75,68,0,0.0,Clear,clear sky,13
Nagyecsed,47.864722,22.385556,2026-03-08 13:05:23.093040,15.06,13.67,15.06,15.06,1028,40,2.83,69,0,0.0,Clear,clear sky,13
Tiborszállás,47.815278,22.402778,2026-03-08 13:05:24.297782,15.18,13.77,15.18,15.18,1028,39,3.02,70,0,0.0,Clear,clear sky,13
Kiskunhalas,46.434444,19.493611,2026-03-08 13:05:25.493808,16.14,14.75,16.14,16.14,1027,36,2.99,61,0,0.0,Clear,clear sky,13
Kecskemét alsó,46.895833,19.692222,2026-03-08 13:05:26.690942,15.59,13.94,15.59,15.59,1027,28,3.75,64,0,0.0,Clear,clear sky,13
Putnok,48.286667,20.4375,2026-03-08 13:05:27.892457,11.69,9.75,11.69,11.69,1028,32,2.71,85,9,0.0,Clear,clear sky,13
Bánréve,48.299722,20.351944,2026-03-08 13:05:29.090996,11.87,9.92,11.87,11.87,1028,31,2.6,87,9,0.0,Clear,clear sky,13
Ipolytarnóc,48.236667,19.629167,2026-03-08 13:05:30.293921,13.6,11.96,13.6,13.6,1028,36,2.16,79,23,0.0,Clouds,few clouds,13
Rákosliget,47.486111,19.257778,2026-03-08 13:05:31.496439,15.78,14.38,15.78,15.78,1028,37,2.55,82,7,0.0,Clear,clear sky,13
Ikrény,47.657778,17.524167,2026-03-08 13:05:32.694162,16.91,15.54,16.91,16.91,1027,34,2.67,125,6,0.0,Clear,clear sky,13
Rábapatona,47.648889,17.461944,2026-03-08 13:05:33.893254,16.95,15.61,16.95,16.95,1027,35,2.53,126,4,0.0,Clear,clear sky,13
Enese,47.644167,17.425278,2026-03-08 13:05:35.098717,16.94,15.6,16.94,16.94,1027,35,2.43,127,4,0.0,Clear,clear sky,13
Kóny,47.632222,17.357222,2026-03-08 13:05:36.294902,16.93,15.59,16.93,16.93,1027,35,2.26,128,4,0.0,Clear,clear sky,13
Farád,47.595278,17.195833,2026-03-08 13:05:37.501459,16.95,15.61,16.95,16.95,1027,35,2.21,133,1,0.0,Clear,clear sky,13
Rábatamási,47.592778,17.161389,2026-03-08 13:05:38.705318,16.95,15.61,16.95,16.95,1027,35,2.21,133,1,0.0,Clear,clear sky,13
Szárföld,47.589167,17.123889,2026-03-08 13:05:39.906009,16.95,15.61,16.95,16.95,1027,35,2.27,134,1,0.0,Clear,clear sky,13
Veszkény,47.586944,17.101389,2026-03-08 13:05:41.107516,16.96,15.63,16.96,16.96,1027,35,2.33,135,1,0.0,Clear,clear sky,13
Kapuvár,47.581944,17.046944,2026-03-08 13:05:42.313372,16.93,15.59,16.93,16.93,1027,35,2.43,136,1,0.0,Clear,clear sky,13
Vitnyéd-Csermajor,47.5825,16.987222,2026-03-08 13:05:43.518722,16.92,15.58,16.92,16.92,1026,35,2.56,138,2,0.0,Clear,clear sky,13
Petőháza,47.595278,16.893056,2026-03-08 13:05:44.743513,16.92,15.61,16.92,16.92,1026,36,2.69,140,4,0.0,Clear,clear sky,13
Fertőszentmiklós,47.6,16.858889,2026-03-08 13:05:45.965138,16.88,15.56,16.88,16.88,1026,36,2.73,141,4,0.0,Clear,clear sky,13
Pinnye,47.600278,16.768611,2026-03-08 13:05:47.172169,16.71,15.4,16.71,16.71,1026,37,2.97,141,6,0.0,Clear,clear sky,13
Fertőboz,47.625,16.691667,2026-03-08 13:05:48.380190,16.61,15.29,16.61,16.61,1026,37,3.19,138,6,0.0,Clear,clear sky,13
Sopron,47.677778,16.587222,2026-03-08 13:05:49.583220,16.3,14.93,16.3,16.3,1026,36,3.75,135,6,0.0,Clear,clear sky,13
Fertőszéplak-Fertőd,47.618889,16.850833,2026-03-08 13:05:50.779340,16.93,15.64,16.93,16.93,1026,37,2.72,141,5,0.0,Clear,clear sky,13
Nyúl,47.587778,17.698056,2026-03-08 13:05:51.979949,16.83,15.46,16.83,16.83,1027,34,2.99,121,11,0.0,Clouds,few clouds,13
Pannonhalma,47.547778,17.740833,2026-03-08 13:05:53.178942,16.6,15.2,16.6,16.6,1027,34,3.1,120,12,0.0,Clouds,few clouds,13
Tarjánpuszta,47.504722,17.789167,2026-03-08 13:05:54.375702,16.5,15.12,16.5,16.5,1027,35,3.09,120,12,0.0,Clouds,few clouds,13
Győrasszonyfa,47.4925,17.799167,2026-03-08 13:05:55.571423,16.5,15.12,16.5,16.5,1027,35,3.09,120,12,0.0,Clouds,few clouds,13
Veszprémvarsány,47.443333,17.818333,2026-03-08 13:05:56.766452,16.37,14.98,16.37,16.37,1027,35,3.13,120,10,0.0,Clear,clear sky,13
Bakonyszentlászló,47.395556,17.8175,2026-03-08 13:05:57.967950,15.99,14.58,15.99,15.99,1027,36,3.16,119,9,0.0,Clear,clear sky,13
Porva-Csesznek,47.326944,17.841111,2026-03-08 13:05:59.195894,14.61,13.09,14.61,14.61,1027,37,3.2,118,7,0.0,Clear,clear sky,13
Zirc,47.266667,17.878056,2026-03-08 13:06:00.391345,14.59,13.12,14.59,14.59,1027,39,3.25,114,3,0.0,Clear,clear sky,13
Eplény,47.192778,17.921667,2026-03-08 13:06:01.598006,14.96,13.56,14.96,14.96,1027,40,3.22,108,0,0.0,Clear,clear sky,13
Marcaltő,47.4275,17.348889,2026-03-08 13:06:02.791776,16.95,15.59,16.95,16.95,1027,34,1.89,126,4,0.0,Clear,clear sky,13
Szany-Rábaszentandrás,47.460833,17.315278,2026-03-08 13:06:03.988272,16.94,15.58,16.94,16.94,1027,34,1.85,126,4,0.0,Clear,clear sky,13
Egyed-Rábacsanak,47.521944,17.316389,2026-03-08 13:06:05.188912,16.91,15.57,16.91,16.91,1027,35,1.9,126,4,0.0,Clear,clear sky,13
Rábapordány,47.557222,17.315,2026-03-08 13:06:06.392843,16.93,15.59,16.93,16.93,1027,35,1.96,127,4,0.0,Clear,clear sky,13
Albertfalva,47.440784,19.033965,2026-03-08 13:06:07.595296,16.06,14.64,16.06,16.06,1027,35,2.62,87,8,0.0,Clear,clear sky,13
Budafok,47.425833,19.041389,2026-03-08 13:06:08.797903,15.95,14.51,15.95,15.95,1027,35,2.77,85,8,0.0,Clear,clear sky,13
Tétényliget,47.384722,18.955278,2026-03-08 13:06:09.998005,16.23,14.82,16.23,16.23,1027,35,2.98,86,8,0.0,Clear,clear sky,13
Érd alsó,47.379722,18.923056,2026-03-08 13:06:11.188257,15.92,14.48,15.92,15.92,1027,35,3.01,87,8,0.0,Clear,clear sky,13
Tárnok,47.365556,18.873889,2026-03-08 13:06:12.385842,16.25,14.84,16.25,16.25,1027,35,3.19,89,8,0.0,Clear,clear sky,13
Martonvásár,47.321389,18.781667,2026-03-08 13:06:13.589376,16.23,14.82,16.23,16.23,1027,35,3.37,90,7,0.0,Clear,clear sky,13
Baracska,47.297222,18.753333,2026-03-08 13:06:14.786400,16.31,14.91,16.31,16.31,1027,35,3.4,90,6,0.0,Clear,clear sky,13
Pettend,47.26,18.708889,2026-03-08 13:06:15.980417,16.2,14.79,16.2,16.2,1027,35,3.4,92,6,0.0,Clear,clear sky,13
Kápolnásnyék,47.245556,18.692222,2026-03-08 13:06:17.180387,16.28,14.85,16.28,16.28,1027,34,3.39,93,6,0.0,Clear,clear sky,13
Velence,47.226944,18.663889,2026-03-08 13:06:18.382834,16.37,14.95,16.37,16.37,1027,34,3.38,94,6,0.0,Clear,clear sky,13
Velencefürdő,47.218611,18.648056,2026-03-08 13:06:19.579175,16.37,14.95,16.37,16.37,1027,34,3.37,93,6,0.0,Clear,clear sky,13
Gárdony,47.205833,18.624722,2026-03-08 13:06:20.775284,16.41,14.99,16.41,16.41,1027,34,3.35,94,6,0.0,Clear,clear sky,13
Agárd,47.197666,18.604907,2026-03-08 13:06:21.975557,16.41,14.99,16.41,16.41,1027,34,3.35,94,6,0.0,Clear,clear sky,13
Dinnyés,47.179722,18.560833,2026-03-08 13:06:23.170416,16.43,15.02,16.43,16.43,1027,34,3.31,95,5,0.0,Clear,clear sky,13
Székesfehérvár,47.183611,18.424722,2026-03-08 13:06:24.373920,16.46,15.05,16.46,16.46,1027,34,3.17,97,6,0.0,Clear,clear sky,13
Szabadbattyán,47.105278,18.388333,2026-03-08 13:06:25.572122,16.49,15.08,16.49,16.49,1027,34,3.23,94,5,0.0,Clear,clear sky,13
Kiscséripuszta,47.048056,18.355,2026-03-08 13:06:26.774452,16.34,14.94,16.34,16.34,1027,35,3.26,93,5,0.0,Clear,clear sky,13
Lepsény,46.9875,18.248056,2026-03-08 13:06:27.974485,16.61,15.27,16.61,16.61,1027,36,3.28,93,5,0.0,Clear,clear sky,13
Balatonaliga,46.984444,18.171389,2026-03-08 13:06:29.179852,16.3,14.98,16.3,16.3,1027,38,3.22,93,4,0.0,Clear,clear sky,13
Balatonvilágos,46.964167,18.157222,2026-03-08 13:06:30.385406,16.61,15.34,16.61,16.61,1027,39,3.19,94,3,0.0,Clear,clear sky,13
Szabadifürdő,46.926111,18.103333,2026-03-08 13:06:31.601767,16.58,15.34,16.58,16.58,1027,40,3.14,94,2,0.0,Clear,clear sky,13
Ózd alsó,48.227778,20.306111,2026-03-08 13:06:32.808910,11.51,9.53,11.51,11.51,1028,31,2.74,74,11,0.0,Clouds,few clouds,13
Ózd,48.2225,20.294722,2026-03-08 13:06:34.014254,11.51,9.53,11.51,11.51,1028,31,2.74,74,11,0.0,Clouds,few clouds,13
Alsóboldva,48.212778,20.792222,2026-03-08 13:06:35.214381,11.65,9.81,11.65,11.65,1028,36,2.39,82,4,0.0,Clear,clear sky,13
Boldva,48.223333,20.790278,2026-03-08 13:06:36.415004,11.65,9.81,11.65,11.65,1028,36,2.39,82,4,0.0,Clear,clear sky,13
Borsodszirák,48.259167,20.770556,2026-03-08 13:06:37.627560,11.66,9.8,11.66,11.66,1028,35,2.65,83,12,0.0,Clouds,few clouds,13
Edelény alsó,48.279167,20.760833,2026-03-08 13:06:38.834380,11.66,9.8,11.66,11.66,1028,35,2.65,83,12,0.0,Clouds,few clouds,13
Edelény,48.299722,20.749444,2026-03-08 13:06:40.038550,11.67,9.78,11.67,11.67,1028,34,2.8,86,17,0.0,Clouds,few clouds,13
Szendrőlád,48.334444,20.731944,2026-03-08 13:06:41.240751,10.73,8.72,10.73,10.73,1028,33,3.2,90,28,0.0,Clouds,scattered clouds,13
Szendrő,48.400725,20.721346,2026-03-08 13:06:42.436590,11.8,9.87,11.8,11.8,1028,32,3.56,94,41,0.0,Clouds,scattered clouds,13
Szendrő felső,48.409907,20.720148,2026-03-08 13:06:43.635555,11.8,9.87,11.8,11.8,1028,32,3.56,94,41,0.0,Clouds,scattered clouds,13
Szalonna,48.449444,20.722222,2026-03-08 13:06:44.836503,12.0,10.09,12.0,12.0,1028,32,3.82,97,51,0.0,Clouds,broken clouds,13
Perkupa,48.471389,20.691111,2026-03-08 13:06:46.035591,11.39,9.39,11.39,11.39,1028,31,3.67,101,45,0.0,Clouds,scattered clouds,13
Szemeretelep,47.443056,19.214167,2026-03-08 13:06:47.230296,16.18,14.79,16.18,16.18,1028,36,2.69,80,8,0.0,Clear,clear sky,13
Jósvafő-Aggtelek,48.489722,20.693889,2026-03-08 13:06:48.437320,11.78,9.82,11.78,11.78,1028,31,3.63,102,46,0.0,Clouds,scattered clouds,13
Bódvaszilas,48.5375,20.738056,2026-03-08 13:06:49.646015,11.43,9.44,11.43,11.43,1027,31,3.76,96,55,0.0,Clouds,broken clouds,13
Komjáti,48.5475,20.759722,2026-03-08 13:06:50.849062,11.04,9.01,11.04,11.04,1028,31,3.66,91,56,0.0,Clouds,broken clouds,13
Tornanádaska,48.558333,20.787222,2026-03-08 13:06:52.056975,12.19,10.27,12.19,12.19,1027,31,3.69,88,59,0.0,Clouds,broken clouds,13
Onga,48.121111,20.906667,2026-03-08 13:06:53.280338,11.64,9.83,11.64,11.64,1028,37,2.6,84,2,0.0,Clear,clear sky,13
Szikszó-Vásártér,48.193056,20.934722,2026-03-08 13:06:54.475074,11.68,9.84,11.68,11.68,1028,36,2.29,91,4,0.0,Clear,clear sky,13
Szikszó,48.201667,20.941667,2026-03-08 13:06:55.678092,11.74,9.91,11.74,11.74,1028,36,2.32,92,5,0.0,Clear,clear sky,13
Aszaló,48.219867,20.961466,2026-03-08 13:06:56.884255,11.62,9.75,11.62,11.62,1028,35,2.29,94,7,0.0,Clear,clear sky,13
Halmaj,48.246667,20.991667,2026-03-08 13:06:58.090918,11.81,9.96,11.81,11.81,1028,35,2.33,96,11,0.0,Clouds,few clouds,13
Csobád,48.277222,21.033889,2026-03-08 13:06:59.291194,11.89,10.02,11.89,11.89,1028,34,2.42,96,16,0.0,Clouds,few clouds,13
Ináncs,48.291111,21.057778,2026-03-08 13:07:00.493424,11.92,10.03,11.92,11.92,1028,33,2.58,95,20,0.0,Clouds,few clouds,13
Forró-Encs,48.3275,21.117778,2026-03-08 13:07:01.693402,11.95,10.06,11.95,11.95,1028,33,2.67,92,25,0.0,Clouds,scattered clouds,13
Méra,48.363056,21.140278,2026-03-08 13:07:02.901524,11.87,9.97,11.87,11.87,1028,33,2.73,86,37,0.0,Clouds,scattered clouds,13
Novajidrány,48.404444,21.170556,2026-03-08 13:07:04.104836,12.16,10.27,12.16,12.16,1027,32,2.71,83,42,0.0,Clouds,scattered clouds,13
Hernádszurdok,48.487222,21.213889,2026-03-08 13:07:05.300391,12.27,10.39,12.27,12.27,1027,32,2.44,74,53,0.0,Clouds,broken clouds,13
Hidasnémeti,48.508333,21.229722,2026-03-08 13:07:06.496430,12.17,10.28,12.17,12.17,1027,32,2.36,71,55,0.0,Clouds,broken clouds,13
Mád,48.19,21.268889,2026-03-08 13:07:07.711197,11.69,9.85,11.69,11.69,1028,36,3.38,81,5,0.0,Clear,clear sky,13
Rátka,48.215,21.230278,2026-03-08 13:07:08.921730,12.02,10.19,12.02,12.02,1028,35,3.22,85,7,0.0,Clear,clear sky,13
Tállya,48.226944,21.225278,2026-03-08 13:07:10.123232,12.02,10.19,12.02,12.02,1028,35,3.22,85,7,0.0,Clear,clear sky,13
Golop,48.242778,21.204167,2026-03-08 13:07:11.323329,12.06,10.24,12.06,12.06,1028,35,2.93,91,10,0.0,Clear,clear sky,13
Abaújszántó,48.286944,21.181667,2026-03-08 13:07:12.523186,11.84,9.97,11.84,11.84,1028,34,2.84,91,19,0.0,Clouds,few clouds,13
Abaújszántói fürdő,48.268333,21.179722,2026-03-08 13:07:13.729522,12.06,10.21,12.06,12.06,1028,34,2.88,91,14,0.0,Clouds,few clouds,13
Abaújkér,48.309444,21.198333,2026-03-08 13:07:14.939124,11.88,9.99,11.88,11.88,1028,33,2.8,90,24,0.0,Clouds,few clouds,13
Boldogkőváralja,48.345,21.208889,2026-03-08 13:07:16.141805,11.92,10.03,11.92,11.92,1028,33,2.85,85,29,0.0,Clouds,scattered clouds,13
Korlát-Vizsoly,48.365,21.219167,2026-03-08 13:07:17.346503,12.08,10.21,12.08,12.08,1028,33,2.77,84,35,0.0,Clouds,scattered clouds,13
Fony,48.411389,21.242778,2026-03-08 13:07:18.546406,12.22,10.36,12.22,12.22,1028,33,2.6,79,46,0.0,Clouds,scattered clouds,13
Hejce-Vilmány,48.419444,21.245556,2026-03-08 13:07:19.742996,12.22,10.36,12.22,12.22,1028,33,2.6,79,46,0.0,Clouds,scattered clouds,13
Göncruszka,48.445,21.246944,2026-03-08 13:07:20.943028,12.24,10.36,12.24,12.24,1028,32,2.51,76,50,0.0,Clouds,scattered clouds,13
Gönc,48.470556,21.261389,2026-03-08 13:07:22.145141,12.29,10.41,12.29,12.29,1027,32,2.36,74,53,0.0,Clouds,broken clouds,13
Zsujta,48.4925,21.265,2026-03-08 13:07:23.342132,12.33,10.45,12.33,12.33,1027,32,2.27,71,55,0.0,Clouds,broken clouds,13
Bodrogkeresztúr,48.175556,21.354167,2026-03-08 13:07:24.538794,11.39,9.55,11.39,11.39,1028,37,3.58,75,4,0.0,Clear,clear sky,13
Szegi,48.201944,21.387778,2026-03-08 13:07:25.739109,11.95,10.17,11.95,11.95,1028,37,3.57,72,6,0.0,Clear,clear sky,13
Erdőbénye,48.218056,21.401944,2026-03-08 13:07:26.940589,12.37,10.63,12.37,12.37,1028,37,3.5,70,8,0.0,Clear,clear sky,13
Olaszliszka-Tolcsva,48.258333,21.448056,2026-03-08 13:07:28.136325,12.42,10.68,12.42,12.42,1028,37,3.31,68,15,0.0,Clouds,few clouds,13
Bodrogolaszi,48.286944,21.512778,2026-03-08 13:07:29.330331,11.14,9.28,11.14,11.14,1028,37,3.17,66,19,0.0,Clouds,few clouds,13
Sárospatak,48.325833,21.566111,2026-03-08 13:07:30.531893,12.5,10.77,12.5,12.5,1028,37,2.95,58,18,0.0,Clouds,few clouds,13
Sátoraljaújhely,48.385833,21.657778,2026-03-08 13:07:31.727119,12.01,10.23,12.01,12.01,1028,37,2.53,52,19,0.0,Clouds,few clouds,13
Vecsés,47.40855,19.25652,2026-03-08 13:07:32.927367,16.2,14.82,16.2,16.2,1028,36,3.0,75,8,0.0,Clear,clear sky,13
Vecsés-Kertekalja,47.403333,19.271389,2026-03-08 13:07:34.134042,16.2,14.82,16.2,16.2,1028,36,3.0,75,8,0.0,Clear,clear sky,13
Üllő,47.390833,19.348889,2026-03-08 13:07:35.328565,16.04,14.64,16.04,16.04,1028,36,3.35,71,8,0.0,Clear,clear sky,13
Monor,47.34545,19.43701,2026-03-08 13:07:36.524706,15.65,14.13,15.65,15.65,1028,33,3.86,64,6,0.0,Clear,clear sky,13
Pilis,47.279722,19.536389,2026-03-08 13:07:37.727681,15.42,13.83,15.42,15.42,1027,31,3.92,62,5,0.0,Clear,clear sky,13
Albertirsa,47.240278,19.606389,2026-03-08 13:07:38.929954,15.39,13.74,15.39,15.39,1027,29,3.76,62,2,0.0,Clear,clear sky,13
Ceglédbercel-Cserő,47.210278,19.686944,2026-03-08 13:07:40.130318,15.38,13.7,15.38,15.38,1027,28,3.64,63,1,0.0,Clear,clear sky,13
Cegléd,47.182778,19.806111,2026-03-08 13:07:41.332100,15.29,13.61,15.29,15.29,1027,28,3.51,65,0,0.0,Clear,clear sky,13
Abony,47.173056,20.016389,2026-03-08 13:07:42.533732,14.84,13.11,14.84,14.84,1027,28,3.61,63,0,0.0,Clear,clear sky,13
Szolnok,47.179167,20.175833,2026-03-08 13:07:43.727984,14.57,12.81,14.57,14.57,1027,28,4.01,59,3,0.0,Clear,clear sky,13
Szajol,47.170556,20.295278,2026-03-08 13:07:44.927647,14.37,12.62,14.37,14.37,1027,29,4.18,56,4,0.0,Clear,clear sky,13
Törökszentmiklós,47.170278,20.413611,2026-03-08 13:07:46.124803,14.22,12.45,14.22,14.22,1028,29,4.06,53,4,0.0,Clear,clear sky,13
Rákoscsaba-Újtelep,47.4875,19.271944,2026-03-08 13:07:47.330772,15.78,14.38,15.78,15.78,1028,37,2.55,82,7,0.0,Clear,clear sky,13
Rákoscsaba,47.492222,19.284722,2026-03-08 13:07:48.537113,15.81,14.41,15.81,15.81,1028,37,2.64,81,6,0.0,Clear,clear sky,13
Pécel,47.493889,19.338889,2026-03-08 13:07:49.734192,15.6,14.21,15.6,15.6,1028,38,2.73,80,6,0.0,Clear,clear sky,13
Isaszeg,47.537719,19.388955,2026-03-08 13:07:50.938033,15.22,13.84,15.22,15.22,1028,40,2.57,84,6,0.0,Clear,clear sky,13
Gödöllő,47.592222,19.358611,2026-03-08 13:07:52.139591,14.96,13.58,14.96,14.96,1028,41,2.36,91,7,0.0,Clear,clear sky,13
Máriabesnyő,47.595556,19.389722,2026-03-08 13:07:53.343571,14.96,13.58,14.96,14.96,1028,41,2.36,91,7,0.0,Clear,clear sky,13
Bag,47.641111,19.471667,2026-03-08 13:07:54.549004,15.24,13.94,15.24,15.24,1028,43,2.17,97,8,0.0,Clear,clear sky,13
Aszód,47.647467,19.492882,2026-03-08 13:07:55.749716,15.01,13.69,15.01,15.01,1028,43,2.15,97,7,0.0,Clear,clear sky,13
Hévízgyörk,47.638611,19.526667,2026-03-08 13:07:56.950391,14.89,13.56,14.89,14.89,1028,43,2.12,98,7,0.0,Clear,clear sky,13
Galgahévíz,47.6325,19.558333,2026-03-08 13:07:58.153422,15.03,13.66,15.03,15.03,1028,41,2.25,90,6,0.0,Clear,clear sky,13
Tura,47.626389,19.5975,2026-03-08 13:07:59.354492,14.84,13.45,14.84,14.84,1028,41,2.23,88,6,0.0,Clear,clear sky,13
Hatvan,47.663611,19.671389,2026-03-08 13:08:00.552721,14.56,13.12,14.56,14.56,1028,40,1.88,104,6,0.0,Clear,clear sky,13
Vámosgyörk,47.686111,19.927778,2026-03-08 13:08:01.779005,13.77,12.06,13.77,13.77,1028,33,2.43,95,1,0.0,Clear,clear sky,13
Adács,47.696389,19.975278,2026-03-08 13:08:02.979378,13.44,11.68,13.44,13.44,1028,32,2.65,98,0,0.0,Clear,clear sky,13
Karácsond,47.718056,20.048611,2026-03-08 13:08:04.190572,13.1,11.3,13.1,13.1,1028,32,2.78,99,0,0.0,Clear,clear sky,13
Ludas,47.723889,20.095556,2026-03-08 13:08:05.404273,12.98,11.14,12.98,12.98,1028,31,3.24,92,0,0.0,Clear,clear sky,13
Nagyút,47.72666666666667,20.161388888888887,2026-03-08 13:08:06.601198,12.8,10.92,12.8,12.8,1028,30,3.4,90,0,0.0,Clear,clear sky,13
Kál-Kápolna,47.734167,20.254167,2026-03-08 13:08:07.802166,12.41,10.52,12.41,12.41,1028,31,3.83,83,0,0.0,Clear,clear sky,13
Füzesabony,47.751389,20.415278,2026-03-08 13:08:09.006450,11.92,9.98,11.92,11.92,1028,31,3.96,75,0,0.0,Clear,clear sky,13
Szihalom,47.766944,20.491944,2026-03-08 13:08:10.209852,11.6,9.65,11.6,11.6,1028,32,3.81,73,0,0.0,Clear,clear sky,13
Mezőkövesd,47.797222,20.5675,2026-03-08 13:08:11.415346,11.46,9.52,11.46,11.46,1028,33,3.63,69,2,0.0,Clear,clear sky,13
Mezőkövesd felső,47.807222,20.591389,2026-03-08 13:08:12.619722,11.46,9.52,11.46,11.46,1028,33,3.63,69,2,0.0,Clear,clear sky,13
Mezőkeresztes-Mezőnyárád,47.845556,20.670278,2026-03-08 13:08:13.821027,11.23,9.3,11.23,11.23,1028,34,3.4,67,4,0.0,Clear,clear sky,13
Csincse,47.890833,20.764167,2026-03-08 13:08:15.022345,11.26,9.38,11.26,11.26,1028,36,3.43,66,5,0.0,Clear,clear sky,13
Emőd,47.930556,20.822778,2026-03-08 13:08:16.219591,11.0,9.1,11.0,11.0,1028,36,3.3,69,5,0.0,Clear,clear sky,13
Nyékládháza,47.9925,20.840556,2026-03-08 13:08:17.419025,11.31,9.46,11.31,11.31,1028,37,3.15,72,4,0.0,Clear,clear sky,13
Miskolc-Tiszai,48.098611,20.811389,2026-03-08 13:08:18.624422,11.51,9.71,11.51,11.51,1028,38,2.63,76,0,0.0,Clear,clear sky,13
Felsőzsolca,48.083611,20.866111,2026-03-08 13:08:19.824793,11.55,9.75,11.55,11.55,1028,38,2.68,79,1,0.0,Clear,clear sky,13
Hernádnémeti-Bőcs,48.051389,20.985,2026-03-08 13:08:21.023945,11.59,9.77,11.59,11.59,1028,37,3.02,79,4,0.0,Clear,clear sky,13
Tiszalúc,48.039722,21.0575,2026-03-08 13:08:22.227223,11.67,9.88,11.67,11.67,1028,38,3.38,75,6,0.0,Clear,clear sky,13
Taktaharkány,48.091667,21.128611,2026-03-08 13:08:23.429408,11.83,10.03,11.83,11.83,1028,37,3.22,80,4,0.0,Clear,clear sky,13
Taktaszada,48.1125,21.149444,2026-03-08 13:08:24.629523,11.88,10.09,11.88,11.88,1028,37,3.2,82,4,0.0,Clear,clear sky,13
Szerencs,48.155556,21.214444,2026-03-08 13:08:25.839041,12.09,10.29,12.09,12.09,1028,36,3.36,82,4,0.0,Clear,clear sky,13
Mezőzombor,48.156944,21.267778,2026-03-08 13:08:27.055591,12.06,10.26,12.06,12.06,1028,36,3.45,79,4,0.0,Clear,clear sky,13
Tarcal,48.125,21.34,2026-03-08 13:08:28.251389,12.23,10.5,12.23,12.23,1028,38,3.67,72,3,0.0,Clear,clear sky,13
Tokaj,48.112778,21.406667,2026-03-08 13:08:29.447178,11.81,10.04,11.81,11.81,1028,38,3.68,66,4,0.0,Clear,clear sky,13
Rakamaz,48.12,21.475,2026-03-08 13:08:30.651095,12.4,10.69,12.4,12.4,1028,38,3.66,64,4,0.0,Clear,clear sky,13
Görögszállás,48.04,21.555,2026-03-08 13:08:31.859717,12.55,10.85,12.55,12.55,1028,38,3.62,58,5,0.0,Clear,clear sky,13
Nyírtelek,48.005,21.615556,2026-03-08 13:08:33.065824,12.74,11.06,12.74,12.74,1028,38,3.52,55,5,0.0,Clear,clear sky,13
Rákoshegy,47.468611,19.245556,2026-03-08 13:08:34.272599,16.01,14.63,16.01,16.01,1028,37,2.69,79,7,0.0,Clear,clear sky,13
Ecser,47.439444,19.318056,2026-03-08 13:08:35.470167,16.11,14.72,16.11,16.11,1028,36,2.93,76,7,0.0,Clear,clear sky,13
Maglód,47.438889,19.340833,2026-03-08 13:08:36.671190,15.79,14.39,15.79,15.79,1028,37,3.03,75,7,0.0,Clear,clear sky,13
Maglódi nyaraló,47.434167,19.363611,2026-03-08 13:08:37.880542,15.44,14.01,15.44,15.44,1028,37,3.14,73,7,0.0,Clear,clear sky,13
Gyömrő,47.429722,19.393333,2026-03-08 13:08:39.075042,15.44,14.01,15.44,15.44,1028,37,3.14,73,7,0.0,Clear,clear sky,13
Mende,47.426944,19.439722,2026-03-08 13:08:40.271100,15.19,13.7,15.19,15.19,1028,36,3.57,67,6,0.0,Clear,clear sky,13
Szőlősnyaraló,47.450278,19.561111,2026-03-08 13:08:41.470085,15.22,13.71,15.22,15.22,1028,35,3.67,64,5,0.0,Clear,clear sky,13
Sülysáp,47.451944,19.5275,2026-03-08 13:08:42.672605,15.23,13.75,15.23,15.23,1028,36,3.59,67,5,0.0,Clear,clear sky,13
Tápiószecső,47.443056,19.614722,2026-03-08 13:08:43.868791,15.17,13.63,15.17,15.17,1028,34,3.71,63,5,0.0,Clear,clear sky,13
Szentmártonkáta,47.431944,19.680556,2026-03-08 13:08:45.073425,14.94,13.35,14.94,14.94,1028,33,3.73,60,5,0.0,Clear,clear sky,13
Nagykáta,47.409722,19.737778,2026-03-08 13:08:46.271286,14.93,13.29,14.93,14.93,1028,31,3.79,58,4,0.0,Clear,clear sky,13
Farmos,47.355278,19.8375,2026-03-08 13:08:47.472147,14.87,13.17,14.87,14.87,1028,29,3.66,58,1,0.0,Clear,clear sky,13
Tápiószele,47.346313,19.873504,2026-03-08 13:08:48.677434,14.83,13.13,14.83,14.83,1028,29,3.56,59,0,0.0,Clear,clear sky,13
Tápiógyörgye,47.325,19.95,2026-03-08 13:08:49.877993,14.67,12.92,14.67,14.67,1028,28,3.57,60,0,0.0,Clear,clear sky,13
Újszász,47.285833,20.066944,2026-03-08 13:08:51.079104,14.56,12.8,14.56,14.56,1028,28,3.69,62,1,0.0,Clear,clear sky,13
Szurdokpüspöki,47.851944,19.690278,2026-03-08 13:08:52.275109,14.05,12.53,14.05,14.05,1028,39,1.48,117,9,0.0,Clear,clear sky,13
Lőrinci,47.739444,19.673611,2026-03-08 13:08:53.477352,14.39,12.96,14.39,14.39,1028,41,1.74,120,6,0.0,Clear,clear sky,13
Selyp,47.759167,19.670833,2026-03-08 13:08:54.677778,14.32,12.88,14.32,14.32,1028,41,1.71,124,6,0.0,Clear,clear sky,13
Apc-Zagyvaszántó,47.791328,19.66822,2026-03-08 13:08:55.880516,14.28,12.83,14.28,14.28,1028,41,1.66,126,6,0.0,Clear,clear sky,13
Pásztó,47.918889,19.688889,2026-03-08 13:08:57.083378,13.82,12.25,13.82,13.82,1027,38,1.46,100,11,0.0,Clouds,few clouds,13
Mátraszőlős-Hasznos,47.938506,19.706122,2026-03-08 13:08:58.280327,13.64,12.03,13.64,13.64,1027,37,1.6,89,12,0.0,Clouds,few clouds,13
Tar,47.956111,19.746389,2026-03-08 13:08:59.476421,13.03,11.3,13.03,13.03,1027,35,1.93,76,13,0.0,Clouds,few clouds,13
Mátraverebély,47.968333,19.778611,2026-03-08 13:09:00.681173,13.03,11.3,13.03,13.03,1027,35,1.93,76,13,0.0,Clouds,few clouds,13
Nagybátony,47.981111,19.82,2026-03-08 13:09:01.883484,13.02,11.27,13.02,13.02,1027,34,2.2,68,12,0.0,Clouds,few clouds,13
Kisterenye,48.009444,19.831944,2026-03-08 13:09:03.092812,12.92,11.13,12.92,12.92,1027,33,2.49,63,12,0.0,Clouds,few clouds,13
Kisterenye-Bányatelep,48.021389,19.831944,2026-03-08 13:09:04.293199,12.92,11.13,12.92,12.92,1027,33,2.49,63,12,0.0,Clouds,few clouds,13
Salgótarján külső,48.089444,19.790833,2026-03-08 13:09:05.496101,12.48,10.67,12.48,12.48,1028,34,2.55,60,8,0.0,Clear,clear sky,13
Balatonfenyves GV,46.7125,17.479167,2026-03-08 13:09:06.699353,16.11,14.98,16.11,16.11,1027,46,2.97,72,0,0.0,Clear,clear sky,13
Várhegyalja,47.737778,18.366667,2026-03-08 13:09:07.899780,16.29,14.97,16.29,16.29,1027,38,2.56,120,13,0.0,Clouds,few clouds,13
Imremajor,46.680556,17.499722,2026-03-08 13:09:09.103428,16.24,15.09,16.24,16.24,1027,45,2.93,74,0,0.0,Clear,clear sky,13
Rákospalota-Kertváros,47.578333,19.122778,2026-03-08 13:09:10.306591,16.27,14.92,16.27,16.27,1028,37,2.04,95,5,0.0,Clear,clear sky,13
Vicziántelep,47.675833,19.286111,2026-03-08 13:09:11.507490,15.13,13.82,15.13,15.13,1028,43,2.14,99,10,0.0,Clear,clear sky,13
Pálmajor,46.662831,17.457526,2026-03-08 13:09:12.715239,16.37,15.21,16.37,16.37,1027,44,2.85,77,0,0.0,Clear,clear sky,13
Somogyszentpál felső,46.649758,17.471404,2026-03-08 13:09:13.918460,16.33,15.17,16.33,16.33,1027,44,2.88,78,0,0.0,Clear,clear sky,13
Somogyszentpál,46.638611,17.478611,2026-03-08 13:09:15.124503,16.4,15.22,16.4,16.4,1026,43,2.84,82,0,0.0,Clear,clear sky,13
Rudnaykert,47.7175,19.257778,2026-03-08 13:09:16.333223,15.17,13.87,15.17,15.17,1028,43,2.08,101,10,0.0,Clear,clear sky,13
Maroshegy,47.158333,18.406667,2026-03-08 13:09:17.533969,16.45,15.04,16.45,16.45,1027,34,3.19,95,5,0.0,Clear,clear sky,13
Bánhida,47.573703,18.371737,2026-03-08 13:09:18.735839,16.06,14.69,16.06,16.06,1027,37,3.14,112,10,0.0,Clear,clear sky,13
Magyarkút,47.850278,19.045,2026-03-08 13:09:19.937013,14.92,13.67,14.92,14.92,1028,46,1.84,102,26,0.0,Clouds,scattered clouds,13
Becske alsó,47.897222,19.364722,2026-03-08 13:09:21.138979,13.91,12.51,13.91,13.91,1028,44,1.51,104,2,0.0,Clear,clear sky,13
Hosszúberek-Péteri,47.370556,19.389722,2026-03-08 13:09:22.333136,15.89,14.45,15.89,15.89,1028,35,3.58,68,8,0.0,Clear,clear sky,13
Monorierdő,47.308889,19.499167,2026-03-08 13:09:23.526402,15.51,13.95,15.51,15.51,1028,32,3.92,63,6,0.0,Clear,clear sky,13
Ceglédbercel,47.215833,19.658611,2026-03-08 13:09:24.728134,15.38,13.73,15.38,15.38,1027,29,3.69,62,1,0.0,Clear,clear sky,13
Budai út,47.208333,19.731389,2026-03-08 13:09:25.931759,15.22,13.53,15.22,15.22,1027,28,3.6,63,0,0.0,Clear,clear sky,13
Büdöskútpuszta,48.373056,20.726111,2026-03-08 13:09:27.127087,11.86,9.96,11.86,11.86,1028,33,3.38,92,34,0.0,Clouds,scattered clouds,13
Bánrévei Vízmű,48.282778,20.368333,2026-03-08 13:09:28.328112,11.78,9.82,11.78,11.78,1028,31,2.64,86,9,0.0,Clear,clear sky,13
Rákoskert,47.456389,19.296111,2026-03-08 13:09:29.524429,15.85,14.46,15.85,15.85,1028,37,2.78,78,7,0.0,Clear,clear sky,13
Szirmabesenyő,48.146944,20.783056,2026-03-08 13:09:30.725365,11.1,9.26,11.1,11.1,1028,38,2.47,76,0,0.0,Clear,clear sky,13
Kitérőgyár,47.766944,19.935278,2026-03-08 13:09:31.934693,13.24,11.48,13.24,13.24,1027,33,2.29,109,3,0.0,Clear,clear sky,13
Tápiószentmárton,47.373333,19.797778,2026-03-08 13:09:33.139144,14.87,13.17,14.87,14.87,1028,29,3.68,58,1,0.0,Clear,clear sky,13
Zagyvarékas,47.244229,20.097435,2026-03-08 13:09:34.335250,14.6,12.85,14.6,14.6,1027,28,3.8,62,2,0.0,Clear,clear sky,13
Abonyi út,47.206401,20.125204,2026-03-08 13:09:35.544206,14.66,12.91,14.66,14.66,1027,28,3.82,61,2,0.0,Clear,clear sky,13
Jászkisér felső,47.438056,20.202222,2026-03-08 13:09:36.745398,13.79,11.98,13.79,13.79,1028,29,3.68,57,1,0.0,Clear,clear sky,13
Szellőhát,47.425556,20.188889,2026-03-08 13:09:37.948824,13.88,12.08,13.88,13.88,1028,29,3.73,57,1,0.0,Clear,clear sky,13
Szilvásvárad-Szalajkavölgy,48.0956,20.38272,2026-03-08 13:09:39.147212,9.74,8.56,9.74,9.74,1028,29,2.43,67,12,0.0,Clouds,few clouds,13
Vásárosnamény külső,48.084444,22.255556,2026-03-08 13:09:40.346500,14.08,12.61,14.08,14.08,1028,41,2.4,59,0,0.0,Clear,clear sky,13
Újváros,46.660556,20.536111,2026-03-08 13:09:41.551120,15.49,13.8,15.49,15.49,1027,27,2.97,51,0,0.0,Clear,clear sky,13
Városi park,46.697778,19.864722,2026-03-08 13:09:42.748099,15.79,14.16,15.79,15.79,1027,28,3.57,56,0,0.0,Clear,clear sky,13
Belsőkamaráspuszta,46.341944,20.848889,2026-03-08 13:09:43.958903,15.79,14.21,15.79,15.79,1027,30,2.6,43,0,0.0,Clear,clear sky,13
Sajószöged,47.945278,20.981667,2026-03-08 13:09:45.156787,11.64,9.85,11.64,11.64,1028,38,3.65,68,7,0.0,Clear,clear sky,13
Kazincbarcika alsó,48.255278,20.649167,2026-03-08 13:09:46.362106,11.31,9.38,11.31,11.31,1028,34,2.71,77,8,0.0,Clear,clear sky,13
Nyárjas,46.857778,19.923611,2026-03-08 13:09:47.563545,15.4,13.73,15.4,15.4,1027,28,3.89,58,0,0.0,Clear,clear sky,13
Pogonyipuszta,48.296389,20.381667,2026-03-08 13:09:48.766052,11.78,9.82,11.78,11.78,1028,31,2.64,86,9,0.0,Clear,clear sky,13
Sióvölgy,46.911103,18.076964,2026-03-08 13:09:49.959678,16.55,15.33,16.55,16.55,1027,41,3.08,94,1,0.0,Clear,clear sky,13
Répáspuszta,46.430278,17.847222,2026-03-08 13:09:51.164231,16.59,15.32,16.59,16.59,1026,39,2.95,97,0,0.0,Clear,clear sky,13
Virányos,48.066667,21.527222,2026-03-08 13:09:52.363790,12.54,10.84,12.54,12.54,1028,38,3.62,59,4,0.0,Clear,clear sky,13
Füzesbokor,47.988611,21.6475,2026-03-08 13:09:53.557980,12.88,11.22,12.88,12.88,1028,38,3.5,54,5,0.0,Clear,clear sky,13
Kunfehértó,46.355833,19.417222,2026-03-08 13:09:54.753409,16.15,14.81,16.15,16.15,1027,38,2.83,59,0,0.0,Clear,clear sky,13
Erdőszél,46.329444,19.395,2026-03-08 13:09:55.961053,16.05,14.73,16.05,16.05,1027,39,2.71,60,0,0.0,Clear,clear sky,13
Jánoshalma,46.293056,19.330278,2026-03-08 13:09:57.156582,16.21,14.9,16.21,16.21,1027,39,2.61,61,0,0.0,Clear,clear sky,13
Mélykút,46.213056,19.370556,2026-03-08 13:09:58.358457,16.27,14.94,16.27,16.27,1027,38,2.61,60,0,0.0,Clear,clear sky,13
Bácsalmás,46.118056,19.346389,2026-03-08 13:09:59.557185,16.41,15.1,16.41,16.41,1027,38,2.64,67,0,0.0,Clear,clear sky,13
Almás,46.116216,19.328803,2026-03-08 13:10:00.762106,16.41,15.1,16.41,16.41,1027,38,2.64,67,0,0.0,Clear,clear sky,13
Bácsbokod-Bácsborsód,46.115833,19.16,2026-03-08 13:10:01.956729,16.56,15.24,16.56,16.56,1027,37,2.65,82,0,0.0,Clear,clear sky,13
Baja,46.187014,18.957602,2026-03-08 13:10:03.152690,16.86,15.59,16.86,16.86,1027,38,2.54,91,0,0.0,Clear,clear sky,13
Harkakötöny,46.458333,19.601944,2026-03-08 13:10:04.353102,16.13,14.69,16.13,16.13,1027,34,3.09,59,0,0.0,Clear,clear sky,13
Tajó,46.473056,19.650556,2026-03-08 13:10:05.557602,16.13,14.66,16.13,16.13,1027,33,3.1,58,0,0.0,Clear,clear sky,13
Kiskunmajsa,46.501667,19.728056,2026-03-08 13:10:06.758365,16.12,14.62,16.12,16.12,1027,32,3.15,57,0,0.0,Clear,clear sky,13
Jászszentlászló,46.565833,19.753611,2026-03-08 13:10:07.992825,16.04,14.46,16.04,16.04,1027,29,3.31,55,0,0.0,Clear,clear sky,13
Galambos,46.625,19.801111,2026-03-08 13:10:09.190959,15.93,14.34,15.93,15.93,1027,29,3.41,55,0,0.0,Clear,clear sky,13
Pestszentimre,47.402222,19.188611,2026-03-08 13:10:10.386576,16.23,14.82,16.23,16.23,1027,35,2.98,77,9,0.0,Clear,clear sky,13
Gyál felső,47.390278,19.204722,2026-03-08 13:10:11.591700,16.2,14.79,16.2,16.2,1028,35,3.04,76,9,0.0,Clear,clear sky,13
Gyál,47.376667,19.219444,2026-03-08 13:10:12.795263,16.2,14.79,16.2,16.2,1028,35,3.04,76,9,0.0,Clear,clear sky,13
Ócsa,47.301389,19.232222,2026-03-08 13:10:13.996748,16.16,14.75,16.16,16.16,1027,35,3.53,72,9,0.0,Clear,clear sky,13
Inárcs-Kakucs,47.247222,19.317778,2026-03-08 13:10:15.198544,16.07,14.62,16.07,16.07,1027,34,3.85,67,9,0.0,Clear,clear sky,13
Dabas,47.194722,19.328889,2026-03-08 13:10:16.414284,15.94,14.45,15.94,15.94,1027,33,3.92,66,7,0.0,Clear,clear sky,13
Gyón,47.178333,19.355556,2026-03-08 13:10:17.610479,15.96,14.47,15.96,15.96,1027,33,3.91,66,6,0.0,Clear,clear sky,13
Hernád,47.161389,19.4025,2026-03-08 13:10:18.813002,15.76,14.2,15.76,15.76,1027,31,3.88,64,4,0.0,Clear,clear sky,13
Bakonygyirót,47.416389,17.811944,2026-03-08 13:10:20.009392,16.42,15.06,16.42,16.42,1027,36,3.11,119,10,0.0,Clear,clear sky,13
Vinye,47.360317,17.819635,2026-03-08 13:10:21.207242,15.9,14.51,15.9,15.9,1027,37,3.18,118,8,0.0,Clear,clear sky,13
Nemesgörzsöny,47.402924,17.376385,2026-03-08 13:10:22.410872,16.96,15.6,16.96,16.96,1026,34,1.92,125,5,0.0,Clear,clear sky,13
Rábahíd,47.438618,17.337525,2026-03-08 13:10:23.618916,16.95,15.59,16.95,16.95,1027,34,1.86,126,4,0.0,Clear,clear sky,13
Öskü,47.162222,18.076389,2026-03-08 13:10:24.822994,16.04,14.72,16.04,16.04,1027,39,3.15,102,0,0.0,Clear,clear sky,13
Márkó,47.1275,17.813889,2026-03-08 13:10:26.029584,15.34,13.95,15.34,15.34,1027,39,3.2,107,2,0.0,Clear,clear sky,13
Nemeskocs,47.203333,17.188889,2026-03-08 13:10:27.243588,16.87,15.55,16.87,16.87,1026,36,2.53,133,0,0.0,Clear,clear sky,13
Zalagyömörő,47.011111,17.220833,2026-03-08 13:10:28.441156,16.7,15.42,16.7,16.7,1027,38,3.09,129,0,0.0,Clear,clear sky,13
Rigács,47.061667,17.199167,2026-03-08 13:10:29.648859,16.69,15.38,16.69,16.69,1026,37,3.1,131,0,0.0,Clear,clear sky,13
Kemenespálfa,47.139722,17.183056,2026-03-08 13:10:30.852252,16.82,15.5,16.82,16.82,1026,36,2.87,134,0,0.0,Clear,clear sky,13
Lentiszombathely,46.611389,16.5725,2026-03-08 13:10:32.059744,16.45,15.22,16.45,16.45,1026,41,2.21,102,0,0.0,Clear,clear sky,13
Ortaháza,46.626667,16.685833,2026-03-08 13:10:33.261787,16.23,14.98,16.23,16.23,1026,41,2.09,99,0,0.0,Clear,clear sky,13
Rádiháza,46.654722,16.765833,2026-03-08 13:10:34.468075,16.15,14.92,16.15,16.15,1026,42,2.09,99,0,0.0,Clear,clear sky,13
Baktüttös,46.690833,16.826389,2026-03-08 13:10:35.682193,16.2,15.0,16.2,16.2,1026,43,2.25,98,0,0.0,Clear,clear sky,13
Budafa,46.851667,16.624722,2026-03-08 13:10:36.886294,16.29,15.07,16.29,16.29,1026,42,2.37,111,0,0.0,Clear,clear sky,13
Zalapatakalja,46.845556,16.603889,2026-03-08 13:10:38.090376,16.28,15.06,16.28,16.28,1026,42,2.35,111,0,0.0,Clear,clear sky,13
Tormásliget,47.430556,16.781667,2026-03-08 13:10:39.287748,16.6,15.26,16.6,16.6,1026,36,2.81,144,3,0.0,Clear,clear sky,13
Belecska,46.64,18.411389,2026-03-08 13:10:40.484357,16.7,15.44,16.7,16.7,1027,39,2.9,95,0,0.0,Clear,clear sky,13
Almár,47.956111,20.356944,2026-03-08 13:10:41.684914,10.44,8.32,10.44,10.44,1027,30,2.56,74,10,0.0,Clear,clear sky,13
Vasútmúzeum,47.543889,19.099444,2026-03-08 13:10:42.890894,16.28,14.9,16.28,16.28,1028,36,2.1,93,5,0.0,Clear,clear sky,13
Abda,47.690833,17.540556,2026-03-08 13:10:44.089278,16.92,15.58,16.92,16.92,1027,35,2.88,126,4,0.0,Clear,clear sky,13
Vadaspark,47.526111,18.949167,2026-03-08 13:10:45.283263,14.69,13.15,14.69,14.69,1027,36,2.31,94,5,0.0,Clear,clear sky,13
Barosstelep,47.398889,18.989167,2026-03-08 13:10:46.483227,16.29,14.89,16.29,16.29,1027,35,2.94,85,8,0.0,Clear,clear sky,13
Fegyvernek-Örményes,47.194444,20.5575,2026-03-08 13:10:47.687587,13.96,12.22,13.96,13.96,1028,31,3.85,51,4,0.0,Clear,clear sky,13
Zagyvapálfalva,48.068889,19.785,2026-03-08 13:10:48.889160,12.72,10.94,12.72,12.72,1028,34,2.53,61,9,0.0,Clear,clear sky,13
Salgótarján,48.105556,19.807222,2026-03-08 13:10:50.085375,12.04,10.19,12.04,12.04,1028,34,2.54,61,7,0.0,Clear,clear sky,13
Szabadisóstó,46.933889,18.118056,2026-03-08 13:10:51.285880,16.6,15.36,16.6,16.6,1027,40,3.15,94,2,0.0,Clear,clear sky,13
Siófok,46.907778,18.053889,2026-03-08 13:10:52.487058,16.55,15.33,16.55,16.55,1027,41,3.08,94,1,0.0,Clear,clear sky,13
Balatonszéplak felső,46.898056,18.018056,2026-03-08 13:10:53.691014,16.46,15.23,16.46,16.46,1027,41,3.04,94,0,0.0,Clear,clear sky,13
Balatonszéplak alsó,46.891944,17.993333,2026-03-08 13:10:54.891089,16.53,15.34,16.53,16.53,1027,42,3.01,93,0,0.0,Clear,clear sky,13
Zamárdi felső,46.886111,17.969444,2026-03-08 13:10:56.089738,16.51,15.31,16.51,16.51,1027,42,3.0,93,0,0.0,Clear,clear sky,13
Zamárdi,46.88,17.944722,2026-03-08 13:10:57.288066,16.51,15.31,16.51,16.51,1027,42,3.0,93,0,0.0,Clear,clear sky,13
Szántód,46.861944,17.899167,2026-03-08 13:10:58.490280,16.47,15.3,16.47,16.47,1027,43,2.97,91,0,0.0,Clear,clear sky,13
Szőny-Déli,47.735278,18.141944,2026-03-08 13:10:59.691338,16.58,15.23,16.58,16.58,1027,36,2.93,122,14,0.0,Clouds,few clouds,13
Várpalota,47.194444,18.149167,2026-03-08 13:11:00.889853,15.83,14.43,15.83,15.83,1027,37,3.11,103,2,0.0,Clear,clear sky,13
Pétfürdő,47.1675,18.121389,2026-03-08 13:11:02.091499,16.25,14.92,16.25,16.25,1027,38,3.13,102,1,0.0,Clear,clear sky,13
Hajmáskér,47.141111,18.009444,2026-03-08 13:11:03.297284,15.8,14.45,15.8,15.8,1027,39,3.17,103,0,0.0,Clear,clear sky,13
Veszprém,47.118889,17.91,2026-03-08 13:11:04.516719,15.76,14.44,15.76,15.76,1027,40,3.17,104,0,0.0,Clear,clear sky,13
Herend,47.136944,17.760278,2026-03-08 13:11:05.724998,15.29,13.89,15.29,15.29,1027,39,3.21,108,3,0.0,Clear,clear sky,13
Városlőd,47.144167,17.652778,2026-03-08 13:11:06.924703,15.24,13.79,15.24,15.24,1027,37,3.27,115,6,0.0,Clear,clear sky,13
Városlőd-Kislőd,47.133889,17.631111,2026-03-08 13:11:08.133941,15.67,14.28,15.67,15.67,1027,38,3.29,114,5,0.0,Clear,clear sky,13
Ajka,47.105902,17.572938,2026-03-08 13:11:09.344557,16.15,14.79,16.15,16.15,1027,37,3.39,118,4,0.0,Clear,clear sky,13
Ajka-Gyártelep,47.096806,17.555219,2026-03-08 13:11:10.545295,16.15,14.79,16.15,16.15,1027,37,3.39,118,4,0.0,Clear,clear sky,13
Devecser,47.1125,17.435278,2026-03-08 13:11:11.743704,16.56,15.24,16.56,16.56,1027,37,3.38,123,3,0.0,Clear,clear sky,13
Somlóvásárhely,47.124444,17.369167,2026-03-08 13:11:12.944116,16.67,15.33,16.67,16.67,1026,36,3.19,129,2,0.0,Clear,clear sky,13
Tüskevár,47.128611,17.331389,2026-03-08 13:11:14.148610,16.76,15.43,16.76,16.76,1026,36,3.14,130,1,0.0,Clear,clear sky,13
Karakószörcsök,47.133611,17.287778,2026-03-08 13:11:15.348467,16.8,15.48,16.8,16.8,1026,36,3.09,131,1,0.0,Clear,clear sky,13
Kerta,47.151944,17.237222,2026-03-08 13:11:16.554285,16.88,15.56,16.88,16.88,1026,36,2.82,134,0,0.0,Clear,clear sky,13
Boba,47.183333,17.191389,2026-03-08 13:11:17.758411,16.84,15.52,16.84,16.84,1026,36,2.65,134,0,0.0,Clear,clear sky,13
Börgönd,47.140278,18.515,2026-03-08 13:11:18.967486,16.34,14.92,16.34,16.34,1027,34,3.3,93,5,0.0,Clear,clear sky,13
Belsőbáránd,47.102778,18.499722,2026-03-08 13:11:20.169083,16.33,14.91,16.33,16.33,1027,34,3.28,93,4,0.0,Clear,clear sky,13
Zichyújfalu,47.124444,18.6725,2026-03-08 13:11:21.370380,16.27,14.81,16.27,16.27,1027,33,3.38,90,7,0.0,Clear,clear sky,13
Seregélyes,47.121111,18.580556,2026-03-08 13:11:22.566082,16.46,15.02,16.46,16.46,1027,33,3.31,93,5,0.0,Clear,clear sky,13
Polgárdi-Ipartelepek,47.079167,18.314444,2026-03-08 13:11:23.766830,16.18,14.77,16.18,16.18,1027,35,3.24,94,5,0.0,Clear,clear sky,13
Polgárdi,47.07,18.284167,2026-03-08 13:11:24.968066,16.18,14.77,16.18,16.18,1027,35,3.24,94,5,0.0,Clear,clear sky,13
Füle,47.05,18.255278,2026-03-08 13:11:26.166350,16.17,14.76,16.17,16.17,1027,35,3.25,93,5,0.0,Clear,clear sky,13
Zánka-Erzsébettábor,46.8775,17.709167,2026-03-08 13:11:27.366197,16.33,15.19,16.33,16.33,1027,45,3.03,87,0,0.0,Clear,clear sky,13
Csajág,47.033889,18.186389,2026-03-08 13:11:28.564496,16.25,14.92,16.25,16.25,1027,38,3.22,94,4,0.0,Clear,clear sky,13
Balatonakarattya,47.017222,18.167778,2026-03-08 13:11:29.771669,16.25,14.92,16.25,16.25,1027,38,3.22,94,4,0.0,Clear,clear sky,13
Csittényhegy,47.025278,18.1375,2026-03-08 13:11:30.973021,16.46,15.15,16.46,16.46,1027,38,3.19,94,3,0.0,Clear,clear sky,13
Balatonkenese,47.0325,18.105556,2026-03-08 13:11:32.172386,16.55,15.28,16.55,16.55,1027,39,3.16,94,2,0.0,Clear,clear sky,13
Balatonfűzfő,47.060278,18.0425,2026-03-08 13:11:33.372498,16.23,14.95,16.23,16.23,1027,40,3.12,96,0,0.0,Clear,clear sky,13
Balatonalmádi,47.028333,18.015,2026-03-08 13:11:34.583175,16.42,15.19,16.42,16.42,1027,41,3.1,95,0,0.0,Clear,clear sky,13
Káptalanfüred,47.008889,18.003889,2026-03-08 13:11:35.785570,15.55,14.23,15.55,15.55,1027,41,3.08,95,0,0.0,Clear,clear sky,13
Alsóörs,46.985278,17.974722,2026-03-08 13:11:36.987683,15.55,14.23,15.55,15.55,1027,41,3.08,95,0,0.0,Clear,clear sky,13
Csopak,46.974722,17.931111,2026-03-08 13:11:38.188422,15.93,14.68,15.93,15.93,1027,42,3.06,94,0,0.0,Clear,clear sky,13
Balatonarács,46.9625,17.8975,2026-03-08 13:11:39.400996,15.93,14.68,15.93,15.93,1027,42,3.06,94,0,0.0,Clear,clear sky,13
Balatonfüred,46.955833,17.883056,2026-03-08 13:11:40.602904,16.33,15.12,16.33,16.33,1027,42,3.03,93,0,0.0,Clear,clear sky,13
Aszófő,46.925556,17.8325,2026-03-08 13:11:41.814107,16.28,15.09,16.28,16.28,1027,43,3.02,92,0,0.0,Clear,clear sky,13
Örvényes,46.9125,17.818056,2026-03-08 13:11:43.022415,16.28,15.09,16.28,16.28,1027,43,3.02,92,0,0.0,Clear,clear sky,13
Balatonudvari,46.904722,17.808056,2026-03-08 13:11:44.222591,15.76,14.51,15.76,15.76,1027,43,3.04,92,0,0.0,Clear,clear sky,13
Fövenyes,46.893611,17.789444,2026-03-08 13:11:45.427459,16.36,15.17,16.36,16.36,1027,43,3.01,90,0,0.0,Clear,clear sky,13
Balatonakali-Dörgicse,46.88,17.747778,2026-03-08 13:11:46.626560,16.0,14.78,16.0,16.0,1027,43,3.03,90,0,0.0,Clear,clear sky,13
Zánka-Köveskál,46.872778,17.687778,2026-03-08 13:11:47.831877,15.91,14.73,15.91,15.91,1027,45,3.06,86,0,0.0,Clear,clear sky,13
Balatonszepezd,46.851111,17.663056,2026-03-08 13:11:49.038337,16.23,15.11,16.23,16.23,1027,46,3.03,84,0,0.0,Clear,clear sky,13
Szepezdfürdő,46.839722,17.649444,2026-03-08 13:11:50.234403,15.18,13.95,15.18,15.18,1027,46,3.05,83,0,0.0,Clear,clear sky,13
Révfülöp,46.829167,17.632222,2026-03-08 13:11:51.430654,15.18,13.95,15.18,15.18,1027,46,3.05,83,0,0.0,Clear,clear sky,13
Balatonrendes,46.824722,17.582778,2026-03-08 13:11:52.645661,15.73,14.59,15.73,15.73,1027,47,3.05,78,0,0.0,Clear,clear sky,13
Ábrahámhegy,46.815,17.572222,2026-03-08 13:11:53.849957,15.73,14.59,15.73,15.73,1027,47,3.05,78,0,0.0,Clear,clear sky,13
Badacsonyörs,46.805556,17.531667,2026-03-08 13:11:55.051816,16.0,14.88,16.0,16.0,1027,47,3.04,77,0,0.0,Clear,clear sky,13
Kisújszállás,47.223889,20.751111,2026-03-08 13:11:56.253216,13.86,12.11,13.86,13.86,1028,31,3.69,49,4,0.0,Clear,clear sky,13
Karcag,47.303333,20.928056,2026-03-08 13:11:57.457401,13.63,11.88,13.63,13.63,1028,32,3.7,48,4,0.0,Clear,clear sky,13
Püspökladány,47.3275,21.128889,2026-03-08 13:11:58.662099,13.8,12.07,13.8,13.8,1028,32,3.61,50,3,0.0,Clear,clear sky,13
Kaba,47.368889,21.259444,2026-03-08 13:11:59.872570,13.96,12.25,13.96,13.96,1028,32,3.57,54,2,0.0,Clear,clear sky,13
Hajdúszoboszló,47.429444,21.406944,2026-03-08 13:12:01.069062,13.95,12.29,13.95,13.95,1028,34,3.67,59,1,0.0,Clear,clear sky,13
Ebes,47.462778,21.488889,2026-03-08 13:12:02.274239,13.98,12.35,13.98,13.98,1028,35,3.72,61,0,0.0,Clear,clear sky,13
Debrecen,47.520278,21.628611,2026-03-08 13:12:03.480258,13.96,12.35,13.96,13.96,1028,36,3.82,65,0,0.0,Clear,clear sky,13
Debrecen-Csapókert,47.540556,21.648056,2026-03-08 13:12:04.681202,13.85,12.23,13.85,13.85,1028,36,3.84,66,0,0.0,Clear,clear sky,13
Apafa,47.584045,21.655858,2026-03-08 13:12:05.883125,13.74,12.11,13.74,13.74,1028,36,3.83,65,1,0.0,Clear,clear sky,13
Bocskaikert,47.6425,21.666389,2026-03-08 13:12:07.079473,13.35,11.68,13.35,13.35,1028,36,3.79,63,3,0.0,Clear,clear sky,13
Hajdúhadház,47.686944,21.679167,2026-03-08 13:12:08.279520,13.44,11.81,13.44,13.44,1028,37,3.78,63,4,0.0,Clear,clear sky,13
Téglás,47.714722,21.684722,2026-03-08 13:12:09.482123,13.4,11.76,13.4,13.4,1028,37,3.76,62,5,0.0,Clear,clear sky,13
Újfehértó,47.814444,21.706389,2026-03-08 13:12:10.690413,13.27,11.62,13.27,13.27,1028,37,3.66,58,6,0.0,Clear,clear sky,13
Nyíregyháza,47.946667,21.705556,2026-03-08 13:12:11.895600,13.03,11.35,13.03,13.03,1028,37,3.53,54,6,0.0,Clear,clear sky,13
Sóstó,47.998051,21.729047,2026-03-08 13:12:13.103594,13.03,11.35,13.03,13.03,1028,37,3.4,54,5,0.0,Clear,clear sky,13
Sóstóhegy,48.012222,21.742778,2026-03-08 13:12:14.303686,13.07,11.4,13.07,13.07,1028,37,3.36,53,5,0.0,Clear,clear sky,13
Kemecse,48.065556,21.801667,2026-03-08 13:12:15.509037,13.19,11.56,13.19,13.19,1028,38,3.18,52,5,0.0,Clear,clear sky,13
Nyírbogdány,48.082222,21.855278,2026-03-08 13:12:16.712463,13.21,11.58,13.21,13.21,1028,38,3.06,52,6,0.0,Clear,clear sky,13
Kék,48.093333,21.883889,2026-03-08 13:12:17.911084,13.35,11.73,13.35,13.35,1028,38,2.98,53,6,0.0,Clear,clear sky,13
Demecser,48.111667,21.926667,2026-03-08 13:12:19.106733,13.4,11.79,13.4,13.4,1028,38,2.84,52,6,0.0,Clear,clear sky,13
Gégény,48.128333,21.951944,2026-03-08 13:12:20.316041,13.43,11.85,13.43,13.43,1028,39,2.7,52,6,0.0,Clear,clear sky,13
Pátroha,48.158611,21.996667,2026-03-08 13:12:21.516819,13.49,11.91,13.49,13.49,1028,39,2.58,51,6,0.0,Clear,clear sky,13
Ajak,48.1865,22.048972,2026-03-08 13:12:22.716269,13.52,11.97,13.52,13.52,1028,40,2.46,49,5,0.0,Clear,clear sky,13
Kisvárda,48.208333,22.078333,2026-03-08 13:12:23.918769,13.57,12.03,13.57,13.57,1028,40,2.3,47,4,0.0,Clear,clear sky,13
Kisvárda-Hármasút,48.228333,22.091944,2026-03-08 13:12:25.123805,13.57,12.03,13.57,13.57,1028,40,2.3,47,4,0.0,Clear,clear sky,13
Fényeslitke,48.267222,22.107222,2026-03-08 13:12:26.325725,13.53,12.01,13.53,13.53,1028,41,2.08,41,4,0.0,Clear,clear sky,13
Komoró,48.305278,22.118056,2026-03-08 13:12:27.533444,13.52,12.0,13.52,13.52,1028,41,1.99,37,4,0.0,Clear,clear sky,13
Tuzsér,48.342222,22.131667,2026-03-08 13:12:28.728176,13.44,11.91,13.44,13.44,1028,41,1.81,29,5,0.0,Clear,clear sky,13
Tiszabezdéd,48.371389,22.145,2026-03-08 13:12:29.929384,13.51,11.96,13.51,13.51,1028,40,1.6,23,5,0.0,Clear,clear sky,13
Záhony,48.402222,22.183611,2026-03-08 13:12:31.130153,13.57,12.03,13.57,13.57,1028,40,1.36,15,4,0.0,Clear,clear sky,13
Karcag-Vásártér,47.3225,20.9075,2026-03-08 13:12:32.332593,13.63,11.88,13.63,13.63,1028,32,3.7,48,4,0.0,Clear,clear sky,13
Berekfürdő,47.374722,20.827222,2026-03-08 13:12:33.530608,13.32,11.57,13.32,13.32,1028,33,3.79,50,5,0.0,Clear,clear sky,13
Kunmadaras,47.415278,20.793056,2026-03-08 13:12:34.738670,13.06,11.31,13.06,13.06,1028,34,3.86,51,5,0.0,Clear,clear sky,13
Tiszaszentimre,47.490833,20.733056,2026-03-08 13:12:35.935463,12.74,10.96,12.74,12.74,1028,34,3.97,54,5,0.0,Clear,clear sky,13
Tiszaszőlős,47.555556,20.728056,2026-03-08 13:12:37.138937,12.51,10.73,12.51,12.51,1028,35,4.03,55,5,0.0,Clear,clear sky,13
Hosszúhát,47.235556,21.101944,2026-03-08 13:12:38.338763,14.18,12.46,14.18,14.18,1027,31,3.52,50,2,0.0,Clear,clear sky,13
Szerep,47.234444,21.145833,2026-03-08 13:12:39.543674,14.24,12.53,14.24,14.24,1027,31,3.5,51,1,0.0,Clear,clear sky,13
Sárrétudvari,47.231667,21.180833,2026-03-08 13:12:40.747035,14.29,12.58,14.29,14.29,1027,31,3.47,52,1,0.0,Clear,clear sky,13
Biharnagybajom,47.208889,21.221944,2026-03-08 13:12:41.951047,14.42,12.75,14.42,14.42,1027,32,3.43,54,0,0.0,Clear,clear sky,13
Füzesgyarmat,47.113056,21.194444,2026-03-08 13:12:43.147555,14.68,13.01,14.68,14.68,1027,31,3.35,51,0,0.0,Clear,clear sky,13
Füzesgyarmatfürdő,47.093787,21.201582,2026-03-08 13:12:44.347889,14.68,13.01,14.68,14.68,1027,31,3.35,51,0,0.0,Clear,clear sky,13
Báránd,47.299722,21.235278,2026-03-08 13:12:45.553480,14.09,12.39,14.09,14.09,1028,32,3.52,54,1,0.0,Clear,clear sky,13
Sáp,47.259722,21.360556,2026-03-08 13:12:46.760391,14.46,12.82,14.46,14.46,1027,33,3.48,56,0,0.0,Clear,clear sky,13
Berettyóújfalu,47.211944,21.535556,2026-03-08 13:12:47.965177,14.92,13.38,14.92,14.92,1027,35,3.5,57,0,0.0,Clear,clear sky,13
Mezőpeterd,47.176111,21.625278,2026-03-08 13:12:49.176055,15.09,13.59,15.09,15.09,1027,36,3.38,54,0,0.0,Clear,clear sky,13
Biharkeresztes,47.135556,21.721389,2026-03-08 13:12:50.382856,15.33,13.86,15.33,15.33,1027,36,2.97,46,2,0.0,Clear,clear sky,13
Tócóvölgy,47.529444,21.588889,2026-03-08 13:12:51.584406,13.91,12.3,13.91,13.91,1028,36,3.8,64,0,0.0,Clear,clear sky,13
Sáregres,46.7825,18.588889,2026-03-08 13:12:52.781202,16.63,15.34,16.63,16.63,1027,38,3.12,91,2,0.0,Clear,clear sky,13
Simontornya,46.756582,18.540674,2026-03-08 13:12:53.986357,16.59,15.32,16.59,16.59,1027,39,3.06,94,0,0.0,Clear,clear sky,13
Tolnanémedi,46.727778,18.475833,2026-03-08 13:12:55.189582,16.68,15.42,16.68,16.68,1027,39,3.02,94,0,0.0,Clear,clear sky,13
Pincehely,46.681389,18.43,2026-03-08 13:12:56.387435,16.55,15.28,16.55,16.55,1027,39,2.99,96,0,0.0,Clear,clear sky,13
Keszőhidegkút-Gyönk,46.597778,18.426111,2026-03-08 13:12:57.588672,16.62,15.36,16.62,16.62,1027,39,2.86,95,0,0.0,Clear,clear sky,13
Szárazd,46.575556,18.420833,2026-03-08 13:12:58.792787,16.67,15.41,16.67,16.67,1027,39,2.82,94,0,0.0,Clear,clear sky,13
Regöly,46.568889,18.396111,2026-03-08 13:12:59.994838,16.67,15.41,16.67,16.67,1027,39,2.82,94,0,0.0,Clear,clear sky,13
Szakály-Hőgyész,46.523611,18.389444,2026-03-08 13:13:01.194332,16.61,15.34,16.61,16.61,1027,39,2.77,95,0,0.0,Clear,clear sky,13
Dúzs,46.493889,18.377222,2026-03-08 13:13:02.395699,16.66,15.37,16.66,16.66,1027,38,2.73,95,0,0.0,Clear,clear sky,13
Csibrák,46.466667,18.336389,2026-03-08 13:13:03.590745,16.73,15.45,16.73,16.73,1026,38,2.73,96,0,0.0,Clear,clear sky,13
Kurd,46.449167,18.319167,2026-03-08 13:13:04.789764,16.4,15.09,16.4,16.4,1026,38,2.69,97,0,0.0,Clear,clear sky,13
Döbrököz,46.418889,18.255,2026-03-08 13:13:05.998083,16.73,15.45,16.73,16.73,1026,38,2.73,98,0,0.0,Clear,clear sky,13
Dombóvár,46.37,18.149722,2026-03-08 13:13:07.197946,16.84,15.55,16.84,16.84,1026,37,2.73,98,0,0.0,Clear,clear sky,13
Dombóvár alsó,46.363889,18.134167,2026-03-08 13:13:08.393443,16.84,15.55,16.84,16.84,1026,37,2.73,98,0,0.0,Clear,clear sky,13
Somoskőújfalu,48.154722,19.815556,2026-03-08 13:13:09.590849,10.93,8.97,10.93,10.93,1028,34,2.41,65,5,0.0,Clear,clear sky,13
Jászfényszaru,47.593056,19.754444,2026-03-08 13:13:10.789671,14.5,12.92,14.5,14.5,1028,35,2.54,75,5,0.0,Clear,clear sky,13
Pusztamonostor,47.564444,19.794167,2026-03-08 13:13:11.984474,14.43,12.82,14.43,14.43,1028,34,2.86,68,4,0.0,Clear,clear sky,13
Jászberény,47.494444,19.893333,2026-03-08 13:13:13.180433,14.45,12.73,14.45,14.45,1028,30,3.62,58,3,0.0,Clear,clear sky,13
Meggyespele,47.441944,19.938889,2026-03-08 13:13:14.376017,14.42,12.67,14.42,14.42,1028,29,3.79,56,1,0.0,Clear,clear sky,13
Portelek,47.418056,19.958889,2026-03-08 13:13:15.581604,14.49,12.75,14.49,14.49,1028,29,3.77,57,0,0.0,Clear,clear sky,13
Jászboldogháza-Jánoshida,47.366944,20.001389,2026-03-08 13:13:16.776855,14.51,12.75,14.51,14.51,1028,28,3.65,59,0,0.0,Clear,clear sky,13
Jászárokszállás,47.635556,19.971111,2026-03-08 13:13:17.975058,13.9,12.16,13.9,13.9,1028,31,2.8,79,0,0.0,Clear,clear sky,13
Jászdózsa,47.563056,20.028056,2026-03-08 13:13:19.179954,13.82,12.04,13.82,13.82,1028,30,3.28,68,0,0.0,Clear,clear sky,13
Jászapáti,47.513611,20.155,2026-03-08 13:13:20.378864,13.61,11.81,13.61,13.61,1028,30,3.52,62,0,0.0,Clear,clear sky,13
Jászkisér,47.456111,20.203333,2026-03-08 13:13:21.576391,13.7,11.91,13.7,13.7,1028,30,3.62,58,1,0.0,Clear,clear sky,13
Jászladány,47.373333,20.159167,2026-03-08 13:13:22.773405,14.16,12.39,14.16,14.16,1028,29,3.79,58,2,0.0,Clear,clear sky,13
Szászberek,47.320556,20.090833,2026-03-08 13:13:23.977687,14.39,12.62,14.39,14.39,1028,28,3.76,60,2,0.0,Clear,clear sky,13
Gyöngyöshalász,47.743056,19.932222,2026-03-08 13:13:25.179747,13.5,11.79,13.5,13.5,1028,34,2.32,109,2,0.0,Clear,clear sky,13
Gyöngyös,47.783056,19.937222,2026-03-08 13:13:26.374161,12.92,11.13,12.92,12.92,1027,33,2.43,106,2,0.0,Clear,clear sky,13
Erdőtelek,47.683333,20.3025,2026-03-08 13:13:27.573241,12.49,10.6,12.49,12.49,1028,31,3.87,78,0,0.0,Clear,clear sky,13
Heves,47.609444,20.306111,2026-03-08 13:13:28.775225,12.86,11.01,12.86,12.86,1028,31,3.68,70,0,0.0,Clear,clear sky,13
Hevesvezekény,47.562222,20.365833,2026-03-08 13:13:29.973464,12.83,10.98,12.83,12.83,1028,31,3.79,65,0,0.0,Clear,clear sky,13
Tarnaszentmiklós,47.546944,20.390833,2026-03-08 13:13:31.170440,12.94,11.1,12.94,12.94,1028,31,3.76,62,0,0.0,Clear,clear sky,13
Kisköre,47.495556,20.481667,2026-03-08 13:13:32.366463,12.96,11.12,12.96,12.96,1028,31,4.02,55,0,0.0,Clear,clear sky,13
Abádszalók,47.455278,20.553056,2026-03-08 13:13:33.570771,13.0,11.19,13.0,13.0,1028,32,4.05,54,1,0.0,Clear,clear sky,13
Kunhegyes,47.376667,20.641111,2026-03-08 13:13:34.767056,13.18,11.39,13.18,13.18,1028,32,3.99,52,4,0.0,Clear,clear sky,13
Kenderes,47.254444,20.686111,2026-03-08 13:13:35.963030,13.74,11.98,13.74,13.74,1028,31,3.8,50,4,0.0,Clear,clear sky,13
Maklár,47.808056,20.404722,2026-03-08 13:13:37.161461,11.64,9.67,11.64,11.64,1028,31,3.71,76,1,0.0,Clear,clear sky,13
Andornaktálya,47.852203,20.402295,2026-03-08 13:13:38.368067,11.29,9.28,11.29,11.29,1028,31,3.3,77,3,0.0,Clear,clear sky,13
Eger,47.891667,20.381667,2026-03-08 13:13:39.563418,11.2,9.16,11.2,11.2,1028,30,3.1,78,6,0.0,Clear,clear sky,13
Egervár,47.908056,20.380556,2026-03-08 13:13:40.767806,11.23,9.19,11.23,11.23,1028,30,2.89,77,7,0.0,Clear,clear sky,13
Eger-Felnémet,47.936667,20.370556,2026-03-08 13:13:41.964171,11.09,9.04,11.09,11.09,1028,30,2.7,76,8,0.0,Clear,clear sky,13
Szarvaskő,47.988611,20.3325,2026-03-08 13:13:43.163138,10.48,8.34,10.48,10.48,1027,29,2.45,72,11,0.0,Clouds,few clouds,13
Mónosbél,48.031944,20.33,2026-03-08 13:13:44.358301,10.5,8.36,10.5,10.5,1027,29,2.38,68,12,0.0,Clouds,few clouds,13
Bélapátfalva,48.055556,20.340556,2026-03-08 13:13:45.557397,10.24,8.08,10.24,10.24,1027,29,2.41,67,13,0.0,Clouds,few clouds,13
Bélapátfalvi Cementgyár,48.058056,20.355,2026-03-08 13:13:46.756306,10.24,8.08,10.24,10.24,1027,29,2.41,67,13,0.0,Clouds,few clouds,13
Szilvásvárad,48.11345,20.37919,2026-03-08 13:13:47.966969,9.84,8.63,9.84,9.84,1028,30,2.51,67,12,0.0,Clouds,few clouds,13
Hejőkeresztúr,47.960278,20.869444,2026-03-08 13:13:49.167195,11.4,9.56,11.4,11.4,1028,37,3.33,70,5,0.0,Clear,clear sky,13
Tiszaújváros,47.926111,21.030556,2026-03-08 13:13:50.361953,11.72,9.94,11.72,11.72,1028,38,3.7,67,7,0.0,Clear,clear sky,13
Miskolc-Gömöri,48.106667,20.800278,2026-03-08 13:13:51.567189,11.66,9.87,11.66,11.66,1028,38,2.53,77,0,0.0,Clear,clear sky,13
Sajókeresztúr,48.168008,20.774014,2026-03-08 13:13:52.766031,11.54,9.72,11.54,11.54,1028,37,2.43,77,1,0.0,Clear,clear sky,13
Sajóecseg,48.186111,20.766667,2026-03-08 13:13:53.977450,11.59,9.77,11.59,11.59,1028,37,2.43,78,2,0.0,Clear,clear sky,13
Sajószentpéter,48.222222,20.708056,2026-03-08 13:13:55.187120,11.54,9.69,11.54,11.54,1028,36,2.52,78,4,0.0,Clear,clear sky,13
Kazincbarcika,48.264444,20.6275,2026-03-08 13:13:56.391142,11.55,9.65,11.55,11.55,1028,34,2.8,79,10,0.0,Clear,clear sky,13
Sajókaza,48.272778,20.581944,2026-03-08 13:13:57.587809,11.55,9.62,11.55,11.55,1028,33,2.8,79,10,0.0,Clear,clear sky,13
Vadna,48.276389,20.555278,2026-03-08 13:13:58.793177,11.55,9.62,11.55,11.55,1028,33,2.8,79,10,0.0,Clear,clear sky,13
Dubicsány,48.280833,20.504722,2026-03-08 13:13:59.997135,11.58,9.63,11.58,11.58,1028,32,2.77,80,9,0.0,Clear,clear sky,13
Raposka,46.851389,17.412778,2026-03-08 13:14:01.198201,16.29,15.15,16.29,16.29,1027,45,2.85,84,0,0.0,Clear,clear sky,13
Ivacs,47.641944,19.273889,2026-03-08 13:14:02.398117,15.24,13.89,15.24,15.24,1028,41,2.16,97,9,0.0,Clear,clear sky,13
Kisköre-Tiszahíd,47.480835,20.507698,2026-03-08 13:14:03.627919,13.06,11.23,13.06,13.06,1028,31,4.02,54,1,0.0,Clear,clear sky,13
Rozsály,47.912778,22.7825,2026-03-08 13:14:04.827402,15.95,14.62,15.95,15.95,1028,39,1.91,72,2,0.0,Clear,clear sky,13
Pusztakettős,47.453611,20.749722,2026-03-08 13:14:06.022527,12.94,11.18,12.94,12.94,1028,34,3.91,52,5,0.0,Clear,clear sky,13
Kisvác,47.795278,19.113611,2026-03-08 13:14:07.225527,15.54,14.32,15.54,15.54,1028,45,1.9,100,13,0.0,Clouds,few clouds,13
Tiszafüred-Gyártelep,47.6075,20.736111,2026-03-08 13:14:08.422885,12.3,10.5,12.3,12.3,1028,35,4.05,56,5,0.0,Clear,clear sky,13
Újkenéz,48.251111,22.221667,2026-03-08 13:14:09.618330,13.77,12.27,13.77,13.77,1028,41,1.94,43,0,0.0,Clear,clear sky,13
Püspökladány-Vásártér,47.319167,21.096111,2026-03-08 13:14:10.818334,13.9,12.16,13.9,13.9,1028,31,3.59,50,3,0.0,Clear,clear sky,13
Végegyháza alsó,46.3675,20.866944,2026-03-08 13:14:12.018447,15.76,14.17,15.76,15.76,1027,30,2.6,43,0,0.0,Clear,clear sky,13
Orosháza felső,46.553611,20.655278,2026-03-08 13:14:13.219607,15.68,14.03,15.68,15.68,1027,28,2.75,47,0,0.0,Clear,clear sky,13
Ambrózfalva,46.353056,20.740556,2026-03-08 13:14:14.423479,15.86,14.26,15.86,15.86,1027,29,2.63,45,0,0.0,Clear,clear sky,13
Alsónyék,46.199444,18.738056,2026-03-08 13:14:15.628602,16.82,15.6,16.82,16.82,1026,40,2.51,101,0,0.0,Clear,clear sky,13
Tompapuszta,46.321389,20.966389,2026-03-08 13:14:16.832347,15.7,14.14,15.7,15.7,1027,31,2.54,39,0,0.0,Clear,clear sky,13
Halászlak,46.911879,20.56228,2026-03-08 13:14:18.031429,14.91,13.19,14.91,14.91,1027,28,3.41,53,0,0.0,Clear,clear sky,13
Sirató,46.840556,20.61,2026-03-08 13:14:19.239814,15.09,13.36,15.09,15.09,1027,27,3.22,53,0,0.0,Clear,clear sky,13
Csabacsűd felső,46.829167,20.649167,2026-03-08 13:14:20.441483,15.07,13.34,15.07,15.07,1027,27,3.19,52,0,0.0,Clear,clear sky,13
Orosháza-Üveggyár,46.579979,20.683644,2026-03-08 13:14:21.653296,15.59,13.94,15.59,15.59,1027,28,2.75,48,0,0.0,Clear,clear sky,13
Gyulai városerdő,46.69482,21.32281,2026-03-08 13:14:22.861843,15.4,13.83,15.4,15.4,1027,32,2.6,46,0,0.0,Clear,clear sky,13
Kórógyszentgyörgy,46.564377,20.224998,2026-03-08 13:14:24.058962,15.82,14.19,15.82,15.82,1027,28,3.17,51,0,0.0,Clear,clear sky,13
Kunszállás,46.784444,19.767222,2026-03-08 13:14:25.257889,15.68,14.03,15.68,15.68,1027,28,3.72,59,0,0.0,Clear,clear sky,13
Selymes,46.655321,19.8534,2026-03-08 13:14:26.458221,15.87,14.24,15.87,15.87,1027,28,3.46,55,0,0.0,Clear,clear sky,13
Petőfiszállási tanyák,46.587805,19.874509,2026-03-08 13:14:27.652515,15.96,14.34,15.96,15.96,1027,28,3.36,53,0,0.0,Clear,clear sky,13
Kisteleki szőlők,46.514199,19.92868,2026-03-08 13:14:28.854444,16.02,14.43,16.02,16.02,1027,29,3.24,52,0,0.0,Clear,clear sky,13
Kapitányság,46.435336,19.987564,2026-03-08 13:14:30.048119,16.16,14.59,16.16,16.16,1027,29,3.14,52,0,0.0,Clear,clear sky,13
Őszeszék,46.39025,20.016017,2026-03-08 13:14:31.244985,16.24,14.7,16.24,16.24,1027,30,3.07,53,0,0.0,Clear,clear sky,13
Vilmaszállás,46.366389,20.030833,2026-03-08 13:14:32.455178,16.29,14.78,16.29,16.29,1027,31,3.05,53,0,0.0,Clear,clear sky,13
Jánosszállás,46.334359,20.051199,2026-03-08 13:14:33.656476,16.33,14.83,16.33,16.33,1027,31,3.02,53,0,0.0,Clear,clear sky,13
Felsőpakony,47.343056,19.230556,2026-03-08 13:14:34.861163,16.18,14.77,16.18,16.18,1027,35,3.38,73,9,0.0,Clear,clear sky,13
Felsőméntelek,46.987074,19.557745,2026-03-08 13:14:36.055706,15.54,13.93,15.54,15.54,1027,30,3.68,67,0,0.0,Clear,clear sky,13
Alsóméntelek,46.961558,19.579121,2026-03-08 13:14:37.261174,15.56,13.95,15.56,15.56,1027,30,3.67,68,0,0.0,Clear,clear sky,13
Nagynyír,46.943319,19.585447,2026-03-08 13:14:38.470428,15.59,13.96,15.59,15.59,1027,29,3.66,67,0,0.0,Clear,clear sky,13
Úrihegy,46.917778,19.621389,2026-03-08 13:14:39.664462,15.61,13.98,15.61,15.61,1027,29,3.69,66,0,0.0,Clear,clear sky,13
Miklóstelep,46.913412,19.630913,2026-03-08 13:14:40.863428,15.58,13.95,15.58,15.58,1027,29,3.73,65,0,0.0,Clear,clear sky,13
Tiszajenő alsó,47.016944,20.134444,2026-03-08 13:14:42.076439,15.0,13.29,15.0,15.0,1027,28,3.95,55,0,0.0,Clear,clear sky,13
Óbög,46.987222,20.111111,2026-03-08 13:14:43.277828,15.1,13.4,15.1,15.1,1027,28,3.96,56,0,0.0,Clear,clear sky,13
Árpádszállás,46.866456,19.989163,2026-03-08 13:14:44.483329,15.41,13.71,15.41,15.41,1027,27,3.88,57,0,0.0,Clear,clear sky,13
Tőserdő,46.851111,19.980278,2026-03-08 13:14:45.678317,15.49,13.8,15.49,15.49,1027,27,3.82,57,0,0.0,Clear,clear sky,13
Tiszaalpár felső,46.836256,19.976753,2026-03-08 13:14:46.880606,15.49,13.8,15.49,15.49,1027,27,3.82,57,0,0.0,Clear,clear sky,13
Borsihalom,46.773056,19.92,2026-03-08 13:14:48.083085,15.63,13.95,15.63,15.63,1027,27,3.72,57,0,0.0,Clear,clear sky,13
Petőfiváros,46.725556,19.848611,2026-03-08 13:14:49.287254,15.75,14.11,15.75,15.75,1027,28,3.62,56,0,0.0,Clear,clear sky,13
Csorna,47.601944,17.248889,2026-03-08 13:14:50.481588,16.93,15.59,16.93,16.93,1027,35,2.15,131,2,0.0,Clear,clear sky,13
Szorgalmatos,47.986667,21.366389,2026-03-08 13:14:51.686595,12.29,10.57,12.29,12.29,1028,38,3.73,61,6,0.0,Clear,clear sky,13
Fótfürdő,47.6225,19.200556,2026-03-08 13:14:52.889350,15.78,14.46,15.78,15.78,1028,40,2.04,96,7,0.0,Clear,clear sky,13
Fenyveshegy,47.818333,19.068056,2026-03-08 13:14:54.096992,15.78,14.59,15.78,15.78,1028,45,1.83,102,16,0.0,Clouds,few clouds,13
Hűvösvölgy,47.541202,18.96351,2026-03-08 13:14:55.297296,14.97,13.46,14.97,14.97,1027,36,2.19,96,4,0.0,Clear,clear sky,13
Hárshegy,47.535318,18.961433,2026-03-08 13:14:56.494503,14.97,13.46,14.97,14.97,1027,36,2.19,96,4,0.0,Clear,clear sky,13
Szépjuhászné,47.528277,18.955246,2026-03-08 13:14:57.696803,14.69,13.15,14.69,14.69,1027,36,2.31,94,5,0.0,Clear,clear sky,13
Jánoshegy,47.51433,18.95047,2026-03-08 13:14:58.890597,14.69,13.15,14.69,14.69,1027,36,2.31,94,5,0.0,Clear,clear sky,13
Virágvölgy,47.505965,18.95876,2026-03-08 13:15:00.094202,14.86,13.32,14.86,14.86,1027,35,2.44,92,6,0.0,Clear,clear sky,13
Csillebérc,47.498196,18.961694,2026-03-08 13:15:01.293455,14.86,13.32,14.86,14.86,1027,35,2.44,92,6,0.0,Clear,clear sky,13
Normafa,47.5,18.970558,2026-03-08 13:15:02.488229,14.86,13.32,14.86,14.86,1027,35,2.44,92,6,0.0,Clear,clear sky,13
Széchenyihegy,47.49413,18.977049,2026-03-08 13:15:03.695358,14.04,12.41,14.04,14.04,1027,35,2.39,92,6,0.0,Clear,clear sky,13
Balatonfőkajár felső,47.031389,18.215278,2026-03-08 13:15:04.894957,16.4,15.06,16.4,16.4,1027,37,3.24,93,4,0.0,Clear,clear sky,13
Piroska,47.148333,20.129722,2026-03-08 13:15:06.126744,14.7,12.96,14.7,14.7,1027,28,3.95,59,2,0.0,Clear,clear sky,13
Somodor,46.4725,17.836667,2026-03-08 13:15:07.323317,16.63,15.37,16.63,16.63,1026,39,3.02,97,0,0.0,Clear,clear sky,13
Középmező,45.995833,18.668889,2026-03-08 13:15:08.520786,16.96,15.73,16.96,16.96,1026,39,2.92,98,0,0.0,Clear,clear sky,13
Jobbágyi,47.828889,19.6875,2026-03-08 13:15:09.718079,14.09,12.6,14.09,14.09,1028,40,1.54,123,8,0.0,Clear,clear sky,13
Ferihegy,47.437222,19.223889,2026-03-08 13:15:10.914939,16.18,14.79,16.18,16.18,1028,36,2.69,80,8,0.0,Clear,clear sky,13
Máriapócs,47.852778,22.019167,2026-03-08 13:15:12.110361,13.95,12.39,13.95,13.95,1028,38,3.4,64,1,0.0,Clear,clear sky,13
Máriaudvar,47.751944,19.165,2026-03-08 13:15:13.305927,15.84,14.63,15.84,15.84,1028,44,1.97,100,10,0.0,Clear,clear sky,13
Nagyberki,46.353333,18.004167,2026-03-08 13:15:14.516259,16.79,15.49,16.79,16.79,1026,37,2.73,95,0,0.0,Clear,clear sky,13
Badacsonytomaj,46.804722,17.518056,2026-03-08 13:15:15.729099,16.0,14.88,16.0,16.0,1027,47,3.04,77,0,0.0,Clear,clear sky,13
Badacsony,46.788611,17.506389,2026-03-08 13:15:16.929148,16.04,14.93,16.04,16.04,1027,47,3.02,74,0,0.0,Clear,clear sky,13
Badacsonylábdihegy,46.793889,17.470833,2026-03-08 13:15:18.130093,16.04,14.93,16.04,16.04,1027,47,3.02,74,0,0.0,Clear,clear sky,13
Badacsonytördemic-Szigliget,46.809722,17.469167,2026-03-08 13:15:19.339319,16.08,14.94,16.08,16.08,1027,46,3.01,77,0,0.0,Clear,clear sky,13
Nemesgulács-Kisapáti,46.836944,17.476389,2026-03-08 13:15:20.539849,16.17,15.04,16.17,16.17,1027,46,3.0,81,0,0.0,Clear,clear sky,13
Tapolca,46.877778,17.428611,2026-03-08 13:15:21.746909,16.32,15.16,16.32,16.32,1027,44,2.86,90,0,0.0,Clear,clear sky,13
Uzsabánya alsó,46.898333,17.345278,2026-03-08 13:15:22.941743,15.42,14.11,15.42,15.42,1027,42,2.81,100,0,0.0,Clear,clear sky,13
Uzsa,46.920278,17.331667,2026-03-08 13:15:24.140287,16.27,15.05,16.27,16.27,1027,42,2.89,107,0,0.0,Clear,clear sky,13
Sümegi Bazaltbánya,46.9525,17.2925,2026-03-08 13:15:25.351025,16.38,15.12,16.38,16.38,1027,40,2.96,115,0,0.0,Clear,clear sky,13
Sümeg,46.981111,17.270833,2026-03-08 13:15:26.554798,16.62,15.36,16.62,16.62,1027,39,3.01,122,0,0.0,Clear,clear sky,13
Gógánfa,47.021111,17.207778,2026-03-08 13:15:27.760246,16.7,15.42,16.7,16.7,1027,38,3.09,129,0,0.0,Clear,clear sky,13
Ukk,47.041944,17.195833,2026-03-08 13:15:28.962351,16.77,15.47,16.77,16.77,1026,37,3.05,132,0,0.0,Clear,clear sky,13
Nemeskeresztúr,47.093611,17.183611,2026-03-08 13:15:30.159756,16.74,15.44,16.74,16.74,1026,37,2.96,134,0,0.0,Clear,clear sky,13
Jánosháza,47.115833,17.171667,2026-03-08 13:15:31.366126,16.82,15.5,16.82,16.82,1026,36,2.87,134,0,0.0,Clear,clear sky,13
Keszthely,46.758333,17.248056,2026-03-08 13:15:32.567056,16.41,15.26,16.41,16.41,1027,44,2.66,80,0,0.0,Clear,clear sky,13
Alsógyenes,46.765844,17.276435,2026-03-08 13:15:33.773945,16.37,15.21,16.37,16.37,1027,44,2.73,75,0,0.0,Clear,clear sky,13
Gyenesdiás,46.763333,17.292778,2026-03-08 13:15:34.969955,16.37,15.21,16.37,16.37,1027,44,2.73,75,0,0.0,Clear,clear sky,13
Vonyarcvashegy,46.755278,17.318333,2026-03-08 13:15:36.170923,15.74,14.54,15.74,15.74,1027,45,2.78,74,0,0.0,Clear,clear sky,13
Balatongyörök,46.751944,17.354444,2026-03-08 13:15:37.373875,16.25,15.11,16.25,16.25,1027,45,2.83,72,0,0.0,Clear,clear sky,13
Becehegy,46.776111,17.372778,2026-03-08 13:15:38.581550,15.12,13.86,15.12,15.12,1027,45,2.82,75,0,0.0,Clear,clear sky,13
Balatonederics,46.8025,17.385,2026-03-08 13:15:39.788236,15.09,13.83,15.09,15.09,1027,45,2.8,79,0,0.0,Clear,clear sky,13
Dabronc,47.025766,17.167006,2026-03-08 13:15:40.999472,16.73,15.45,16.73,16.73,1026,38,3.05,130,0,0.0,Clear,clear sky,13
Türje,46.994444,17.093611,2026-03-08 13:15:42.193755,16.67,15.41,16.67,16.67,1027,39,2.98,128,0,0.0,Clear,clear sky,13
Zalabér-Batyk,46.983056,17.040833,2026-03-08 13:15:43.390377,16.72,15.49,16.72,16.72,1027,40,2.91,125,0,0.0,Clear,clear sky,13
Pakod,46.959167,16.996667,2026-03-08 13:15:44.586230,16.61,15.37,16.61,16.61,1027,40,2.9,125,0,0.0,Clear,clear sky,13
Pókaszepetk,46.924444,16.972222,2026-03-08 13:15:45.790549,16.66,15.45,16.66,16.66,1027,41,2.89,120,0,0.0,Clear,clear sky,13
Kemendollár,46.905833,16.946667,2026-03-08 13:15:46.991759,16.37,15.13,16.37,16.37,1027,41,2.87,120,0,0.0,Clear,clear sky,13
Zalaegerszeg,46.833056,16.848333,2026-03-08 13:15:48.192855,16.35,15.16,16.35,16.35,1027,43,2.61,112,0,0.0,Clear,clear sky,13
Bocfölde,46.780278,16.853611,2026-03-08 13:15:49.416449,16.38,15.2,16.38,16.38,1027,43,2.56,107,0,0.0,Clear,clear sky,13
Sárhida,46.755833,16.851389,2026-03-08 13:15:50.612071,15.59,14.33,15.59,15.59,1027,43,2.44,105,0,0.0,Clear,clear sky,13
Bak,46.7325,16.849167,2026-03-08 13:15:51.813752,16.0,14.78,16.0,16.0,1027,43,2.38,103,0,0.0,Clear,clear sky,13
Tófej,46.670833,16.801944,2026-03-08 13:15:53.012251,15.86,14.62,15.86,15.86,1026,43,2.2,99,0,0.0,Clear,clear sky,13
Gutorfölde,46.646944,16.739722,2026-03-08 13:15:54.213565,16.15,14.92,16.15,16.15,1026,42,2.09,99,0,0.0,Clear,clear sky,13
Csömödér-Páka,46.608056,16.641111,2026-03-08 13:15:55.426884,16.42,15.19,16.42,16.42,1026,41,2.1,99,0,0.0,Clear,clear sky,13
Iklódbördőce,46.603056,16.604722,2026-03-08 13:15:56.627007,16.25,15.0,16.25,16.25,1026,41,2.17,101,0,0.0,Clear,clear sky,13
Lenti,46.621389,16.528611,2026-03-08 13:15:57.821887,16.43,15.2,16.43,16.43,1026,41,2.27,104,0,0.0,Clear,clear sky,13
Rédics,46.618056,16.471111,2026-03-08 13:15:59.022289,16.44,15.21,16.44,16.44,1026,41,2.3,104,0,0.0,Clear,clear sky,13
Zalalövő,46.845556,16.576389,2026-03-08 13:16:00.223543,16.23,15.01,16.23,16.23,1026,42,2.34,111,0,0.0,Clear,clear sky,13
Zalaegerszeg-Ola,46.849167,16.844722,2026-03-08 13:16:01.436143,16.35,15.16,16.35,16.35,1027,43,2.61,112,0,0.0,Clear,clear sky,13
Andráshida,46.863116,16.7792,2026-03-08 13:16:02.632107,16.35,15.14,16.35,16.35,1026,42,2.6,115,0,0.0,Clear,clear sky,13
Bagod,46.875,16.746111,2026-03-08 13:16:03.825776,16.45,15.25,16.45,16.45,1026,42,2.5,114,0,0.0,Clear,clear sky,13
Zalaszentgyörgy,46.872222,16.7125,2026-03-08 13:16:05.028223,16.4,15.19,16.4,16.4,1026,42,2.46,114,0,0.0,Clear,clear sky,13
Zalacséb-Salomvár,46.858056,16.662222,2026-03-08 13:16:06.242105,16.17,14.94,16.17,16.17,1026,42,2.43,113,0,0.0,Clear,clear sky,13
Kópháza,47.631389,16.6375,2026-03-08 13:16:07.449194,16.39,15.02,16.39,16.39,1026,36,3.33,138,6,0.0,Clear,clear sky,13
Nagycenk,47.601111,16.690278,2026-03-08 13:16:08.655302,16.57,15.22,16.57,16.57,1026,36,3.18,140,6,0.0,Clear,clear sky,13
Sopronkövesd,47.548333,16.748056,2026-03-08 13:16:09.863440,16.42,15.06,16.42,16.42,1026,36,3.01,143,6,0.0,Clear,clear sky,13
Lövő,47.509444,16.7775,2026-03-08 13:16:11.061189,16.39,15.02,16.39,16.39,1026,36,2.9,144,4,0.0,Clear,clear sky,13
Újkér,47.457778,16.786667,2026-03-08 13:16:12.269986,16.49,15.13,16.49,16.49,1026,36,2.86,144,4,0.0,Clear,clear sky,13
Bük,47.388611,16.752222,2026-03-08 13:16:13.473522,16.56,15.21,16.56,16.56,1026,36,2.69,143,3,0.0,Clear,clear sky,13
Acsád,47.308333,16.734722,2026-03-08 13:16:14.670833,16.27,14.89,16.27,16.27,1026,36,2.43,140,2,0.0,Clear,clear sky,13
Salköveskút-Vassurány,47.291389,16.704167,2026-03-08 13:16:15.871325,16.31,14.96,16.31,16.31,1026,37,2.37,138,2,0.0,Clear,clear sky,13
Zalaszentiván,46.8875,16.909444,2026-03-08 13:16:17.069440,16.5,15.3,16.5,16.5,1027,42,2.79,117,0,0.0,Clear,clear sky,13
Alsónemesapáti,46.854167,16.936389,2026-03-08 13:16:18.280373,16.54,15.35,16.54,16.54,1027,42,2.83,113,0,0.0,Clear,clear sky,13
Józsa,47.600833,21.584444,2026-03-08 13:16:19.476339,13.47,11.81,13.47,13.47,1028,36,3.77,63,2,0.0,Clear,clear sky,13
Hajdúszentgyörgy,47.608056,21.578333,2026-03-08 13:16:20.679082,13.47,11.81,13.47,13.47,1028,36,3.77,63,2,0.0,Clear,clear sky,13
Zelemér,47.627778,21.578333,2026-03-08 13:16:21.874970,13.35,11.68,13.35,13.35,1028,36,3.78,62,2,0.0,Clear,clear sky,13
Hajdúböszörmény,47.668056,21.524167,2026-03-08 13:16:23.079430,13.17,11.48,13.17,13.17,1028,36,3.74,58,4,0.0,Clear,clear sky,13
Hajdúvid,47.749444,21.508056,2026-03-08 13:16:24.277187,12.97,11.26,12.97,12.97,1028,36,3.74,56,5,0.0,Clear,clear sky,13
Hajdúdorog,47.805556,21.493056,2026-03-08 13:16:25.495403,12.82,11.12,12.82,12.82,1028,37,3.74,56,5,0.0,Clear,clear sky,13
Hajdúnánás,47.831944,21.426667,2026-03-08 13:16:26.695711,12.65,10.94,12.65,12.65,1028,37,3.75,56,5,0.0,Clear,clear sky,13
Hajdúnánás-Vásártér,47.843056,21.407222,2026-03-08 13:16:27.890750,12.65,10.94,12.65,12.65,1028,37,3.75,56,5,0.0,Clear,clear sky,13
Tedej,47.903611,21.404444,2026-03-08 13:16:29.089375,12.49,10.79,12.49,12.49,1028,38,3.74,57,6,0.0,Clear,clear sky,13
Tiszavasvári,47.945278,21.374722,2026-03-08 13:16:30.294836,12.35,10.63,12.35,12.35,1028,38,3.74,59,6,0.0,Clear,clear sky,13
Egyházerdő,47.9725,21.365,2026-03-08 13:16:31.495157,12.33,10.61,12.33,12.33,1028,38,3.74,60,6,0.0,Clear,clear sky,13
Tiszalök,48.013056,21.369167,2026-03-08 13:16:32.691564,12.26,10.53,12.26,12.26,1028,38,3.74,62,5,0.0,Clear,clear sky,13
Hajnalos,47.998889,21.414167,2026-03-08 13:16:33.901363,12.38,10.67,12.38,12.38,1028,38,3.71,60,6,0.0,Clear,clear sky,13
Kisfástanya,47.989167,21.47,2026-03-08 13:16:35.099502,12.43,10.72,12.43,12.43,1028,38,3.69,59,6,0.0,Clear,clear sky,13
Tiszaeszlár,48.010556,21.491944,2026-03-08 13:16:36.304002,12.51,10.81,12.51,12.51,1028,38,3.65,59,5,0.0,Clear,clear sky,13
Bashalom,48.026111,21.514722,2026-03-08 13:16:37.501477,12.52,10.82,12.52,12.52,1028,38,3.66,59,5,0.0,Clear,clear sky,13
Sáránd,47.415556,21.625,2026-03-08 13:16:38.696928,14.41,12.85,14.41,14.41,1028,36,3.81,64,0,0.0,Clear,clear sky,13
Derecske,47.365,21.584167,2026-03-08 13:16:39.899074,14.52,12.94,14.52,14.52,1028,35,3.74,62,0,0.0,Clear,clear sky,13
Derecske-Vásártér,47.352222,21.58,2026-03-08 13:16:41.102451,14.52,12.94,14.52,14.52,1028,35,3.74,62,0,0.0,Clear,clear sky,13
Konyár,47.323611,21.666111,2026-03-08 13:16:42.303351,14.81,13.29,14.81,14.81,1027,36,3.71,60,0,0.0,Clear,clear sky,13
Konyári Sóstófürdő,47.324167,21.744444,2026-03-08 13:16:43.500112,14.94,13.43,14.94,14.94,1027,36,3.79,60,0,0.0,Clear,clear sky,13
Pocsaj-Esztár,47.288333,21.793056,2026-03-08 13:16:44.707092,15.11,13.62,15.11,15.11,1027,36,3.79,58,0,0.0,Clear,clear sky,13
Kismarja,47.243889,21.813889,2026-03-08 13:16:45.915211,15.24,13.76,15.24,15.24,1027,36,3.55,54,1,0.0,Clear,clear sky,13
Nagykereki,47.191667,21.8,2026-03-08 13:16:47.109157,15.32,13.85,15.32,15.32,1027,36,3.23,49,2,0.0,Clear,clear sky,13
Debrecen-Szabadságtelep,47.527778,21.658611,2026-03-08 13:16:48.309217,14.0,12.4,14.0,14.0,1028,36,3.86,66,0,0.0,Clear,clear sky,13
Kondoroskert,47.525556,21.713889,2026-03-08 13:16:49.513674,14.16,12.6,14.16,14.16,1028,37,3.96,68,0,0.0,Clear,clear sky,13
Nagycsere,47.523889,21.763056,2026-03-08 13:16:50.719046,14.24,12.69,14.24,14.24,1028,37,3.99,68,0,0.0,Clear,clear sky,13
Haláp,47.521667,21.818333,2026-03-08 13:16:51.920961,14.28,12.73,14.28,14.28,1028,37,4.01,68,0,0.0,Clear,clear sky,13
Vámospércs,47.518056,21.893889,2026-03-08 13:16:53.119047,14.41,12.87,14.41,14.41,1028,37,4.08,69,0,0.0,Clear,clear sky,13
Szentannapuszta,47.52,21.965833,2026-03-08 13:16:54.324515,14.6,13.08,14.6,14.6,1028,37,4.1,70,0,0.0,Clear,clear sky,13
Nyírábrány,47.523889,22.016944,2026-03-08 13:16:55.521770,14.67,13.16,14.67,14.67,1028,37,4.1,70,0,0.0,Clear,clear sky,13
Dombostanya,47.602778,21.706389,2026-03-08 13:16:56.730261,13.77,12.17,13.77,13.77,1028,37,3.85,66,2,0.0,Clear,clear sky,13
Hajdúsámson,47.608056,21.755278,2026-03-08 13:16:57.925888,13.94,12.36,13.94,13.94,1028,37,3.91,68,2,0.0,Clear,clear sky,13
Tamásipuszta,47.632778,21.796111,2026-03-08 13:16:59.129214,13.9,12.34,13.9,13.9,1028,38,3.91,68,2,0.0,Clear,clear sky,13
Aradványpuszta,47.662778,21.8425,2026-03-08 13:17:00.333799,13.92,12.36,13.92,13.92,1028,38,3.87,67,2,0.0,Clear,clear sky,13
Nyíradony,47.699444,21.903333,2026-03-08 13:17:01.531080,13.92,12.36,13.92,13.92,1028,38,3.77,67,1,0.0,Clear,clear sky,13
Nyírmihálydi,47.7375,21.958889,2026-03-08 13:17:02.730108,13.95,12.39,13.95,13.95,1028,38,3.71,67,0,0.0,Clear,clear sky,13
Nyírgelse,47.750833,21.987778,2026-03-08 13:17:03.942788,13.95,12.39,13.95,13.95,1028,38,3.65,67,0,0.0,Clear,clear sky,13
Nyírbogát,47.793056,22.066389,2026-03-08 13:17:05.140721,14.13,12.59,14.13,14.13,1028,38,3.47,67,0,0.0,Clear,clear sky,13
Nagykálló,47.871111,21.825833,2026-03-08 13:17:06.345178,13.5,11.87,13.5,13.5,1028,37,3.49,58,5,0.0,Clear,clear sky,13
Kállósemjén,47.854722,21.935,2026-03-08 13:17:07.543889,13.72,12.11,13.72,13.72,1028,37,3.47,62,3,0.0,Clear,clear sky,13
Nyírbátor,47.8425,22.131111,2026-03-08 13:17:08.743362,14.14,12.6,14.14,14.14,1028,38,3.37,67,0,0.0,Clear,clear sky,13
Nyírcsászári,47.865556,22.179167,2026-03-08 13:17:09.946080,14.34,12.85,14.34,14.34,1028,39,3.19,67,0,0.0,Clear,clear sky,13
Hodász,47.896111,22.213611,2026-03-08 13:17:11.148129,14.36,12.87,14.36,14.36,1028,39,3.0,67,0,0.0,Clear,clear sky,13
Nyírmeggyes,47.9225,22.256667,2026-03-08 13:17:12.360686,14.39,12.93,14.39,14.39,1028,40,2.78,67,0,0.0,Clear,clear sky,13
Mátészalka,47.951389,22.313333,2026-03-08 13:17:13.560419,14.48,13.03,14.48,14.48,1028,40,2.63,66,0,0.0,Clear,clear sky,13
Kocsord,47.941944,22.375833,2026-03-08 13:17:14.765116,14.86,13.47,14.86,14.86,1028,41,2.53,68,0,0.0,Clear,clear sky,13
Kocsord alsó,47.946389,22.400556,2026-03-08 13:17:15.971250,14.86,13.47,14.86,14.86,1028,41,2.53,68,0,0.0,Clear,clear sky,13
Győrtelek,47.936667,22.424722,2026-03-08 13:17:17.174050,14.98,13.6,14.98,14.98,1028,41,2.47,68,0,0.0,Clear,clear sky,13
Győrtelek alsó,47.921111,22.443333,2026-03-08 13:17:18.368282,15.15,13.77,15.15,15.15,1028,40,2.5,69,0,0.0,Clear,clear sky,13
Ököritófülpös,47.911389,22.495,2026-03-08 13:17:19.564170,15.25,13.87,15.25,15.25,1028,40,2.45,69,0,0.0,Clear,clear sky,13
Porcsalma-Tyukod,47.868056,22.568333,2026-03-08 13:17:20.765233,15.6,14.26,15.6,15.6,1028,40,2.51,71,0,0.0,Clear,clear sky,13
Csenger,47.826111,22.666389,2026-03-08 13:17:21.965498,15.83,14.49,15.83,15.83,1028,39,2.5,73,2,0.0,Clear,clear sky,13
Kisfái,46.888303,19.807366,2026-03-08 13:17:23.165231,15.5,13.84,15.5,15.5,1027,28,3.88,61,0,0.0,Clear,clear sky,13
Nyárlőrinci szőlők,46.8775,19.828333,2026-03-08 13:17:24.367818,15.51,13.85,15.51,15.51,1027,28,3.86,60,0,0.0,Clear,clear sky,13
Nyárlőrinc alsó,46.863889,19.878889,2026-03-08 13:17:25.562681,15.45,13.78,15.45,15.45,1027,28,3.89,59,0,0.0,Clear,clear sky,13
Tiszaug-Tiszahídfő,46.866106,20.052098,2026-03-08 13:17:26.758566,15.46,13.77,15.46,15.46,1027,27,3.86,57,0,0.0,Clear,clear sky,13
Csongrádi úti tanyák,46.690278,19.921667,2026-03-08 13:17:27.970114,15.82,14.19,15.82,15.82,1027,28,3.49,54,0,0.0,Clear,clear sky,13
Kettőshalom,46.689167,20.0225,2026-03-08 13:17:29.167073,15.78,14.12,15.78,15.78,1027,27,3.45,54,0,0.0,Clear,clear sky,13
Csongrád alsó,46.711389,20.126389,2026-03-08 13:17:30.375110,15.68,14.01,15.68,15.68,1027,27,3.46,55,0,0.0,Clear,clear sky,13
Dónát,46.66988,20.368168,2026-03-08 13:17:31.577865,15.51,13.82,15.51,15.51,1027,27,3.19,54,0,0.0,Clear,clear sky,13
Pusztatemplom,46.676667,20.407222,2026-03-08 13:17:32.773953,15.49,13.8,15.49,15.49,1027,27,3.12,53,0,0.0,Clear,clear sky,13
Előhát,47.364722,20.653611,2026-03-08 13:17:33.974707,13.28,11.5,13.28,13.28,1028,32,3.96,51,4,0.0,Clear,clear sky,13
Polgárdi-Tekerespuszta,47.017778,18.297778,2026-03-08 13:17:35.184725,16.47,15.09,16.47,16.47,1027,35,3.28,93,5,0.0,Clear,clear sky,13
Szatina-Kishajmás,46.202778,18.083611,2026-03-08 13:17:36.379920,16.42,15.08,16.42,16.42,1026,37,2.56,100,0,0.0,Clear,clear sky,13
Márok,45.886944,18.499167,2026-03-08 13:17:37.573539,16.64,15.4,16.64,16.64,1026,40,3.2,103,0,0.0,Clear,clear sky,13
Nagynyárád,45.953333,18.564722,2026-03-08 13:17:38.782591,16.66,15.43,16.66,16.66,1026,40,3.03,102,0,0.0,Clear,clear sky,13
Szászvár,46.2875,18.369722222222222,2026-03-08 13:17:39.993762,16.23,14.95,16.23,16.23,1026,40,2.53,107,0,0.0,Clear,clear sky,13
Cikó,46.263514,18.557605,2026-03-08 13:17:41.190882,16.52,15.27,16.52,16.52,1026,40,2.45,106,0,0.0,Clear,clear sky,13
Gyöngyfa-Magyarmecske,45.983889,17.958889,2026-03-08 13:17:42.394247,16.67,15.44,16.67,16.67,1026,40,2.93,97,0,0.0,Clear,clear sky,13
Nagyhát,47.581389,21.445,2026-03-08 13:17:43.606058,13.41,11.72,13.41,13.41,1028,35,3.71,58,2,0.0,Clear,clear sky,13
Balmazújváros,47.613889,21.348056,2026-03-08 13:17:44.806847,13.11,11.39,13.11,13.11,1028,35,3.74,54,5,0.0,Clear,clear sky,13
Kónya,47.600833,21.2375,2026-03-08 13:17:46.002571,12.95,11.21,12.95,12.95,1028,35,3.77,52,6,0.0,Clear,clear sky,13
Hortobágy,47.586111,21.154722,2026-03-08 13:17:47.203514,12.79,11.04,12.79,12.79,1028,35,3.82,51,6,0.0,Clear,clear sky,13
Hortobágyi Halastó,47.604167,21.074167,2026-03-08 13:17:48.398766,12.64,10.87,12.64,12.64,1028,35,3.84,51,5,0.0,Clear,clear sky,13
Ohat-Pusztakócs,47.623333,20.951111,2026-03-08 13:17:49.606099,12.33,10.56,12.33,12.33,1028,36,3.94,53,5,0.0,Clear,clear sky,13
Egyek,47.616944,20.883611,2026-03-08 13:17:50.810843,12.26,10.48,12.26,12.26,1028,36,3.98,55,6,0.0,Clear,clear sky,13
Tiszafüred,47.627778,20.756111,2026-03-08 13:17:52.007164,12.18,10.37,12.18,12.18,1028,35,4.04,57,6,0.0,Clear,clear sky,13
Poroszló,47.657778,20.654444,2026-03-08 13:17:53.208557,12.16,10.32,12.16,12.16,1028,34,4.12,60,3,0.0,Clear,clear sky,13
Kétútköz,47.694167,20.565,2026-03-08 13:17:54.409798,11.96,10.07,11.96,11.96,1028,33,4.05,65,1,0.0,Clear,clear sky,13
Egerfarmos,47.711667,20.5225,2026-03-08 13:17:55.611571,12.0,10.09,12.0,12.0,1028,32,4.06,68,0,0.0,Clear,clear sky,13
Piliscsaba,47.638056,18.829722,2026-03-08 13:17:56.819935,15.02,13.62,15.02,15.02,1027,40,1.96,105,2,0.0,Clear,clear sky,13
Pilisjászfalu,47.656111,18.797778,2026-03-08 13:17:58.015595,15.76,14.44,15.76,15.76,1027,40,2.02,106,2,0.0,Clear,clear sky,13
Leányvár,47.687594,18.772553,2026-03-08 13:17:59.209498,15.76,14.44,15.76,15.76,1027,40,1.95,109,3,0.0,Clear,clear sky,13
Dorog,47.723333,18.732778,2026-03-08 13:18:00.412869,16.08,14.81,16.08,16.08,1027,41,1.84,113,7,0.0,Clear,clear sky,13
Esztergom-Kertváros,47.743333,18.719167,2026-03-08 13:18:01.610657,16.15,14.89,16.15,16.15,1027,41,1.77,113,8,0.0,Clear,clear sky,13
Esztergom,47.7775,18.743611,2026-03-08 13:18:02.805180,15.8,14.53,15.8,15.8,1027,42,1.7,110,11,0.0,Clouds,few clouds,13
Dunaalmás,47.733056,18.326389,2026-03-08 13:18:04.012344,16.44,15.11,16.44,16.44,1027,37,2.64,121,13,0.0,Clouds,few clouds,13
Neszmély,47.734444,18.345278,2026-03-08 13:18:05.214509,16.44,15.11,16.44,16.44,1027,37,2.64,121,13,0.0,Clouds,few clouds,13
Süttő,47.761111,18.455,2026-03-08 13:18:06.410360,16.32,15.03,16.32,16.32,1027,39,2.22,121,12,0.0,Clouds,few clouds,13
Piszke,47.75307,18.478017,2026-03-08 13:18:07.613201,16.32,15.03,16.32,16.32,1027,39,2.15,120,11,0.0,Clouds,few clouds,13
Lábatlan,47.751944,18.513333,2026-03-08 13:18:08.814485,16.29,15.02,16.29,16.29,1027,40,2.07,120,11,0.0,Clouds,few clouds,13
Eternitgyár,47.755544,18.530014,2026-03-08 13:18:10.010988,16.29,15.02,16.29,16.29,1027,40,2.07,120,11,0.0,Clouds,few clouds,13
Nyergesújfalu felső,47.762222,18.540556,2026-03-08 13:18:11.213037,16.29,15.02,16.29,16.29,1027,40,2.07,120,11,0.0,Clouds,few clouds,13
Nyergesújfalu,47.761111,18.561667,2026-03-08 13:18:12.415713,16.21,14.93,16.21,16.21,1027,40,2.01,119,10,0.0,Clear,clear sky,13
Tokod,47.735,18.675,2026-03-08 13:18:13.617086,16.13,14.87,16.13,16.13,1027,41,1.88,114,7,0.0,Clear,clear sky,13
Környe,47.541667,18.330278,2026-03-08 13:18:14.813669,16.11,14.72,16.11,16.11,1027,36,3.24,112,10,0.0,Clear,clear sky,13
Kecskéd alsó,47.519722,18.316667,2026-03-08 13:18:16.012896,16.14,14.75,16.14,16.14,1027,36,3.29,112,11,0.0,Clouds,few clouds,13
Oroszlány,47.486944,18.308611,2026-03-08 13:18:17.209122,16.05,14.65,16.05,16.05,1027,36,3.31,111,10,0.0,Clear,clear sky,13
Győrszabadhegy,47.663056,17.648056,2026-03-08 13:18:18.404842,16.83,15.46,16.83,16.83,1027,34,3.11,124,9,0.0,Clear,clear sky,13
Ménfőcsanak felső,47.638333,17.615,2026-03-08 13:18:19.610986,16.91,15.54,16.91,16.91,1027,34,2.95,123,9,0.0,Clear,clear sky,13
Gyömöre-Tét,47.501672,17.559596,2026-03-08 13:18:20.811808,16.78,15.4,16.78,16.78,1027,34,2.37,120,12,0.0,Clouds,few clouds,13
Szerecseny,47.469167,17.5475,2026-03-08 13:18:22.006002,16.81,15.43,16.81,16.81,1027,34,2.37,120,12,0.0,Clouds,few clouds,13
Gecse-Gyarmat,47.456111,17.515,2026-03-08 13:18:23.202436,16.72,15.34,16.72,16.72,1027,34,2.26,120,11,0.0,Clouds,few clouds,13
Vaszar,47.4025,17.496389,2026-03-08 13:18:24.409207,16.86,15.49,16.86,16.86,1026,34,2.27,121,10,0.0,Clear,clear sky,13
Pápa,47.340556,17.458889,2026-03-08 13:18:25.610924,16.87,15.5,16.87,16.87,1026,34,2.35,122,8,0.0,Clear,clear sky,13
