station_name,station_lat,station_lon,observation_time,temp,feels_like,temp_min,temp_max,pressure,humidity,wind_speed,wind_deg,clouds,precipitation_1h,weather_main,weather_description,collection_hour
Búcsúszentlászló,46.793056,16.932778,2026-03-11 15:57:13.319144,15.54,14.56,15.54,15.54,1018,54,0.56,182,14,0.0,Clouds,few clouds,15
Angyalföld,47.549722,19.09,2026-03-11 15:57:14.528874,14.85,13.59,14.85,14.85,1020,46,2.47,198,69,0.0,Clouds,broken clouds,15
Felsőjánosfa,46.841389,16.544167,2026-03-11 15:57:15.736305,15.23,14.27,15.23,15.23,1018,56,1.68,186,51,0.0,Clouds,broken clouds,15
Pankasz,46.835833,16.496111,2026-03-11 15:57:16.931263,14.93,13.94,14.93,14.93,1018,56,1.84,187,58,0.0,Clouds,broken clouds,15
Nagyrákos,46.827222,16.455556,2026-03-11 15:57:18.137810,14.88,13.89,14.88,14.88,1018,56,1.91,187,61,0.0,Clouds,broken clouds,15
Őriszentpéter,46.828889,16.415278,2026-03-11 15:57:19.340653,14.99,14.01,14.99,14.99,1018,56,2.01,184,68,0.0,Clouds,broken clouds,15
Törökbálint,47.45,18.908611,2026-03-11 15:57:20.555663,14.69,13.52,14.69,14.69,1020,50,2.77,164,78,0.0,Clouds,broken clouds,15
Bicske alsó,47.486389,18.642778,2026-03-11 15:57:21.749608,14.73,13.69,14.73,14.73,1020,55,3.05,144,84,0.0,Clouds,broken clouds,15
Bajánsenye,46.818056,16.358056,2026-03-11 15:57:22.960616,15.08,14.11,15.08,15.08,1018,56,2.2,188,71,0.0,Clouds,broken clouds,15
Aquincum,47.566218,19.048273,2026-03-11 15:57:24.169658,14.36,13.13,14.36,14.36,1020,49,2.45,186,65,0.0,Clouds,broken clouds,15
Piliscsév,47.673889,18.791389,2026-03-11 15:57:25.372919,14.45,13.36,14.45,14.45,1020,54,2.84,149,72,0.0,Clouds,broken clouds,15
Tát,47.741201,18.64783,2026-03-11 15:57:26.610340,15.06,14.03,15.06,15.06,1020,54,3.15,137,75,0.0,Clouds,broken clouds,15
Süttő felső,47.756667,18.437222,2026-03-11 15:57:27.814994,15.17,14.15,15.17,15.17,1019,54,3.45,141,84,0.0,Clouds,broken clouds,15
Budatétény,47.405,19.016389,2026-03-11 15:57:29.008649,14.87,13.67,14.87,14.87,1020,48,2.4,180,81,0.0,Clouds,broken clouds,15
Seregélyes-Szőlőhegy,47.119444,18.612222,2026-03-11 15:57:30.211573,15.0,13.94,15.0,15.0,1020,53,2.85,173,99,0.0,Clouds,overcast clouds,15
Gödöllő-Állami telepek,47.564444,19.375556,2026-03-11 15:57:31.407243,14.32,13.03,14.32,14.32,1020,47,2.06,191,66,0.0,Clouds,broken clouds,15
Dunakeszi alsó,47.607778,19.128889,2026-03-11 15:57:32.606211,14.79,13.53,14.79,14.79,1020,46,2.5,200,65,0.0,Clouds,broken clouds,15
Vác-Alsóváros,47.773056,19.149722,2026-03-11 15:57:33.801840,14.74,13.6,14.74,14.74,1020,51,2.0,185,51,0.0,Clouds,broken clouds,15
Szob alsó,47.816667,18.8725,2026-03-11 15:57:35.019640,14.94,13.9,14.94,14.94,1020,54,2.3,149,66,0.0,Clouds,broken clouds,15
Zalaszentmihály-Pacsa,46.7225,16.951944,2026-03-11 15:57:36.223060,15.56,14.61,15.56,15.56,1018,55,1.07,200,19,0.0,Clouds,few clouds,15
Pötréte,46.682778,16.9575,2026-03-11 15:57:37.421314,15.57,14.62,15.57,15.57,1019,55,1.88,205,26,0.0,Clouds,scattered clouds,15
Felsőrajk,46.667222,16.982778,2026-03-11 15:57:38.623230,15.55,14.6,15.55,15.55,1019,55,1.95,204,27,0.0,Clouds,scattered clouds,15
Gelse,46.600556,16.982778,2026-03-11 15:57:39.823365,15.51,14.58,15.51,15.51,1019,56,3.49,208,43,0.0,Clouds,scattered clouds,15
Őrtilos,46.297778,16.887778,2026-03-11 15:57:41.028289,15.48,14.62,15.48,15.48,1019,59,5.09,213,84,0.0,Clouds,broken clouds,15
Zákány,46.251944,16.9425,2026-03-11 15:57:42.230176,15.22,14.34,15.22,15.22,1019,59,5.27,218,94,0.0,Clouds,overcast clouds,15
Berzence,46.201389,17.143611,2026-03-11 15:57:43.433828,15.55,14.65,15.55,15.55,1019,57,4.79,225,96,0.0,Clouds,overcast clouds,15
Somogyudvarhely,46.163333,17.179722,2026-03-11 15:57:44.630163,15.51,14.6,15.51,15.51,1020,57,4.47,227,94,0.0,Clouds,overcast clouds,15
Bélavár,46.122778,17.207778,2026-03-11 15:57:45.833673,15.56,14.66,15.56,15.56,1020,57,3.94,229,90,0.0,Clouds,overcast clouds,15
Vízvár,46.101389,17.239444,2026-03-11 15:57:47.041317,15.45,14.54,15.45,15.45,1020,57,3.59,229,88,0.0,Clouds,overcast clouds,15
Babócsa,46.028359,17.342276,2026-03-11 15:57:48.235724,15.42,14.53,15.42,15.42,1020,58,2.81,224,84,0.0,Clouds,broken clouds,15
Péterhida-Komlósd,46.006667,17.358056,2026-03-11 15:57:49.436865,15.44,14.55,15.44,15.44,1020,58,2.56,221,83,0.0,Clouds,broken clouds,15
Barcs,45.951944,17.446944,2026-03-11 15:57:50.636914,15.34,14.5,15.34,15.34,1020,60,2.22,211,82,0.0,Clouds,broken clouds,15
Barcs felső,45.958333,17.486389,2026-03-11 15:57:51.839664,15.22,14.36,15.22,15.22,1020,60,2.2,210,82,0.0,Clouds,broken clouds,15
Középrigóc,45.970556,17.525,2026-03-11 15:57:53.036473,15.1,14.23,15.1,15.1,1020,60,2.19,210,83,0.0,Clouds,broken clouds,15
Darány,45.992222,17.598611,2026-03-11 15:57:54.230026,14.99,14.14,14.99,14.99,1020,61,2.13,210,84,0.0,Clouds,broken clouds,15
Kisdobsza,46.012222,17.668056,2026-03-11 15:57:55.433441,14.95,14.09,14.95,14.95,1020,61,2.06,209,85,0.0,Clouds,overcast clouds,15
Nemeske,46.023333,17.705278,2026-03-11 15:57:56.646631,14.93,14.07,14.93,14.93,1020,61,1.99,210,86,0.0,Clouds,overcast clouds,15
Molvány,46.035278,17.748611,2026-03-11 15:57:57.866658,14.83,13.99,14.83,14.83,1020,62,1.91,210,90,0.0,Clouds,overcast clouds,15
Szigetvár,46.043333,17.801944,2026-03-11 15:57:59.075691,14.77,13.92,14.77,14.77,1020,62,1.8,212,91,0.0,Clouds,overcast clouds,15
Nagypeterd,46.039444,17.871667,2026-03-11 15:58:00.279862,14.72,13.87,14.72,14.72,1020,62,1.55,217,95,0.0,Clouds,overcast clouds,15
Szentdénes,46.036667,17.926944,2026-03-11 15:58:01.479824,14.64,13.78,14.64,14.64,1020,62,1.42,220,96,0.0,Clouds,overcast clouds,15
Háros,47.412222,19.035,2026-03-11 15:58:02.679249,14.87,13.67,14.87,14.87,1020,48,2.4,180,81,0.0,Clouds,broken clouds,15
Nagytétény-Diósd,47.398333,18.974444,2026-03-11 15:58:03.880427,15.17,14.02,15.17,15.17,1020,49,2.46,174,84,0.0,Clouds,broken clouds,15
Érdliget,47.390278,18.937778,2026-03-11 15:58:05.076389,15.08,13.92,15.08,15.08,1020,49,2.59,169,84,0.0,Clouds,broken clouds,15
Érd felső,47.381111,18.922222,2026-03-11 15:58:06.297209,14.75,13.59,14.75,14.75,1020,50,2.73,164,85,0.0,Clouds,overcast clouds,15
Érd,47.369722,18.900833,2026-03-11 15:58:07.495711,14.91,13.76,14.91,14.91,1020,50,2.68,164,88,0.0,Clouds,overcast clouds,15
Százhalombatta,47.322222,18.899167,2026-03-11 15:58:08.689833,14.93,13.78,14.93,14.93,1020,50,2.58,165,94,0.0,Clouds,overcast clouds,15
Dunai Finomító,47.294444,18.878889,2026-03-11 15:58:09.887054,14.82,13.69,14.82,14.82,1020,51,2.75,161,96,0.0,Clouds,overcast clouds,15
Ercsi,47.247222,18.875278,2026-03-11 15:58:11.098576,14.95,13.83,14.95,14.95,1020,51,2.7,161,98,0.0,Clouds,overcast clouds,15
Iváncsa,47.177778,18.811944,2026-03-11 15:58:12.297507,14.92,13.8,14.92,14.92,1020,51,2.75,165,100,0.0,Clouds,overcast clouds,15
Pusztaszabolcs,47.139722,18.761667,2026-03-11 15:58:13.502353,14.99,13.88,14.99,14.99,1020,51,2.78,169,100,0.0,Clouds,overcast clouds,15
Szabadegyháza,47.082778,18.704167,2026-03-11 15:58:14.700701,14.96,13.87,14.96,14.96,1020,52,2.88,175,100,0.0,Clouds,overcast clouds,15
Sárosd,47.039722,18.660278,2026-03-11 15:58:15.903789,15.0,13.94,15.0,15.0,1020,53,2.98,178,99,0.0,Clouds,overcast clouds,15
Nagylók,46.979444,18.635833,2026-03-11 15:58:17.098953,14.83,13.78,14.83,14.83,1020,54,3.04,184,99,0.0,Clouds,overcast clouds,15
Sárbogárd,46.896944,18.611944,2026-03-11 15:58:18.299169,15.02,14.01,15.02,15.02,1020,55,2.98,190,99,0.0,Clouds,overcast clouds,15
Rétszilas,46.814167,18.601389,2026-03-11 15:58:19.510844,15.05,14.05,15.05,15.05,1020,55,2.84,197,99,0.0,Clouds,overcast clouds,15
Nagyatád,46.228611,17.354167,2026-03-11 15:58:20.713424,15.49,14.5,15.49,15.49,1019,54,4.01,221,97,0.0,Clouds,overcast clouds,15
Budapest-Keleti,47.500278,19.084167,2026-03-11 15:58:21.909285,15.06,13.85,15.06,15.06,1020,47,2.45,188,72,0.0,Clouds,broken clouds,15
Ferencváros,47.468611,19.088056,2026-03-11 15:58:23.114381,15.17,13.97,15.17,15.17,1020,47,2.41,187,75,0.0,Clouds,broken clouds,15
Budapest-Nyugati,47.510833,19.0575,2026-03-11 15:58:24.323723,14.97,13.75,14.97,14.97,1020,47,2.47,189,70,0.0,Clouds,broken clouds,15
Kőbánya felső,47.491944,19.133889,2026-03-11 15:58:25.521682,14.97,13.7,14.97,14.97,1020,45,2.37,203,75,0.0,Clouds,broken clouds,15
Rákos,47.488889,19.174722,2026-03-11 15:58:26.725668,14.94,13.66,14.94,14.94,1020,45,2.34,206,76,0.0,Clouds,broken clouds,15
Rákosrendező,47.525556,19.089444,2026-03-11 15:58:27.927403,14.94,13.69,14.94,14.94,1020,46,2.44,198,72,0.0,Clouds,broken clouds,15
Zugló,47.511389,19.101389,2026-03-11 15:58:29.121814,14.94,13.69,14.94,14.94,1020,46,2.44,198,72,0.0,Clouds,broken clouds,15
Mezőtárkány,47.725,20.480278,2026-03-11 15:58:30.323775,13.47,12.05,13.47,13.47,1021,45,2.8,157,25,0.0,Clouds,scattered clouds,15
Istvántelek,47.550278,19.106389,2026-03-11 15:58:31.532660,14.85,13.59,14.85,14.85,1020,46,2.47,198,69,0.0,Clouds,broken clouds,15
Rákospalota-Újpest,47.565833,19.111944,2026-03-11 15:58:32.732549,14.75,13.48,14.75,14.75,1020,46,2.48,198,67,0.0,Clouds,broken clouds,15
Kőbánya alsó,47.483056,19.127222,2026-03-11 15:58:33.930482,14.97,13.7,14.97,14.97,1020,45,2.37,203,75,0.0,Clouds,broken clouds,15
Kőbánya-Kispest,47.463889,19.149444,2026-03-11 15:58:35.131556,15.02,13.75,15.02,15.02,1020,45,2.31,204,78,0.0,Clouds,broken clouds,15
Pestszentlőrinc,47.454722,19.182778,2026-03-11 15:58:36.329220,15.02,13.75,15.02,15.02,1020,45,2.23,210,81,0.0,Clouds,broken clouds,15
Kispest,47.448135,19.157552,2026-03-11 15:58:37.533557,15.08,13.82,15.08,15.08,1020,45,2.25,206,80,0.0,Clouds,broken clouds,15
Újpest,47.558889,19.079722,2026-03-11 15:58:38.730556,14.84,13.61,14.84,14.84,1020,47,2.47,190,67,0.0,Clouds,broken clouds,15
Pestszentimre felső,47.413611,19.173333,2026-03-11 15:58:39.930477,15.03,13.76,15.03,15.03,1020,45,2.18,213,83,0.0,Clouds,broken clouds,15
Dunakeszi,47.626111,19.136111,2026-03-11 15:58:41.139927,14.72,13.47,14.72,14.72,1020,47,2.48,199,62,0.0,Clouds,broken clouds,15
Dunakeszi-Gyártelep,47.643611,19.135,2026-03-11 15:58:42.336678,14.77,13.56,14.77,14.77,1020,48,2.44,198,59,0.0,Clouds,broken clouds,15
Alsógöd,47.676944,19.134444,2026-03-11 15:58:43.536618,14.78,13.57,14.78,14.78,1020,48,2.37,197,57,0.0,Clouds,broken clouds,15
Göd,47.687778,19.1375,2026-03-11 15:58:44.734516,14.78,13.57,14.78,14.78,1020,48,2.37,197,57,0.0,Clouds,broken clouds,15
Felsőgöd,47.705556,19.143333,2026-03-11 15:58:45.940722,14.86,13.68,14.86,14.86,1020,49,2.3,195,55,0.0,Clouds,broken clouds,15
Sződ-Sződliget,47.728056,19.154722,2026-03-11 15:58:47.145465,14.88,13.73,14.88,14.88,1020,50,2.2,193,53,0.0,Clouds,broken clouds,15
Vác,47.782778,19.133056,2026-03-11 15:58:48.344423,14.74,13.6,14.74,14.74,1020,51,2.0,185,51,0.0,Clouds,broken clouds,15
Verőce,47.823889,19.029444,2026-03-11 15:58:49.551145,14.08,12.93,14.08,14.08,1020,53,1.83,168,57,0.0,Clouds,broken clouds,15
Kismaros,47.8275,19.010278,2026-03-11 15:58:50.752448,13.33,12.1,13.33,13.33,1020,53,1.86,164,58,0.0,Clouds,broken clouds,15
Nagymaros-Visegrád,47.791389,18.959167,2026-03-11 15:58:51.954279,13.74,12.55,13.74,13.74,1020,53,1.93,169,60,0.0,Clouds,broken clouds,15
Nagymaros,47.780278,18.952222,2026-03-11 15:58:53.150966,13.74,12.55,13.74,13.74,1020,53,1.93,169,60,0.0,Clouds,broken clouds,15
Zebegény,47.801389,18.908889,2026-03-11 15:58:54.353345,14.47,13.36,14.47,14.47,1020,53,2.0,159,62,0.0,Clouds,broken clouds,15
Szob,47.821111,18.861944,2026-03-11 15:58:55.561837,14.39,13.27,14.39,14.39,1020,53,2.31,145,65,0.0,Clouds,broken clouds,15
Alagimajor,47.601944,19.153889,2026-03-11 15:58:56.761254,14.79,13.53,14.79,14.79,1020,46,2.5,200,65,0.0,Clouds,broken clouds,15
Fót,47.611389,19.181667,2026-03-11 15:58:57.971474,14.58,13.32,14.58,14.58,1020,47,2.48,199,63,0.0,Clouds,broken clouds,15
Fótújfalu,47.615,19.192778,2026-03-11 15:58:59.171772,14.58,13.32,14.58,14.58,1020,47,2.48,199,63,0.0,Clouds,broken clouds,15
Csomád,47.635556,19.222778,2026-03-11 15:59:00.371140,13.84,12.48,13.84,13.84,1020,46,2.46,199,63,0.0,Clouds,broken clouds,15
Veresegyház,47.649167,19.288611,2026-03-11 15:59:01.565948,14.48,13.21,14.48,14.48,1020,47,2.25,187,60,0.0,Clouds,broken clouds,15
Erdőkertes,47.662222,19.295833,2026-03-11 15:59:02.765309,14.48,13.21,14.48,14.48,1020,47,2.25,187,60,0.0,Clouds,broken clouds,15
Őrbottyán,47.685833,19.283611,2026-03-11 15:59:03.970427,14.28,13.02,14.28,14.28,1020,48,2.21,183,57,0.0,Clouds,broken clouds,15
Váchartyán,47.725833,19.248889,2026-03-11 15:59:05.172411,14.35,13.12,14.35,14.35,1020,49,2.17,179,52,0.0,Clouds,broken clouds,15
Magyarkút-Verőce,47.826111,19.044444,2026-03-11 15:59:06.376304,14.08,12.93,14.08,14.08,1020,53,1.83,168,57,0.0,Clouds,broken clouds,15
Szokolya,47.871111,19.030556,2026-03-11 15:59:07.586330,13.4,12.18,13.4,13.4,1020,53,1.91,155,56,0.0,Clouds,broken clouds,15
Berkenye,47.885278,19.071944,2026-03-11 15:59:08.785322,14.11,12.96,14.11,14.11,1020,53,1.88,156,55,0.0,Clouds,broken clouds,15
Nógrád,47.901944,19.0475,2026-03-11 15:59:09.991740,13.76,12.58,13.76,13.76,1020,53,2.01,148,56,0.0,Clouds,broken clouds,15
Diósjenő,47.94,19.049444,2026-03-11 15:59:11.192711,13.39,12.17,13.39,13.39,1020,53,2.12,143,56,0.0,Clouds,broken clouds,15
Borsosberény,47.971389,19.093056,2026-03-11 15:59:12.402492,14.09,12.94,14.09,14.09,1020,53,2.11,135,50,0.0,Clouds,scattered clouds,15
Nagyoroszi,47.993611,19.101111,2026-03-11 15:59:13.602971,13.94,12.77,13.94,13.94,1020,53,2.25,129,50,0.0,Clouds,scattered clouds,15
Drégelyvár,48.001944,19.079444,2026-03-11 15:59:14.824356,14.21,13.07,14.21,14.21,1020,53,2.48,129,52,0.0,Clouds,broken clouds,15
Drégely,48.042222,19.056111,2026-03-11 15:59:16.027231,14.59,13.49,14.59,14.59,1020,53,2.61,126,51,0.0,Clouds,broken clouds,15
Drégelypalánk,48.055,19.046111,2026-03-11 15:59:17.239622,14.76,13.68,14.76,14.76,1020,53,2.77,124,50,0.0,Clouds,scattered clouds,15
Ipolyvece,48.056944,19.106389,2026-03-11 15:59:18.435653,14.7,13.61,14.7,14.7,1020,53,2.63,119,47,0.0,Clouds,scattered clouds,15
Dejtár,48.045556,19.196389,2026-03-11 15:59:19.634211,14.57,13.47,14.57,14.57,1020,53,2.42,117,45,0.0,Clouds,scattered clouds,15
Ipolyszög,48.054444,19.221944,2026-03-11 15:59:20.836242,14.57,13.49,14.57,14.57,1020,54,2.47,113,42,0.0,Clouds,scattered clouds,15
Iklad-Domony,47.658056,19.444444,2026-03-11 15:59:22.042339,14.69,13.49,14.69,14.69,1020,49,1.99,154,54,0.0,Clouds,broken clouds,15
Iklad-Domony felső,47.667778,19.428056,2026-03-11 15:59:23.248733,14.65,13.45,14.65,14.65,1020,49,2.01,156,54,0.0,Clouds,broken clouds,15
Galgamácsa,47.693889,19.3925,2026-03-11 15:59:24.447713,14.37,13.14,14.37,14.37,1020,49,2.08,166,53,0.0,Clouds,broken clouds,15
Vácrátót,47.732778,19.217778,2026-03-11 15:59:25.650119,14.59,13.38,14.59,14.59,1020,49,2.22,188,52,0.0,Clouds,broken clouds,15
Csörög,47.735833,19.196389,2026-03-11 15:59:26.849373,14.82,13.64,14.82,14.82,1020,49,2.22,191,52,0.0,Clouds,broken clouds,15
Galgagyörk,47.735278,19.372222,2026-03-11 15:59:28.057356,14.44,13.22,14.44,14.44,1020,49,2.07,160,51,0.0,Clouds,broken clouds,15
Püspökhatvan,47.768611,19.366944,2026-03-11 15:59:29.261243,14.42,13.22,14.42,14.42,1020,50,2.06,149,47,0.0,Clouds,scattered clouds,15
Acsa-Erdőkürt,47.801111,19.386111,2026-03-11 15:59:30.461364,14.25,13.06,14.25,14.25,1020,51,2.06,143,45,0.0,Clouds,scattered clouds,15
Galgaguta,47.848611,19.385556,2026-03-11 15:59:31.674944,13.93,12.74,13.93,13.93,1020,52,2.09,131,42,0.0,Clouds,scattered clouds,15
Nógrádkövesd,47.879444,19.371111,2026-03-11 15:59:32.875972,14.08,12.9,14.08,14.08,1020,52,2.11,126,40,0.0,Clouds,scattered clouds,15
Magyarnándor,47.970833,19.356667,2026-03-11 15:59:34.077748,13.94,12.77,13.94,13.94,1020,53,2.17,116,38,0.0,Clouds,scattered clouds,15
Mohora,47.995556,19.347778,2026-03-11 15:59:35.282255,14.04,12.88,14.04,14.04,1020,53,2.21,113,38,0.0,Clouds,scattered clouds,15
Szügy,48.036389,19.333056,2026-03-11 15:59:36.485323,14.27,13.16,14.27,14.27,1020,54,2.24,111,36,0.0,Clouds,scattered clouds,15
Balassagyarmat,48.071111,19.293611,2026-03-11 15:59:37.681836,14.41,13.32,14.41,14.41,1020,54,2.33,110,37,0.0,Clouds,scattered clouds,15
Őrhalom,48.078773,19.403936,2026-03-11 15:59:38.876899,14.03,12.92,14.03,14.03,1021,55,1.88,118,30,0.0,Clouds,scattered clouds,15
Hugyag,48.083056,19.421111,2026-03-11 15:59:40.079103,14.03,12.92,14.03,14.03,1021,55,1.88,118,30,0.0,Clouds,scattered clouds,15
Szécsény,48.093056,19.521111,2026-03-11 15:59:41.277556,14.11,13.01,14.11,14.11,1021,55,1.52,129,29,0.0,Clouds,scattered clouds,15
Ludányhalászi,48.1325,19.529444,2026-03-11 15:59:42.473331,14.1,13.0,14.1,14.1,1021,55,1.44,142,28,0.0,Clouds,scattered clouds,15
Nógrádszakál,48.178333,19.521667,2026-03-11 15:59:43.687942,14.07,12.97,14.07,14.07,1021,55,1.43,148,28,0.0,Clouds,scattered clouds,15
Ráróspuszta,48.207222,19.541389,2026-03-11 15:59:44.891115,13.55,12.4,13.55,13.55,1021,55,1.48,160,28,0.0,Clouds,scattered clouds,15
Litke,48.215833,19.598611,2026-03-11 15:59:46.093077,13.96,12.85,13.96,13.96,1021,55,1.35,174,26,0.0,Clouds,scattered clouds,15
Nyíregyháza külső,47.943056,21.740278,2026-03-11 15:59:47.295286,13.94,12.41,13.94,13.94,1022,39,2.71,188,45,0.0,Clouds,scattered clouds,15
Oros,47.945833,21.806389,2026-03-11 15:59:48.512585,14.08,12.54,14.08,14.08,1022,38,2.72,195,45,0.0,Clouds,scattered clouds,15
Napkor,47.948889,21.873056,2026-03-11 15:59:49.710290,14.23,12.65,14.23,14.23,1022,36,2.74,205,41,0.0,Clouds,scattered clouds,15
Apagy,47.953775,21.939044,2026-03-11 15:59:50.916556,14.3,12.7,14.3,14.3,1022,35,2.74,206,39,0.0,Clouds,scattered clouds,15
Levelek-Magy,47.948056,21.993611,2026-03-11 15:59:52.119012,14.4,12.81,14.4,14.4,1022,35,2.72,208,34,0.0,Clouds,scattered clouds,15
Ófehértó,47.940556,22.041389,2026-03-11 15:59:53.315335,14.42,12.81,14.42,14.42,1022,34,2.72,208,30,0.0,Clouds,scattered clouds,15
Ligettanya,47.951667,22.071389,2026-03-11 15:59:54.527362,14.41,12.79,14.41,14.41,1022,34,2.65,207,27,0.0,Clouds,scattered clouds,15
Baktalórántháza,47.988611,22.083333,2026-03-11 15:59:55.736314,14.39,12.8,14.39,14.39,1022,35,2.61,207,28,0.0,Clouds,scattered clouds,15
Vaja-Rohod,48.006389,22.164167,2026-03-11 15:59:56.935440,14.49,12.91,14.49,14.49,1022,35,2.44,200,26,0.0,Clouds,scattered clouds,15
Rákóczitanya,48.022222,22.178333,2026-03-11 15:59:58.136052,14.52,12.94,14.52,14.52,1022,35,2.38,195,24,0.0,Clouds,few clouds,15
Nyírmada,48.059167,22.203056,2026-03-11 15:59:59.340670,14.47,12.89,14.47,14.47,1022,35,2.3,191,27,0.0,Clouds,scattered clouds,15
Tunyogmatolcs,47.960244,22.442247,2026-03-11 16:00:00.547525,15.15,13.66,15.15,15.15,1022,36,2.17,153,15,0.0,Clouds,few clouds,15
Tunyogmatolcs alsó,47.966025,22.464713,2026-03-11 16:00:01.747399,15.2,13.72,15.2,15.2,1022,36,2.21,147,15,0.0,Clouds,few clouds,15
Fehérgyarmat,47.979167,22.524444,2026-03-11 16:00:02.945696,15.27,13.79,15.27,15.27,1022,36,2.41,133,16,0.0,Clouds,few clouds,15
Penyige,47.995278,22.566944,2026-03-11 16:00:04.142094,15.35,13.88,15.35,15.35,1022,36,2.42,130,15,0.0,Clouds,few clouds,15
Nagyszekeres,47.976111,22.6125,2026-03-11 16:00:05.341692,15.4,13.94,15.4,15.4,1022,36,2.41,128,15,0.0,Clouds,few clouds,15
Kisszekeres,47.965833,22.629444,2026-03-11 16:00:06.599288,15.44,13.95,15.44,15.44,1022,35,2.37,128,15,0.0,Clouds,few clouds,15
Jánkmajtis,47.941944,22.657222,2026-03-11 16:00:07.813364,15.54,14.06,15.54,15.54,1022,35,2.32,126,14,0.0,Clouds,few clouds,15
Gacsály,47.926111,22.745,2026-03-11 16:00:09.008305,15.66,14.2,15.66,15.66,1022,35,2.26,123,14,0.0,Clouds,few clouds,15
Zajta,47.9025,22.796111,2026-03-11 16:00:10.212401,15.79,14.31,15.79,15.79,1022,34,2.22,121,13,0.0,Clouds,few clouds,15
Eperjeske alsó,48.360556,22.19,2026-03-11 16:00:11.412847,14.07,12.6,14.07,14.07,1022,41,1.83,155,40,0.0,Clouds,scattered clouds,15
Mándok,48.326944,22.196389,2026-03-11 16:00:12.628454,14.12,12.63,14.12,14.12,1022,40,1.86,162,39,0.0,Clouds,scattered clouds,15
Tornyospálca,48.268333,22.201944,2026-03-11 16:00:13.844820,14.22,12.72,14.22,14.22,1022,39,1.93,169,37,0.0,Clouds,scattered clouds,15
Aranyosapáti,48.211303,22.253534,2026-03-11 16:00:15.043141,14.46,12.95,14.46,14.46,1022,38,2.37,154,31,0.0,Clouds,scattered clouds,15
Gyüre,48.171389,22.269167,2026-03-11 16:00:16.246163,14.53,13.0,14.53,14.53,1022,37,2.36,159,28,0.0,Clouds,scattered clouds,15
Varsány,48.151722,22.290047,2026-03-11 16:00:17.446927,14.62,13.1,14.62,14.62,1022,37,2.44,155,25,0.0,Clouds,scattered clouds,15
Vásárosnamény,48.126667,22.306111,2026-03-11 16:00:18.644016,14.68,13.17,14.68,14.68,1022,37,2.41,158,24,0.0,Clouds,few clouds,15
Vitka,48.095556,22.308056,2026-03-11 16:00:19.837077,14.71,13.18,14.71,14.71,1022,36,2.37,160,22,0.0,Clouds,few clouds,15
Nagydobos,48.054167,22.311111,2026-03-11 16:00:21.048373,14.69,13.15,14.69,14.69,1022,36,2.33,164,21,0.0,Clouds,few clouds,15
Ópályi,47.997778,22.318333,2026-03-11 16:00:22.252757,14.8,13.28,14.8,14.8,1022,36,2.22,174,18,0.0,Clouds,few clouds,15
Nyírcsaholy,47.908056,22.348333,2026-03-11 16:00:23.449336,15.04,13.51,15.04,15.04,1022,35,2.12,182,15,0.0,Clouds,few clouds,15
Nagyecsed,47.864722,22.385556,2026-03-11 16:00:24.650390,15.22,13.71,15.22,15.22,1022,35,1.96,180,14,0.0,Clouds,few clouds,15
Tiborszállás,47.815278,22.402778,2026-03-11 16:00:25.855150,15.29,13.76,15.29,15.29,1022,34,1.93,193,14,0.0,Clouds,few clouds,15
Kiskunhalas,46.434444,19.493611,2026-03-11 16:00:27.049479,15.17,13.97,15.17,15.17,1020,47,2.36,179,51,0.0,Clouds,broken clouds,15
Kecskemét alsó,46.895833,19.692222,2026-03-11 16:00:28.244272,14.86,13.65,14.86,14.86,1020,48,2.76,153,57,0.0,Clouds,broken clouds,15
Putnok,48.286667,20.4375,2026-03-11 16:00:29.439902,13.12,11.71,13.12,13.12,1021,47,1.84,182,24,0.0,Clouds,few clouds,15
Bánréve,48.299722,20.351944,2026-03-11 16:00:30.638096,13.23,11.84,13.23,13.23,1021,47,1.8,187,25,0.0,Clouds,scattered clouds,15
Ipolytarnóc,48.236667,19.629167,2026-03-11 16:00:31.833825,13.89,12.77,13.89,13.89,1021,55,1.36,180,25,0.0,Clouds,scattered clouds,15
Rákosliget,47.486111,19.257778,2026-03-11 16:00:33.033937,14.68,13.38,14.68,14.68,1020,45,2.24,210,77,0.0,Clouds,broken clouds,15
Ikrény,47.657778,17.524167,2026-03-11 16:00:34.231034,15.7,14.76,15.7,15.7,1019,55,1.73,189,4,0.0,Clear,clear sky,15
Rábapatona,47.648889,17.461944,2026-03-11 16:00:35.434214,15.73,14.82,15.73,15.73,1019,56,1.87,181,3,0.0,Clear,clear sky,15
Enese,47.644167,17.425278,2026-03-11 16:00:36.631907,15.74,14.83,15.74,15.74,1019,56,1.98,176,3,0.0,Clear,clear sky,15
Kóny,47.632222,17.357222,2026-03-11 16:00:37.827667,15.71,14.8,15.71,15.71,1019,56,2.0,177,4,0.0,Clear,clear sky,15
Farád,47.595278,17.195833,2026-03-11 16:00:39.024923,15.74,14.83,15.74,15.74,1018,56,2.24,173,8,0.0,Clear,clear sky,15
Rábatamási,47.592778,17.161389,2026-03-11 16:00:40.222844,15.74,14.83,15.74,15.74,1018,56,2.24,173,8,0.0,Clear,clear sky,15
Szárföld,47.589167,17.123889,2026-03-11 16:00:41.417014,15.74,14.83,15.74,15.74,1018,56,2.26,172,7,0.0,Clear,clear sky,15
Veszkény,47.586944,17.101389,2026-03-11 16:00:42.622733,15.75,14.82,15.75,15.75,1018,55,2.27,171,7,0.0,Clear,clear sky,15
Kapuvár,47.581944,17.046944,2026-03-11 16:00:43.840100,15.72,14.78,15.72,15.72,1018,55,2.29,171,6,0.0,Clear,clear sky,15
Vitnyéd-Csermajor,47.5825,16.987222,2026-03-11 16:00:45.041966,15.7,14.79,15.7,15.7,1018,56,2.24,169,4,0.0,Clear,clear sky,15
Petőháza,47.595278,16.893056,2026-03-11 16:00:46.239179,15.71,14.8,15.71,15.71,1018,56,1.76,165,3,0.0,Clear,clear sky,15
Fertőszentmiklós,47.6,16.858889,2026-03-11 16:00:47.451052,15.67,14.75,15.67,15.67,1018,56,1.63,164,4,0.0,Clear,clear sky,15
Pinnye,47.600278,16.768611,2026-03-11 16:00:48.663535,15.49,14.58,15.49,15.49,1018,57,1.16,152,10,0.0,Clear,clear sky,15
Fertőboz,47.625,16.691667,2026-03-11 16:00:49.863583,15.39,14.47,15.39,15.39,1018,57,0.68,120,15,0.0,Clouds,few clouds,15
Sopron,47.677778,16.587222,2026-03-11 16:00:51.062249,15.06,14.11,15.06,15.06,1018,57,0.96,54,27,0.0,Clouds,scattered clouds,15
Fertőszéplak-Fertőd,47.618889,16.850833,2026-03-11 16:00:52.264060,15.71,14.82,15.71,15.71,1018,57,1.08,157,4,0.0,Clear,clear sky,15
Nyúl,47.587778,17.698056,2026-03-11 16:00:53.475738,15.61,14.64,15.61,15.61,1019,54,1.66,214,19,0.0,Clouds,few clouds,15
Pannonhalma,47.547778,17.740833,2026-03-11 16:00:54.674221,15.38,14.36,15.38,15.38,1019,53,1.83,205,26,0.0,Clouds,scattered clouds,15
Tarjánpuszta,47.504722,17.789167,2026-03-11 16:00:55.877757,15.28,14.25,15.28,15.28,1019,53,2.1,192,24,0.0,Clouds,few clouds,15
Győrasszonyfa,47.4925,17.799167,2026-03-11 16:00:57.076722,15.28,14.25,15.28,15.28,1019,53,2.1,192,24,0.0,Clouds,few clouds,15
Veszprémvarsány,47.443333,17.818333,2026-03-11 16:00:58.280450,15.15,14.1,15.15,15.15,1019,53,2.62,182,20,0.0,Clouds,few clouds,15
Bakonyszentlászló,47.395556,17.8175,2026-03-11 16:00:59.488384,14.77,13.71,14.77,14.77,1019,54,2.95,178,16,0.0,Clouds,few clouds,15
Porva-Csesznek,47.326944,17.841111,2026-03-11 16:01:00.705279,13.39,12.22,13.39,13.39,1019,55,3.28,176,14,0.0,Clouds,few clouds,15
Zirc,47.266667,17.878056,2026-03-11 16:01:01.917869,13.37,12.22,13.37,13.37,1019,56,3.82,174,22,0.0,Clouds,few clouds,15
Eplény,47.192778,17.921667,2026-03-11 16:01:03.127453,13.74,12.66,13.74,13.74,1019,57,3.89,174,44,0.0,Clouds,scattered clouds,15
Marcaltő,47.4275,17.348889,2026-03-11 16:01:04.323945,15.64,14.72,15.64,15.64,1019,56,1.96,203,9,0.0,Clear,clear sky,15
Szany-Rábaszentandrás,47.460833,17.315278,2026-03-11 16:01:05.555892,15.65,14.73,15.65,15.65,1019,56,1.98,197,8,0.0,Clear,clear sky,15
Egyed-Rábacsanak,47.521944,17.316389,2026-03-11 16:01:06.755975,15.65,14.73,15.65,15.65,1019,56,2.0,190,7,0.0,Clear,clear sky,15
Rábapordány,47.557222,17.315,2026-03-11 16:01:07.959587,15.69,14.78,15.69,15.69,1019,56,2.01,186,7,0.0,Clear,clear sky,15
Albertfalva,47.440784,19.033965,2026-03-11 16:01:09.158664,15.03,13.84,15.03,15.03,1020,48,2.44,181,78,0.0,Clouds,broken clouds,15
Budafok,47.425833,19.041389,2026-03-11 16:01:10.359355,14.87,13.67,14.87,14.87,1020,48,2.4,180,81,0.0,Clouds,broken clouds,15
Tétényliget,47.384722,18.955278,2026-03-11 16:01:11.554339,15.08,13.92,15.08,15.08,1020,49,2.59,169,84,0.0,Clouds,broken clouds,15
Érd alsó,47.379722,18.923056,2026-03-11 16:01:12.743102,14.75,13.59,14.75,14.75,1020,50,2.73,164,85,0.0,Clouds,overcast clouds,15
Tárnok,47.365556,18.873889,2026-03-11 16:01:13.947046,15.05,13.94,15.05,15.05,1020,51,2.89,158,89,0.0,Clouds,overcast clouds,15
Martonvásár,47.321389,18.781667,2026-03-11 16:01:15.143827,14.99,13.9,14.99,14.99,1020,52,2.89,157,94,0.0,Clouds,overcast clouds,15
Baracska,47.297222,18.753333,2026-03-11 16:01:16.339754,15.06,13.98,15.06,15.06,1020,52,2.85,157,96,0.0,Clouds,overcast clouds,15
Pettend,47.26,18.708889,2026-03-11 16:01:17.539779,14.93,13.84,14.93,14.93,1020,52,2.77,159,97,0.0,Clouds,overcast clouds,15
Kápolnásnyék,47.245556,18.692222,2026-03-11 16:01:18.739285,14.99,13.93,14.99,14.99,1020,53,2.74,162,98,0.0,Clouds,overcast clouds,15
Velence,47.226944,18.663889,2026-03-11 16:01:19.944004,15.07,14.02,15.07,15.07,1020,53,2.7,163,97,0.0,Clouds,overcast clouds,15
Velencefürdő,47.218611,18.648056,2026-03-11 16:01:21.143306,15.06,14.01,15.06,15.06,1020,53,2.72,165,98,0.0,Clouds,overcast clouds,15
Gárdony,47.205833,18.624722,2026-03-11 16:01:22.351725,15.09,14.04,15.09,15.09,1020,53,2.7,166,98,0.0,Clouds,overcast clouds,15
Agárd,47.197666,18.604907,2026-03-11 16:01:23.553227,15.09,14.04,15.09,15.09,1020,53,2.7,166,98,0.0,Clouds,overcast clouds,15
Dinnyés,47.179722,18.560833,2026-03-11 16:01:24.755248,15.08,14.05,15.08,15.08,1020,54,2.7,172,99,0.0,Clouds,overcast clouds,15
Székesfehérvár,47.183611,18.424722,2026-03-11 16:01:25.958648,15.09,14.06,15.09,15.09,1020,54,2.71,177,100,0.0,Clouds,overcast clouds,15
Szabadbattyán,47.105278,18.388333,2026-03-11 16:01:27.162460,15.03,14.02,15.03,15.03,1020,55,2.74,177,100,0.0,Clouds,overcast clouds,15
Kiscséripuszta,47.048056,18.355,2026-03-11 16:01:28.365746,14.82,13.79,14.82,14.82,1020,55,2.73,175,100,0.0,Clouds,overcast clouds,15
Lepsény,46.9875,18.248056,2026-03-11 16:01:29.560518,15.06,14.08,15.06,15.06,1020,56,2.69,172,100,0.0,Clouds,overcast clouds,15
Balatonaliga,46.984444,18.171389,2026-03-11 16:01:30.770933,14.84,13.84,14.84,14.84,1020,56,2.66,172,100,0.0,Clouds,overcast clouds,15
Balatonvilágos,46.964167,18.157222,2026-03-11 16:01:31.973951,15.15,14.21,15.15,15.15,1020,57,2.62,172,100,0.0,Clouds,overcast clouds,15
Szabadifürdő,46.926111,18.103333,2026-03-11 16:01:33.179910,15.1,14.15,15.1,15.1,1020,57,2.6,171,100,0.0,Clouds,overcast clouds,15
Ózd alsó,48.227778,20.306111,2026-03-11 16:01:34.377079,12.97,11.55,12.97,12.97,1021,47,1.86,183,23,0.0,Clouds,few clouds,15
Ózd,48.2225,20.294722,2026-03-11 16:01:35.578290,12.97,11.55,12.97,12.97,1021,47,1.86,183,23,0.0,Clouds,few clouds,15
Alsóboldva,48.212778,20.792222,2026-03-11 16:01:36.782359,12.95,11.5,12.95,12.95,1021,46,2.66,167,17,0.0,Clouds,few clouds,15
Boldva,48.223333,20.790278,2026-03-11 16:01:37.992285,12.95,11.5,12.95,12.95,1021,46,2.66,167,17,0.0,Clouds,few clouds,15
Borsodszirák,48.259167,20.770556,2026-03-11 16:01:39.196769,13.03,11.59,13.03,13.03,1021,46,2.66,165,17,0.0,Clouds,few clouds,15
Edelény alsó,48.279167,20.760833,2026-03-11 16:01:40.405096,13.03,11.59,13.03,13.03,1021,46,2.66,165,17,0.0,Clouds,few clouds,15
Edelény,48.299722,20.749444,2026-03-11 16:01:41.609212,13.03,11.59,13.03,13.03,1021,46,2.68,164,17,0.0,Clouds,few clouds,15
Szendrőlád,48.334444,20.731944,2026-03-11 16:01:42.809180,12.08,10.54,12.08,12.08,1021,46,2.66,161,19,0.0,Clouds,few clouds,15
Szendrő,48.400725,20.721346,2026-03-11 16:01:44.013064,13.09,11.66,13.09,13.09,1021,46,2.68,160,19,0.0,Clouds,few clouds,15
Szendrő felső,48.409907,20.720148,2026-03-11 16:01:45.220343,13.09,11.66,13.09,13.09,1021,46,2.68,160,19,0.0,Clouds,few clouds,15
Szalonna,48.449444,20.722222,2026-03-11 16:01:46.424674,13.23,11.81,13.23,13.23,1021,46,2.66,159,19,0.0,Clouds,few clouds,15
Perkupa,48.471389,20.691111,2026-03-11 16:01:47.625802,12.58,11.12,12.58,12.58,1021,47,2.38,158,21,0.0,Clouds,few clouds,15
Szemeretelep,47.443056,19.214167,2026-03-11 16:01:48.822883,15.02,13.75,15.02,15.02,1020,45,2.22,214,81,0.0,Clouds,broken clouds,15
Jósvafő-Aggtelek,48.489722,20.693889,2026-03-11 16:01:50.027122,12.94,11.52,12.94,12.94,1021,47,2.33,157,21,0.0,Clouds,few clouds,15
Bódvaszilas,48.5375,20.738056,2026-03-11 16:01:51.225137,12.57,11.11,12.57,12.57,1021,47,2.5,157,20,0.0,Clouds,few clouds,15
Komjáti,48.5475,20.759722,2026-03-11 16:01:52.432112,12.15,10.65,12.15,12.15,1021,47,2.51,158,19,0.0,Clouds,few clouds,15
Tornanádaska,48.558333,20.787222,2026-03-11 16:01:53.632258,13.31,11.9,13.31,13.31,1021,46,2.57,160,18,0.0,Clouds,few clouds,15
Onga,48.121111,20.906667,2026-03-11 16:01:54.828080,12.93,11.48,12.93,12.93,1021,46,2.7,172,17,0.0,Clouds,few clouds,15
Szikszó-Vásártér,48.193056,20.934722,2026-03-11 16:01:56.026872,12.96,11.51,12.96,12.96,1021,46,2.68,170,16,0.0,Clouds,few clouds,15
Szikszó,48.201667,20.941667,2026-03-11 16:01:57.231280,13.03,11.56,13.03,13.03,1021,45,2.67,171,16,0.0,Clouds,few clouds,15
Aszaló,48.219867,20.961466,2026-03-11 16:01:58.436710,12.92,11.44,12.92,12.92,1021,45,2.66,170,16,0.0,Clouds,few clouds,15
Halmaj,48.246667,20.991667,2026-03-11 16:01:59.637736,13.1,11.64,13.1,13.1,1021,45,2.64,170,15,0.0,Clouds,few clouds,15
Csobád,48.277222,21.033889,2026-03-11 16:02:00.838046,13.16,11.71,13.16,13.16,1021,45,2.6,170,15,0.0,Clouds,few clouds,15
Ináncs,48.291111,21.057778,2026-03-11 16:02:02.042627,13.15,11.67,13.15,13.15,1021,44,2.49,170,14,0.0,Clouds,few clouds,15
Forró-Encs,48.3275,21.117778,2026-03-11 16:02:03.243277,13.15,11.67,13.15,13.15,1021,44,2.44,170,13,0.0,Clouds,few clouds,15
Méra,48.363056,21.140278,2026-03-11 16:02:04.446863,13.01,11.52,13.01,13.01,1021,44,2.41,171,12,0.0,Clouds,few clouds,15
Novajidrány,48.404444,21.170556,2026-03-11 16:02:05.649267,13.25,11.78,13.25,13.25,1021,44,2.37,172,12,0.0,Clouds,few clouds,15
Hernádszurdok,48.487222,21.213889,2026-03-11 16:02:06.857948,13.27,11.8,13.27,13.27,1021,44,2.34,175,13,0.0,Clouds,few clouds,15
Hidasnémeti,48.508333,21.229722,2026-03-11 16:02:08.059433,13.17,11.69,13.17,13.17,1021,44,2.36,177,13,0.0,Clouds,few clouds,15
Mád,48.19,21.268889,2026-03-11 16:02:09.260053,12.89,11.38,12.89,12.89,1021,44,2.22,167,19,0.0,Clouds,few clouds,15
Rátka,48.215,21.230278,2026-03-11 16:02:10.463629,13.23,11.76,13.23,13.23,1021,44,2.22,167,17,0.0,Clouds,few clouds,15
Tállya,48.226944,21.225278,2026-03-11 16:02:11.691458,13.23,11.76,13.23,13.23,1021,44,2.22,167,17,0.0,Clouds,few clouds,15
Golop,48.242778,21.204167,2026-03-11 16:02:12.891978,13.26,11.79,13.26,13.26,1021,44,2.29,168,16,0.0,Clouds,few clouds,15
Abaújszántó,48.286944,21.181667,2026-03-11 16:02:14.100980,13.0,11.5,13.0,13.0,1021,44,2.29,168,14,0.0,Clouds,few clouds,15
Abaújszántói fürdő,48.268333,21.179722,2026-03-11 16:02:15.295685,13.24,11.77,13.24,13.24,1021,44,2.28,168,15,0.0,Clouds,few clouds,15
Abaújkér,48.309444,21.198333,2026-03-11 16:02:16.492257,13.03,11.54,13.03,13.03,1021,44,2.29,169,14,0.0,Clouds,few clouds,15
Boldogkőváralja,48.345,21.208889,2026-03-11 16:02:17.699173,13.03,11.54,13.03,13.03,1021,44,2.18,169,14,0.0,Clouds,few clouds,15
Korlát-Vizsoly,48.365,21.219167,2026-03-11 16:02:18.915108,13.17,11.69,13.17,13.17,1021,44,2.21,170,13,0.0,Clouds,few clouds,15
Fony,48.411389,21.242778,2026-03-11 16:02:20.116286,13.27,11.8,13.27,13.27,1021,44,2.27,172,13,0.0,Clouds,few clouds,15
Hejce-Vilmány,48.419444,21.245556,2026-03-11 16:02:21.325831,13.27,11.8,13.27,13.27,1021,44,2.27,172,13,0.0,Clouds,few clouds,15
Göncruszka,48.445,21.246944,2026-03-11 16:02:22.530343,13.27,11.8,13.27,13.27,1021,44,2.3,174,13,0.0,Clouds,few clouds,15
Gönc,48.470556,21.261389,2026-03-11 16:02:23.742522,13.25,11.78,13.25,13.25,1021,44,2.26,175,13,0.0,Clouds,few clouds,15
Zsujta,48.4925,21.265,2026-03-11 16:02:24.949714,13.27,11.8,13.27,13.27,1021,44,2.28,176,13,0.0,Clouds,few clouds,15
Bodrogkeresztúr,48.175556,21.354167,2026-03-11 16:02:26.154572,12.58,11.04,12.58,12.58,1021,44,2.25,167,22,0.0,Clouds,few clouds,15
Szegi,48.201944,21.387778,2026-03-11 16:02:27.353067,13.11,11.63,13.11,13.11,1022,44,2.2,168,22,0.0,Clouds,few clouds,15
Erdőbénye,48.218056,21.401944,2026-03-11 16:02:28.553912,13.5,12.03,13.5,13.5,1022,43,2.14,170,21,0.0,Clouds,few clouds,15
Olaszliszka-Tolcsva,48.258333,21.448056,2026-03-11 16:02:29.762493,13.48,12.01,13.48,13.48,1022,43,2.04,173,19,0.0,Clouds,few clouds,15
Bodrogolaszi,48.286944,21.512778,2026-03-11 16:02:30.963656,12.16,10.55,12.16,12.16,1022,43,2.02,177,19,0.0,Clouds,few clouds,15
Sárospatak,48.325833,21.566111,2026-03-11 16:02:32.167578,13.45,11.97,13.45,13.45,1022,43,2.1,187,20,0.0,Clouds,few clouds,15
Sátoraljaújhely,48.385833,21.657778,2026-03-11 16:02:33.363276,12.81,11.27,12.81,12.81,1022,43,2.08,192,19,0.0,Clouds,few clouds,15
Vecsés,47.40855,19.25652,2026-03-11 16:02:34.563517,15.07,13.81,15.07,15.07,1020,45,2.17,221,81,0.0,Clouds,broken clouds,15
Vecsés-Kertekalja,47.403333,19.271389,2026-03-11 16:02:35.783539,15.07,13.81,15.07,15.07,1020,45,2.17,221,81,0.0,Clouds,broken clouds,15
Üllő,47.390833,19.348889,2026-03-11 16:02:36.983252,15.03,13.79,15.03,15.03,1020,46,2.11,222,79,0.0,Clouds,broken clouds,15
Monor,47.34545,19.43701,2026-03-11 16:02:38.176261,14.84,13.58,14.84,14.84,1020,46,2.0,199,70,0.0,Clouds,broken clouds,15
Pilis,47.279722,19.536389,2026-03-11 16:02:39.370623,14.74,13.47,14.74,14.74,1020,46,2.14,180,68,0.0,Clouds,broken clouds,15
Albertirsa,47.240278,19.606389,2026-03-11 16:02:40.564825,14.79,13.53,14.79,14.79,1020,46,2.53,160,61,0.0,Clouds,broken clouds,15
Ceglédbercel-Cserő,47.210278,19.686944,2026-03-11 16:02:41.759168,14.83,13.6,14.83,14.83,1020,47,2.73,152,56,0.0,Clouds,broken clouds,15
Cegléd,47.182778,19.806111,2026-03-11 16:02:42.956045,14.84,13.61,14.84,14.84,1020,47,2.91,147,48,0.0,Clouds,scattered clouds,15
Abony,47.173056,20.016389,2026-03-11 16:02:44.161388,14.75,13.48,14.75,14.75,1021,46,2.7,157,41,0.0,Clouds,scattered clouds,15
Szolnok,47.179167,20.175833,2026-03-11 16:02:45.363592,14.68,13.38,14.68,14.68,1021,45,2.63,164,32,0.0,Clouds,scattered clouds,15
Szajol,47.170556,20.295278,2026-03-11 16:02:46.575821,14.62,13.31,14.62,14.62,1021,45,2.66,165,28,0.0,Clouds,scattered clouds,15
Törökszentmiklós,47.170278,20.413611,2026-03-11 16:02:47.777094,14.56,13.22,14.56,14.56,1021,44,2.74,163,27,0.0,Clouds,scattered clouds,15
Rákoscsaba-Újtelep,47.4875,19.271944,2026-03-11 16:02:48.979472,14.68,13.38,14.68,14.68,1020,45,2.24,210,77,0.0,Clouds,broken clouds,15
Rákoscsaba,47.492222,19.284722,2026-03-11 16:02:50.175492,14.76,13.47,14.76,14.76,1020,45,2.18,209,76,0.0,Clouds,broken clouds,15
Pécel,47.493889,19.338889,2026-03-11 16:02:51.371577,14.62,13.31,14.62,14.62,1020,45,2.12,208,74,0.0,Clouds,broken clouds,15
Isaszeg,47.537719,19.388955,2026-03-11 16:02:52.572339,14.36,13.05,14.36,14.36,1020,46,2.06,196,68,0.0,Clouds,broken clouds,15
Gödöllő,47.592222,19.358611,2026-03-11 16:02:53.771674,14.17,12.87,14.17,14.17,1020,47,2.07,186,63,0.0,Clouds,broken clouds,15
Máriabesnyő,47.595556,19.389722,2026-03-11 16:02:54.989024,14.17,12.87,14.17,14.17,1020,47,2.07,186,63,0.0,Clouds,broken clouds,15
Bag,47.641111,19.471667,2026-03-11 16:02:56.187038,14.69,13.49,14.69,14.69,1020,49,1.99,154,54,0.0,Clouds,broken clouds,15
Aszód,47.647467,19.492882,2026-03-11 16:02:57.380905,14.55,13.37,14.55,14.55,1020,50,2.04,147,54,0.0,Clouds,broken clouds,15
Hévízgyörk,47.638611,19.526667,2026-03-11 16:02:58.587099,14.5,13.31,14.5,14.5,1020,50,2.13,140,53,0.0,Clouds,broken clouds,15
Galgahévíz,47.6325,19.558333,2026-03-11 16:02:59.788738,14.7,13.53,14.7,14.7,1020,50,2.3,135,51,0.0,Clouds,broken clouds,15
Tura,47.626389,19.5975,2026-03-11 16:03:00.992974,14.59,13.41,14.59,14.59,1020,50,2.41,132,50,0.0,Clouds,scattered clouds,15
Hatvan,47.663611,19.671389,2026-03-11 16:03:02.199099,14.54,13.36,14.54,14.54,1020,50,2.62,122,49,0.0,Clouds,scattered clouds,15
Vámosgyörk,47.686111,19.927778,2026-03-11 16:03:03.403804,14.22,12.98,14.22,14.22,1021,49,2.22,137,27,0.0,Clouds,scattered clouds,15
Adács,47.696389,19.975278,2026-03-11 16:03:04.606144,14.09,12.81,14.09,14.09,1021,48,2.04,145,22,0.0,Clouds,few clouds,15
Karácsond,47.718056,20.048611,2026-03-11 16:03:05.801359,13.86,12.55,13.86,13.86,1021,48,1.95,149,21,0.0,Clouds,few clouds,15
Ludas,47.723889,20.095556,2026-03-11 16:03:06.997404,13.92,12.59,13.92,13.92,1021,47,2.07,155,17,0.0,Clouds,few clouds,15
Nagyút,47.72666666666667,20.161388888888887,2026-03-11 16:03:08.201990,13.82,12.48,13.82,13.82,1021,47,2.13,156,17,0.0,Clouds,few clouds,15
Kál-Kápolna,47.734167,20.254167,2026-03-11 16:03:09.400575,13.65,12.27,13.65,13.65,1021,46,2.41,155,19,0.0,Clouds,few clouds,15
Füzesabony,47.751389,20.415278,2026-03-11 16:03:10.598068,13.44,12.01,13.44,13.44,1021,45,2.69,157,23,0.0,Clouds,few clouds,15
Szihalom,47.766944,20.491944,2026-03-11 16:03:11.801610,13.24,11.79,13.24,13.24,1021,45,2.73,159,22,0.0,Clouds,few clouds,15
Mezőkövesd,47.797222,20.5675,2026-03-11 16:03:12.996125,13.18,11.73,13.18,13.18,1021,45,2.74,162,20,0.0,Clouds,few clouds,15
Mezőkövesd felső,47.807222,20.591389,2026-03-11 16:03:14.200731,13.18,11.73,13.18,13.18,1021,45,2.74,162,20,0.0,Clouds,few clouds,15
Mezőkeresztes-Mezőnyárád,47.845556,20.670278,2026-03-11 16:03:15.410309,13.02,11.55,13.02,13.02,1021,45,2.72,168,17,0.0,Clouds,few clouds,15
Csincse,47.890833,20.764167,2026-03-11 16:03:16.612770,13.02,11.55,13.02,13.02,1021,45,2.75,173,18,0.0,Clouds,few clouds,15
Emőd,47.930556,20.822778,2026-03-11 16:03:17.807319,12.71,11.21,12.71,12.71,1021,45,2.74,175,19,0.0,Clouds,few clouds,15
Nyékládháza,47.9925,20.840556,2026-03-11 16:03:19.007624,12.91,11.46,12.91,12.91,1021,46,2.74,175,19,0.0,Clouds,few clouds,15
Miskolc-Tiszai,48.098611,20.811389,2026-03-11 16:03:20.209828,12.7,11.23,12.7,12.7,1021,46,2.66,172,18,0.0,Clouds,few clouds,15
Felsőzsolca,48.083611,20.866111,2026-03-11 16:03:21.406962,12.84,11.38,12.84,12.84,1021,46,2.71,173,18,0.0,Clouds,few clouds,15
Hernádnémeti-Bőcs,48.051389,20.985,2026-03-11 16:03:22.606444,12.96,11.51,12.96,12.96,1021,46,2.71,174,19,0.0,Clouds,few clouds,15
Tiszalúc,48.039722,21.0575,2026-03-11 16:03:23.820406,13.05,11.61,13.05,13.05,1021,46,2.66,174,22,0.0,Clouds,few clouds,15
Taktaharkány,48.091667,21.128611,2026-03-11 16:03:25.019662,13.16,11.71,13.16,13.16,1021,45,2.56,172,20,0.0,Clouds,few clouds,15
Taktaszada,48.1125,21.149444,2026-03-11 16:03:26.227528,13.18,11.73,13.18,13.18,1021,45,2.48,171,20,0.0,Clouds,few clouds,15
Szerencs,48.155556,21.214444,2026-03-11 16:03:27.423055,13.33,11.89,13.33,13.33,1021,45,2.29,168,20,0.0,Clouds,few clouds,15
Mezőzombor,48.156944,21.267778,2026-03-11 16:03:28.623347,13.28,11.84,13.28,13.28,1021,45,2.26,168,20,0.0,Clouds,few clouds,15
Tarcal,48.125,21.34,2026-03-11 16:03:29.830625,13.71,12.29,13.71,13.71,1021,44,2.38,168,25,0.0,Clouds,scattered clouds,15
Tokaj,48.112778,21.406667,2026-03-11 16:03:31.040467,13.24,11.74,13.24,13.24,1021,43,2.41,169,28,0.0,Clouds,scattered clouds,15
Rakamaz,48.12,21.475,2026-03-11 16:03:32.236561,13.78,12.34,13.78,13.78,1021,43,2.43,170,29,0.0,Clouds,scattered clouds,15
Görögszállás,48.04,21.555,2026-03-11 16:03:33.441368,13.84,12.38,13.84,13.84,1021,42,2.65,171,36,0.0,Clouds,scattered clouds,15
Nyírtelek,48.005,21.615556,2026-03-11 16:03:34.643172,13.92,12.44,13.92,13.92,1022,41,2.68,177,42,0.0,Clouds,scattered clouds,15
Rákoshegy,47.468611,19.245556,2026-03-11 16:03:35.843015,14.8,13.54,14.8,14.8,1020,46,2.21,214,79,0.0,Clouds,broken clouds,15
Ecser,47.439444,19.318056,2026-03-11 16:03:37.038236,14.93,13.68,14.93,14.93,1020,46,2.15,217,79,0.0,Clouds,broken clouds,15
Maglód,47.438889,19.340833,2026-03-11 16:03:38.250118,14.69,13.42,14.69,14.69,1020,46,2.11,215,77,0.0,Clouds,broken clouds,15
Maglódi nyaraló,47.434167,19.363611,2026-03-11 16:03:39.444939,14.41,13.11,14.41,14.41,1020,46,2.06,212,74,0.0,Clouds,broken clouds,15
Gyömrő,47.429722,19.393333,2026-03-11 16:03:40.652009,14.41,13.11,14.41,14.41,1020,46,2.06,212,74,0.0,Clouds,broken clouds,15
Mende,47.426944,19.439722,2026-03-11 16:03:41.847143,14.33,13.02,14.33,14.33,1020,46,1.98,196,66,0.0,Clouds,broken clouds,15
Szőlősnyaraló,47.450278,19.561111,2026-03-11 16:03:43.049154,14.62,13.36,14.62,14.62,1020,47,2.23,163,54,0.0,Clouds,broken clouds,15
Sülysáp,47.451944,19.5275,2026-03-11 16:03:44.251876,14.54,13.28,14.54,14.54,1020,47,2.02,177,59,0.0,Clouds,broken clouds,15
Tápiószecső,47.443056,19.614722,2026-03-11 16:03:45.450265,14.66,13.43,14.66,14.66,1020,48,2.36,157,52,0.0,Clouds,broken clouds,15
Szentmártonkáta,47.431944,19.680556,2026-03-11 16:03:46.646482,14.6,13.37,14.6,14.6,1020,48,2.63,148,47,0.0,Clouds,scattered clouds,15
Nagykáta,47.409722,19.737778,2026-03-11 16:03:47.848333,14.63,13.4,14.63,14.63,1020,48,2.76,147,46,0.0,Clouds,scattered clouds,15
Farmos,47.355278,19.8375,2026-03-11 16:03:49.050937,14.67,13.42,14.67,14.67,1020,47,3.0,145,39,0.0,Clouds,scattered clouds,15
Tápiószele,47.346313,19.873504,2026-03-11 16:03:50.246625,14.64,13.39,14.64,14.64,1020,47,2.98,147,38,0.0,Clouds,scattered clouds,15
Tápiógyörgye,47.325,19.95,2026-03-11 16:03:51.443866,14.62,13.36,14.62,14.62,1020,47,2.89,151,33,0.0,Clouds,scattered clouds,15
Újszász,47.285833,20.066944,2026-03-11 16:03:52.680289,14.61,13.33,14.61,14.61,1021,46,2.71,159,32,0.0,Clouds,scattered clouds,15
Szurdokpüspöki,47.851944,19.690278,2026-03-11 16:03:53.883151,14.23,13.04,14.23,14.23,1020,51,2.14,113,48,0.0,Clouds,scattered clouds,15
Lőrinci,47.739444,19.673611,2026-03-11 16:03:55.079915,14.43,13.21,14.43,14.43,1020,49,2.58,117,50,0.0,Clouds,scattered clouds,15
Selyp,47.759167,19.670833,2026-03-11 16:03:56.295465,14.39,13.19,14.39,14.39,1020,50,2.54,115,50,0.0,Clouds,scattered clouds,15
Apc-Zagyvaszántó,47.791328,19.66822,2026-03-11 16:03:57.497858,14.37,13.17,14.37,14.37,1020,50,2.48,114,50,0.0,Clouds,scattered clouds,15
Pásztó,47.918889,19.688889,2026-03-11 16:03:58.693457,14.05,12.84,14.05,14.05,1021,51,1.84,115,45,0.0,Clouds,scattered clouds,15
Mátraszőlős-Hasznos,47.938506,19.706122,2026-03-11 16:03:59.892883,13.99,12.78,13.99,13.99,1021,51,1.57,121,44,0.0,Clouds,scattered clouds,15
Tar,47.956111,19.746389,2026-03-11 16:04:01.104028,13.5,12.24,13.5,13.5,1021,51,1.29,137,41,0.0,Clouds,scattered clouds,15
Mátraverebély,47.968333,19.778611,2026-03-11 16:04:02.303333,13.5,12.24,13.5,13.5,1021,51,1.29,137,41,0.0,Clouds,scattered clouds,15
Nagybátony,47.981111,19.82,2026-03-11 16:04:03.509159,13.61,12.36,13.61,13.61,1021,51,1.21,150,38,0.0,Clouds,scattered clouds,15
Kisterenye,48.009444,19.831944,2026-03-11 16:04:04.702374,13.63,12.38,13.63,13.63,1021,51,1.22,163,35,0.0,Clouds,scattered clouds,15
Kisterenye-Bányatelep,48.021389,19.831944,2026-03-11 16:04:05.897625,13.63,12.38,13.63,13.63,1021,51,1.22,163,35,0.0,Clouds,scattered clouds,15
Salgótarján külső,48.089444,19.790833,2026-03-11 16:04:07.102141,13.17,11.87,13.17,13.17,1021,51,1.19,174,31,0.0,Clouds,scattered clouds,15
Balatonfenyves GV,46.7125,17.479167,2026-03-11 16:04:08.311466,15.56,14.66,15.56,15.56,1019,57,3.8,185,87,0.0,Clouds,overcast clouds,15
Várhegyalja,47.737778,18.366667,2026-03-11 16:04:09.505852,15.21,14.14,15.21,15.21,1019,52,3.82,145,92,0.0,Clouds,overcast clouds,15
Imremajor,46.680556,17.499722,2026-03-11 16:04:10.706618,15.6,14.7,15.6,15.6,1019,57,3.92,189,90,0.0,Clouds,overcast clouds,15
Rákospalota-Kertváros,47.578333,19.122778,2026-03-11 16:04:11.906087,14.78,13.57,14.78,14.78,1019,48,2.48,198,67,0.0,Clouds,broken clouds,15
Vicziántelep,47.675833,19.286111,2026-03-11 16:04:13.101612,14.28,13.02,14.28,14.28,1019,48,2.21,183,57,0.0,Clouds,broken clouds,15
Pálmajor,46.662831,17.457526,2026-03-11 16:04:14.306088,15.63,14.74,15.63,15.63,1019,57,4.07,192,89,0.0,Clouds,overcast clouds,15
Somogyszentpál felső,46.649758,17.471404,2026-03-11 16:04:15.508952,15.59,14.69,15.59,15.59,1019,57,4.05,191,93,0.0,Clouds,overcast clouds,15
Somogyszentpál,46.638611,17.478611,2026-03-11 16:04:16.711384,15.53,14.6,15.53,15.53,1019,56,4.16,194,95,0.0,Clouds,overcast clouds,15
Rudnaykert,47.7175,19.257778,2026-03-11 16:04:17.924871,14.36,13.13,14.36,14.36,1019,49,2.17,179,52,0.0,Clouds,broken clouds,15
Maroshegy,47.158333,18.406667,2026-03-11 16:04:19.118593,15.15,14.13,15.15,15.15,1020,54,2.72,178,100,0.0,Clouds,overcast clouds,15
Bánhida,47.573703,18.371737,2026-03-11 16:04:20.317931,14.93,13.84,14.93,14.93,1019,52,3.6,155,97,0.0,Clouds,overcast clouds,15
Magyarkút,47.850278,19.045,2026-03-11 16:04:21.523306,14.13,12.93,14.13,14.13,1020,51,1.86,161,57,0.0,Clouds,broken clouds,15
Becske alsó,47.897222,19.364722,2026-03-11 16:04:22.729993,13.59,12.34,13.59,13.59,1020,51,2.15,121,39,0.0,Clouds,scattered clouds,15
Hosszúberek-Péteri,47.370556,19.389722,2026-03-11 16:04:23.930968,14.88,13.62,14.88,14.88,1020,46,2.06,221,77,0.0,Clouds,broken clouds,15
Monorierdő,47.308889,19.499167,2026-03-11 16:04:25.126349,14.69,13.42,14.69,14.69,1020,46,2.05,190,69,0.0,Clouds,broken clouds,15
Ceglédbercel,47.215833,19.658611,2026-03-11 16:04:26.342338,14.7,13.45,14.7,14.7,1020,47,2.66,156,58,0.0,Clouds,broken clouds,15
Budai út,47.208333,19.731389,2026-03-11 16:04:27.542625,14.63,13.38,14.63,14.63,1020,47,2.81,150,53,0.0,Clouds,broken clouds,15
Büdöskútpuszta,48.373056,20.726111,2026-03-11 16:04:28.745716,13.5,12.11,13.5,13.5,1021,46,2.68,161,19,0.0,Clouds,few clouds,15
Bánrévei Vízmű,48.282778,20.368333,2026-03-11 16:04:29.947289,13.47,12.1,13.47,13.47,1021,47,1.81,186,25,0.0,Clouds,scattered clouds,15
Rákoskert,47.456389,19.296111,2026-03-11 16:04:31.150570,14.7,13.43,14.7,14.7,1020,46,2.17,213,77,0.0,Clouds,broken clouds,15
Szirmabesenyő,48.146944,20.783056,2026-03-11 16:04:32.346086,12.55,11.09,12.55,12.55,1020,47,2.61,171,18,0.0,Clouds,few clouds,15
Kitérőgyár,47.766944,19.935278,2026-03-11 16:04:33.557009,13.86,12.58,13.86,13.86,1021,49,1.81,138,30,0.0,Clouds,scattered clouds,15
Tápiószentmárton,47.373333,19.797778,2026-03-11 16:04:34.752290,14.61,13.35,14.61,14.61,1020,47,2.98,145,41,0.0,Clouds,scattered clouds,15
Zagyvarékas,47.244229,20.097435,2026-03-11 16:04:35.954931,14.63,13.35,14.63,14.63,1021,46,2.66,161,34,0.0,Clouds,scattered clouds,15
Abonyi út,47.206401,20.125204,2026-03-11 16:04:37.154417,14.64,13.36,14.64,14.64,1021,46,2.65,161,35,0.0,Clouds,scattered clouds,15
Jászkisér felső,47.438056,20.202222,2026-03-11 16:04:38.361973,14.36,13.05,14.36,14.36,1021,46,2.71,157,25,0.0,Clouds,scattered clouds,15
Szellőhát,47.425556,20.188889,2026-03-11 16:04:39.562309,14.39,13.09,14.39,14.39,1021,46,2.72,157,26,0.0,Clouds,scattered clouds,15
Szilvásvárad-Szalajkavölgy,48.0956,20.38272,2026-03-11 16:04:40.777629,11.91,10.38,11.91,11.91,1021,47,2.08,171,20,0.0,Clouds,few clouds,15
Vásárosnamény külső,48.084444,22.255556,2026-03-11 16:04:41.990872,14.64,13.05,14.64,14.64,1022,34,2.31,167,24,0.0,Clouds,few clouds,15
Újváros,46.660556,20.536111,2026-03-11 16:04:43.199119,14.77,13.56,14.77,14.77,1021,48,3.01,164,14,0.0,Clouds,few clouds,15
Városi park,46.697778,19.864722,2026-03-11 16:04:44.394166,14.85,13.67,14.85,14.85,1021,49,2.54,154,42,0.0,Clouds,scattered clouds,15
Belsőkamaráspuszta,46.341944,20.848889,2026-03-11 16:04:45.594049,14.75,13.35,14.75,14.75,1022,41,3.41,175,13,0.0,Clouds,few clouds,15
Sajószöged,47.945278,20.981667,2026-03-11 16:04:46.794005,13.41,12.01,13.41,13.41,1021,46,2.79,177,25,0.0,Clouds,scattered clouds,15
Kazincbarcika alsó,48.255278,20.649167,2026-03-11 16:04:47.997154,13.14,11.74,13.14,13.14,1021,47,2.36,168,20,0.0,Clouds,few clouds,15
Nyárjas,46.857778,19.923611,2026-03-11 16:04:49.208937,14.67,13.47,14.67,14.67,1021,49,2.62,151,45,0.0,Clouds,scattered clouds,15
Pogonyipuszta,48.296389,20.381667,2026-03-11 16:04:50.411313,13.47,12.1,13.47,13.47,1021,47,1.81,186,25,0.0,Clouds,scattered clouds,15
Sióvölgy,46.911103,18.076964,2026-03-11 16:04:51.609699,15.29,14.39,15.29,15.29,1019,58,2.62,173,100,0.0,Clouds,overcast clouds,15
Répáspuszta,46.430278,17.847222,2026-03-11 16:04:52.806317,14.75,13.9,14.75,14.75,1020,62,3.27,180,100,0.0,Clouds,overcast clouds,15
Virányos,48.066667,21.527222,2026-03-11 16:04:54.006892,13.84,12.38,13.84,13.84,1021,42,2.59,172,35,0.0,Clouds,scattered clouds,15
Füzesbokor,47.988611,21.6475,2026-03-11 16:04:55.201634,14.0,12.5,14.0,14.0,1022,40,2.71,180,44,0.0,Clouds,scattered clouds,15
Kunfehértó,46.355833,19.417222,2026-03-11 16:04:56.399284,15.09,13.91,15.09,15.09,1020,48,2.37,182,50,0.0,Clouds,scattered clouds,15
Erdőszél,46.329444,19.395,2026-03-11 16:04:57.595657,15.01,13.82,15.01,15.01,1020,48,2.38,184,54,0.0,Clouds,broken clouds,15
Jánoshalma,46.293056,19.330278,2026-03-11 16:04:58.795394,15.17,14.0,15.17,15.17,1020,48,2.4,187,50,0.0,Clouds,scattered clouds,15
Mélykút,46.213056,19.370556,2026-03-11 16:04:59.998969,15.28,14.12,15.28,15.28,1020,48,2.45,189,37,0.0,Clouds,scattered clouds,15
Bácsalmás,46.118056,19.346389,2026-03-11 16:05:01.202251,15.45,14.28,15.45,15.45,1020,47,2.52,190,31,0.0,Clouds,scattered clouds,15
Almás,46.116216,19.328803,2026-03-11 16:05:02.402430,15.45,14.28,15.45,15.45,1020,47,2.52,190,31,0.0,Clouds,scattered clouds,15
Bácsbokod-Bácsborsód,46.115833,19.16,2026-03-11 16:05:03.601328,15.41,14.23,15.41,15.41,1020,47,2.49,200,52,0.0,Clouds,broken clouds,15
Baja,46.187014,18.957602,2026-03-11 16:05:04.797016,15.44,14.32,15.44,15.44,1020,49,2.39,230,79,0.0,Clouds,broken clouds,15
Harkakötöny,46.458333,19.601944,2026-03-11 16:05:05.995332,15.06,13.87,15.06,15.06,1021,48,2.31,175,38,0.0,Clouds,scattered clouds,15
Tajó,46.473056,19.650556,2026-03-11 16:05:07.193706,15.07,13.89,15.07,15.07,1021,48,2.31,173,35,0.0,Clouds,scattered clouds,15
Kiskunmajsa,46.501667,19.728056,2026-03-11 16:05:08.395905,15.06,13.87,15.06,15.06,1021,48,2.32,169,32,0.0,Clouds,scattered clouds,15
Jászszentlászló,46.565833,19.753611,2026-03-11 16:05:09.641530,14.99,13.82,14.99,14.99,1021,49,2.39,163,36,0.0,Clouds,scattered clouds,15
Galambos,46.625,19.801111,2026-03-11 16:05:10.842246,14.92,13.75,14.92,14.92,1021,49,2.45,159,40,0.0,Clouds,scattered clouds,15
Pestszentimre,47.402222,19.188611,2026-03-11 16:05:12.055276,15.04,13.83,15.04,15.04,1019,47,2.12,216,84,0.0,Clouds,broken clouds,15
Gyál felső,47.390278,19.204722,2026-03-11 16:05:13.257502,15.0,13.76,15.0,15.0,1020,46,2.14,221,84,0.0,Clouds,broken clouds,15
Gyál,47.376667,19.219444,2026-03-11 16:05:14.452002,15.0,13.76,15.0,15.0,1020,46,2.14,221,84,0.0,Clouds,broken clouds,15
Ócsa,47.301389,19.232222,2026-03-11 16:05:15.654367,15.01,13.79,15.01,15.01,1020,47,2.05,230,87,0.0,Clouds,overcast clouds,15
Inárcs-Kakucs,47.247222,19.317778,2026-03-11 16:05:16.857594,14.99,13.77,14.99,14.99,1020,47,2.06,234,83,0.0,Clouds,broken clouds,15
Dabas,47.194722,19.328889,2026-03-11 16:05:18.057851,14.91,13.68,14.91,14.91,1020,47,1.96,229,82,0.0,Clouds,broken clouds,15
Gyón,47.178333,19.355556,2026-03-11 16:05:19.257113,14.92,13.69,14.92,14.92,1020,47,1.95,228,82,0.0,Clouds,broken clouds,15
Hernád,47.161389,19.4025,2026-03-11 16:05:20.461632,14.82,13.58,14.82,14.82,1020,47,1.94,201,76,0.0,Clouds,broken clouds,15
Bakonygyirót,47.416389,17.811944,2026-03-11 16:05:21.675674,15.27,14.26,15.27,15.27,1019,54,2.48,183,18,0.0,Clouds,few clouds,15
Vinye,47.360317,17.819635,2026-03-11 16:05:22.871903,14.76,13.7,14.76,14.76,1019,54,3.12,177,15,0.0,Clouds,few clouds,15
Nemesgörzsöny,47.402924,17.376385,2026-03-11 16:05:24.076373,15.72,14.81,15.72,15.72,1019,56,1.95,206,9,0.0,Clear,clear sky,15
Rábahíd,47.438618,17.337525,2026-03-11 16:05:25.287214,15.73,14.82,15.73,15.73,1018,56,1.97,200,9,0.0,Clear,clear sky,15
Öskü,47.162222,18.076389,2026-03-11 16:05:26.487943,14.93,13.94,14.93,14.93,1019,56,3.86,178,73,0.0,Clouds,broken clouds,15
Márkó,47.1275,17.813889,2026-03-11 16:05:27.691825,14.22,13.19,14.22,14.22,1019,57,3.29,172,48,0.0,Clouds,scattered clouds,15
Nemeskocs,47.203333,17.188889,2026-03-11 16:05:28.919957,15.64,14.72,15.64,15.64,1018,56,1.77,209,7,0.0,Clear,clear sky,15
Zalagyömörő,47.011111,17.220833,2026-03-11 16:05:30.137580,15.57,14.62,15.57,15.57,1019,55,1.55,212,11,0.0,Clouds,few clouds,15
Rigács,47.061667,17.199167,2026-03-11 16:05:31.347761,15.52,14.59,15.52,15.52,1019,56,1.61,214,11,0.0,Clouds,few clouds,15
Kemenespálfa,47.139722,17.183056,2026-03-11 16:05:32.554322,15.6,14.68,15.6,15.6,1019,56,1.68,214,9,0.0,Clear,clear sky,15
Lentiszombathely,46.611389,16.5725,2026-03-11 16:05:33.759348,15.5,14.54,15.5,15.5,1018,55,3.51,210,45,0.0,Clouds,scattered clouds,15
Ortaháza,46.626667,16.685833,2026-03-11 16:05:34.961695,15.34,14.37,15.34,15.34,1018,55,2.87,210,36,0.0,Clouds,scattered clouds,15
Rádiháza,46.654722,16.765833,2026-03-11 16:05:36.164408,15.31,14.33,15.31,15.31,1018,55,2.46,210,32,0.0,Clouds,scattered clouds,15
Baktüttös,46.690833,16.826389,2026-03-11 16:05:37.361636,15.42,14.45,15.42,15.42,1018,55,1.92,209,27,0.0,Clouds,scattered clouds,15
Budafa,46.851667,16.624722,2026-03-11 16:05:38.563030,15.37,14.42,15.37,15.37,1018,56,1.44,182,39,0.0,Clouds,scattered clouds,15
Zalapatakalja,46.845556,16.603889,2026-03-11 16:05:39.767887,15.36,14.39,15.36,15.36,1018,55,1.61,185,47,0.0,Clouds,scattered clouds,15
Tormásliget,47.430556,16.781667,2026-03-11 16:05:40.963391,15.46,14.52,15.46,15.46,1018,56,3.0,168,9,0.0,Clear,clear sky,15
Belecska,46.64,18.411389,2026-03-11 16:05:42.170316,15.03,14.1,15.03,15.03,1020,58,2.63,189,99,0.0,Clouds,overcast clouds,15
Almár,47.956111,20.356944,2026-03-11 16:05:43.366716,12.4,10.92,12.4,12.4,1021,47,2.27,163,17,0.0,Clouds,few clouds,15
Vasútmúzeum,47.543889,19.099444,2026-03-11 16:05:44.574322,14.87,13.67,14.87,14.87,1019,48,2.47,198,69,0.0,Clouds,broken clouds,15
Abda,47.690833,17.540556,2026-03-11 16:05:45.780995,15.77,14.84,15.77,15.77,1019,55,1.72,184,3,0.0,Clear,clear sky,15
Vadaspark,47.526111,18.949167,2026-03-11 16:05:46.982141,13.31,12.03,13.31,13.31,1019,51,2.63,172,70,0.0,Clouds,broken clouds,15
Barosstelep,47.398889,18.989167,2026-03-11 16:05:48.189087,15.14,13.99,15.14,15.14,1019,49,2.46,174,84,0.0,Clouds,broken clouds,15
Fegyvernek-Örményes,47.194444,20.5575,2026-03-11 16:05:49.394054,14.38,13.02,14.38,14.38,1021,44,2.82,159,27,0.0,Clouds,scattered clouds,15
Zagyvapálfalva,48.068889,19.785,2026-03-11 16:05:50.591369,13.38,12.11,13.38,13.38,1021,51,1.17,169,33,0.0,Clouds,scattered clouds,15
Salgótarján,48.105556,19.807222,2026-03-11 16:05:51.792074,12.73,11.42,12.73,12.73,1021,52,1.21,178,29,0.0,Clouds,scattered clouds,15
Szabadisóstó,46.933889,18.118056,2026-03-11 16:05:52.988621,15.29,14.36,15.29,15.29,1019,57,2.6,172,100,0.0,Clouds,overcast clouds,15
Siófok,46.907778,18.053889,2026-03-11 16:05:54.191746,15.29,14.39,15.29,15.29,1019,58,2.62,173,100,0.0,Clouds,overcast clouds,15
Balatonszéplak felső,46.898056,18.018056,2026-03-11 16:05:55.395165,15.2,14.29,15.2,15.2,1020,58,2.65,173,100,0.0,Clouds,overcast clouds,15
Balatonszéplak alsó,46.891944,17.993333,2026-03-11 16:05:56.609563,15.31,14.41,15.31,15.31,1019,58,2.68,174,100,0.0,Clouds,overcast clouds,15
Zamárdi felső,46.886111,17.969444,2026-03-11 16:05:57.811109,15.32,14.42,15.32,15.32,1019,58,2.72,174,100,0.0,Clouds,overcast clouds,15
Zamárdi,46.88,17.944722,2026-03-11 16:05:59.009962,15.32,14.42,15.32,15.32,1019,58,2.72,174,100,0.0,Clouds,overcast clouds,15
Szántód,46.861944,17.899167,2026-03-11 16:06:00.206369,15.33,14.46,15.33,15.33,1019,59,2.83,174,100,0.0,Clouds,overcast clouds,15
Szőny-Déli,47.735278,18.141944,2026-03-11 16:06:01.414538,15.49,14.45,15.49,15.49,1019,52,3.55,156,69,0.0,Clouds,broken clouds,15
Várpalota,47.194444,18.149167,2026-03-11 16:06:02.629048,14.67,13.63,14.67,14.67,1019,55,3.87,178,83,0.0,Clouds,broken clouds,15
Pétfürdő,47.1675,18.121389,2026-03-11 16:06:03.824473,15.11,14.11,15.11,15.11,1019,55,3.84,179,80,0.0,Clouds,broken clouds,15
Hajmáskér,47.141111,18.009444,2026-03-11 16:06:05.053264,14.7,13.71,14.7,14.7,1019,57,3.91,178,69,0.0,Clouds,broken clouds,15
Veszprém,47.118889,17.91,2026-03-11 16:06:06.254575,14.67,13.68,14.67,14.67,1019,57,3.64,175,60,0.0,Clouds,broken clouds,15
Herend,47.136944,17.760278,2026-03-11 16:06:07.451292,14.16,13.12,14.16,14.16,1019,57,3.15,172,44,0.0,Clouds,scattered clouds,15
Városlőd,47.144167,17.652778,2026-03-11 16:06:08.655910,14.05,12.97,14.05,14.05,1019,56,2.5,176,20,0.0,Clouds,few clouds,15
Városlőd-Kislőd,47.133889,17.631111,2026-03-11 16:06:09.859771,14.48,13.45,14.48,14.48,1019,56,2.57,174,24,0.0,Clouds,few clouds,15
Ajka,47.105902,17.572938,2026-03-11 16:06:11.057299,14.94,13.95,14.94,14.94,1019,56,2.27,179,12,0.0,Clouds,few clouds,15
Ajka-Gyártelep,47.096806,17.555219,2026-03-11 16:06:12.252088,14.94,13.95,14.94,14.94,1019,56,2.27,179,12,0.0,Clouds,few clouds,15
Devecser,47.1125,17.435278,2026-03-11 16:06:13.456621,15.33,14.35,15.33,15.33,1019,55,1.96,191,5,0.0,Clear,clear sky,15
Somlóvásárhely,47.124444,17.369167,2026-03-11 16:06:14.669241,15.41,14.47,15.41,15.41,1019,56,1.79,209,6,0.0,Clear,clear sky,15
Tüskevár,47.128611,17.331389,2026-03-11 16:06:15.882030,15.51,14.58,15.51,15.51,1019,56,1.77,213,7,0.0,Clear,clear sky,15
Karakószörcsök,47.133611,17.287778,2026-03-11 16:06:17.084749,15.56,14.63,15.56,15.56,1019,56,1.76,215,8,0.0,Clear,clear sky,15
Kerta,47.151944,17.237222,2026-03-11 16:06:18.292639,15.65,14.73,15.65,15.65,1019,56,1.73,214,8,0.0,Clear,clear sky,15
Boba,47.183333,17.191389,2026-03-11 16:06:19.496882,15.62,14.7,15.62,15.62,1018,56,1.74,211,7,0.0,Clear,clear sky,15
Börgönd,47.140278,18.515,2026-03-11 16:06:20.700317,15.0,13.94,15.0,15.0,1020,53,2.8,177,100,0.0,Clouds,overcast clouds,15
Belsőbáránd,47.102778,18.499722,2026-03-11 16:06:21.903323,14.97,13.93,14.97,14.97,1020,54,2.82,179,100,0.0,Clouds,overcast clouds,15
Zichyújfalu,47.124444,18.6725,2026-03-11 16:06:23.105074,14.96,13.87,14.96,14.96,1020,52,2.84,171,100,0.0,Clouds,overcast clouds,15
Seregélyes,47.121111,18.580556,2026-03-11 16:06:24.309591,15.13,14.08,15.13,15.13,1020,53,2.82,176,99,0.0,Clouds,overcast clouds,15
Polgárdi-Ipartelepek,47.079167,18.314444,2026-03-11 16:06:25.511609,14.79,13.76,14.79,14.79,1020,55,2.75,176,100,0.0,Clouds,overcast clouds,15
Polgárdi,47.07,18.284167,2026-03-11 16:06:26.716941,14.79,13.76,14.79,14.79,1020,55,2.75,176,100,0.0,Clouds,overcast clouds,15
Füle,47.05,18.255278,2026-03-11 16:06:27.917267,14.78,13.75,14.78,14.78,1020,55,2.72,174,100,0.0,Clouds,overcast clouds,15
Zánka-Erzsébettábor,46.8775,17.709167,2026-03-11 16:06:29.118814,15.47,14.59,15.47,15.47,1019,58,3.23,174,87,0.0,Clouds,overcast clouds,15
Csajág,47.033889,18.186389,2026-03-11 16:06:30.317100,14.93,13.94,14.93,14.93,1019,56,2.73,174,100,0.0,Clouds,overcast clouds,15
Balatonakarattya,47.017222,18.167778,2026-03-11 16:06:31.518412,14.93,13.94,14.93,14.93,1019,56,2.73,174,100,0.0,Clouds,overcast clouds,15
Csittényhegy,47.025278,18.1375,2026-03-11 16:06:32.719272,15.18,14.22,15.18,15.18,1019,56,2.75,175,99,0.0,Clouds,overcast clouds,15
Balatonkenese,47.0325,18.105556,2026-03-11 16:06:33.919437,15.32,14.4,15.32,15.32,1019,57,2.8,175,99,0.0,Clouds,overcast clouds,15
Balatonfűzfő,47.060278,18.0425,2026-03-11 16:06:35.123345,15.11,14.16,15.11,15.11,1019,57,3.11,178,91,0.0,Clouds,overcast clouds,15
Balatonalmádi,47.028333,18.015,2026-03-11 16:06:36.320049,15.29,14.36,15.29,15.29,1019,57,2.94,177,95,0.0,Clouds,overcast clouds,15
Káptalanfüred,47.008889,18.003889,2026-03-11 16:06:37.517040,14.42,13.43,14.42,14.42,1019,58,2.86,177,98,0.0,Clouds,overcast clouds,15
Alsóörs,46.985278,17.974722,2026-03-11 16:06:38.719524,14.42,13.43,14.42,14.42,1019,58,2.86,177,98,0.0,Clouds,overcast clouds,15
Csopak,46.974722,17.931111,2026-03-11 16:06:39.921794,14.83,13.88,14.83,14.83,1019,58,2.9,175,97,0.0,Clouds,overcast clouds,15
Balatonarács,46.9625,17.8975,2026-03-11 16:06:41.118406,14.83,13.88,14.83,14.83,1019,58,2.9,175,97,0.0,Clouds,overcast clouds,15
Balatonfüred,46.955833,17.883056,2026-03-11 16:06:42.315812,15.25,14.35,15.25,15.25,1019,58,2.89,175,98,0.0,Clouds,overcast clouds,15
Aszófő,46.925556,17.8325,2026-03-11 16:06:43.511697,15.22,14.31,15.22,15.22,1019,58,2.92,175,97,0.0,Clouds,overcast clouds,15
Örvényes,46.9125,17.818056,2026-03-11 16:06:44.725263,15.22,14.31,15.22,15.22,1019,58,2.92,175,97,0.0,Clouds,overcast clouds,15
Balatonudvari,46.904722,17.808056,2026-03-11 16:06:45.932906,14.73,13.77,14.73,14.73,1019,58,2.99,174,93,0.0,Clouds,overcast clouds,15
Fövenyes,46.893611,17.789444,2026-03-11 16:06:47.133971,15.34,14.44,15.34,15.34,1019,58,2.99,174,95,0.0,Clouds,overcast clouds,15
Balatonakali-Dörgicse,46.88,17.747778,2026-03-11 16:06:48.334665,15.01,14.08,15.01,15.01,1019,58,3.06,174,92,0.0,Clouds,overcast clouds,15
Zánka-Köveskál,46.872778,17.687778,2026-03-11 16:06:49.542018,15.1,14.18,15.1,15.1,1019,58,3.29,173,82,0.0,Clouds,broken clouds,15
Balatonszepezd,46.851111,17.663056,2026-03-11 16:06:50.748428,15.47,14.61,15.47,15.47,1019,59,3.34,175,87,0.0,Clouds,overcast clouds,15
Szepezdfürdő,46.839722,17.649444,2026-03-11 16:06:51.950491,14.47,13.49,14.47,14.47,1019,58,3.39,174,83,0.0,Clouds,broken clouds,15
Révfülöp,46.829167,17.632222,2026-03-11 16:06:53.154596,14.47,13.49,14.47,14.47,1019,58,3.39,174,83,0.0,Clouds,broken clouds,15
Balatonrendes,46.824722,17.582778,2026-03-11 16:06:54.362172,15.18,14.27,15.18,15.18,1019,58,3.46,175,75,0.0,Clouds,broken clouds,15
Ábrahámhegy,46.815,17.572222,2026-03-11 16:06:55.567608,15.18,14.27,15.18,15.18,1019,58,3.46,175,75,0.0,Clouds,broken clouds,15
Badacsonyörs,46.805556,17.531667,2026-03-11 16:06:56.770807,15.47,14.59,15.47,15.47,1019,58,3.41,175,70,0.0,Clouds,broken clouds,15
Kisújszállás,47.223889,20.751111,2026-03-11 16:06:57.966697,14.33,12.94,14.33,14.33,1021,43,2.85,156,22,0.0,Clouds,few clouds,15
Karcag,47.303333,20.928056,2026-03-11 16:06:59.162042,14.23,12.83,14.23,14.23,1021,43,2.89,160,23,0.0,Clouds,few clouds,15
Püspökladány,47.3275,21.128889,2026-03-11 16:07:00.364476,14.37,12.96,14.37,14.37,1022,42,2.91,171,19,0.0,Clouds,few clouds,15
Kaba,47.368889,21.259444,2026-03-11 16:07:01.578059,14.49,13.07,14.49,14.49,1022,41,2.95,179,14,0.0,Clouds,few clouds,15
Hajdúszoboszló,47.429444,21.406944,2026-03-11 16:07:02.793428,14.5,13.08,14.5,14.5,1022,41,2.87,180,14,0.0,Clouds,few clouds,15
Ebes,47.462778,21.488889,2026-03-11 16:07:04.029637,14.51,13.09,14.51,14.51,1022,41,2.81,179,15,0.0,Clouds,few clouds,15
Debrecen,47.520278,21.628611,2026-03-11 16:07:05.254225,14.49,13.04,14.49,14.49,1022,40,2.68,178,16,0.0,Clouds,few clouds,15
Debrecen-Csapókert,47.540556,21.648056,2026-03-11 16:07:06.464937,14.39,12.9,14.39,14.39,1022,39,2.64,178,16,0.0,Clouds,few clouds,15
Apafa,47.584045,21.655858,2026-03-11 16:07:07.662062,14.31,12.81,14.31,14.31,1022,39,2.65,178,17,0.0,Clouds,few clouds,15
Bocskaikert,47.6425,21.666389,2026-03-11 16:07:08.864476,14.03,12.53,14.03,14.03,1022,40,2.69,177,21,0.0,Clouds,few clouds,15
Hajdúhadház,47.686944,21.679167,2026-03-11 16:07:10.070640,14.13,12.62,14.13,14.13,1022,39,2.66,179,24,0.0,Clouds,few clouds,15
Téglás,47.714722,21.684722,2026-03-11 16:07:11.267170,14.12,12.61,14.12,14.12,1022,39,2.68,180,26,0.0,Clouds,scattered clouds,15
Újfehértó,47.814444,21.706389,2026-03-11 16:07:12.470559,14.13,12.62,14.13,14.13,1022,39,2.73,181,34,0.0,Clouds,scattered clouds,15
Nyíregyháza,47.946667,21.705556,2026-03-11 16:07:13.676934,14.05,12.56,14.05,14.05,1022,40,2.73,181,44,0.0,Clouds,scattered clouds,15
Sóstó,47.998051,21.729047,2026-03-11 16:07:14.885901,14.05,12.53,14.05,14.05,1022,39,2.7,190,47,0.0,Clouds,scattered clouds,15
Sóstóhegy,48.012222,21.742778,2026-03-11 16:07:16.093898,14.12,12.61,14.12,14.12,1022,39,2.69,191,47,0.0,Clouds,scattered clouds,15
Kemecse,48.065556,21.801667,2026-03-11 16:07:17.302169,14.2,12.67,14.2,14.2,1022,38,2.69,201,46,0.0,Clouds,scattered clouds,15
Nyírbogdány,48.082222,21.855278,2026-03-11 16:07:18.497029,14.21,12.68,14.21,14.21,1022,38,2.69,206,44,0.0,Clouds,scattered clouds,15
Kék,48.093333,21.883889,2026-03-11 16:07:19.696053,14.31,12.76,14.31,14.31,1022,37,2.68,211,43,0.0,Clouds,scattered clouds,15
Demecser,48.111667,21.926667,2026-03-11 16:07:20.895518,14.35,12.81,14.35,14.35,1022,37,2.61,213,41,0.0,Clouds,scattered clouds,15
Gégény,48.128333,21.951944,2026-03-11 16:07:22.100352,14.34,12.8,14.34,14.34,1022,37,2.51,214,40,0.0,Clouds,scattered clouds,15
Pátroha,48.158611,21.996667,2026-03-11 16:07:23.294607,14.38,12.84,14.38,14.38,1022,37,2.37,214,39,0.0,Clouds,scattered clouds,15
Ajak,48.1865,22.048972,2026-03-11 16:07:24.504327,14.39,12.85,14.39,14.39,1022,37,2.2,211,38,0.0,Clouds,scattered clouds,15
Kisvárda,48.208333,22.078333,2026-03-11 16:07:25.706333,14.41,12.87,14.41,14.41,1022,37,1.96,199,37,0.0,Clouds,scattered clouds,15
Kisvárda-Hármasút,48.228333,22.091944,2026-03-11 16:07:26.906691,14.41,12.87,14.41,14.41,1022,37,1.96,199,37,0.0,Clouds,scattered clouds,15
Fényeslitke,48.267222,22.107222,2026-03-11 16:07:28.116329,14.33,12.81,14.33,14.33,1022,38,1.78,186,38,0.0,Clouds,scattered clouds,15
Komoró,48.305278,22.118056,2026-03-11 16:07:29.315970,14.32,12.8,14.32,14.32,1022,38,1.7,183,39,0.0,Clouds,scattered clouds,15
Tuzsér,48.342222,22.131667,2026-03-11 16:07:30.522259,14.22,12.72,14.22,14.22,1022,39,1.58,176,40,0.0,Clouds,scattered clouds,15
Tiszabezdéd,48.371389,22.145,2026-03-11 16:07:31.721448,14.24,12.74,14.24,14.24,1022,39,1.66,163,40,0.0,Clouds,scattered clouds,15
Záhony,48.402222,22.183611,2026-03-11 16:07:32.916705,14.23,12.73,14.23,14.23,1022,39,1.82,151,41,0.0,Clouds,scattered clouds,15
Karcag-Vásártér,47.3225,20.9075,2026-03-11 16:07:34.112253,14.23,12.83,14.23,14.23,1021,43,2.89,160,23,0.0,Clouds,few clouds,15
Berekfürdő,47.374722,20.827222,2026-03-11 16:07:35.309376,14.12,12.71,14.12,14.12,1021,43,2.89,158,28,0.0,Clouds,scattered clouds,15
Kunmadaras,47.415278,20.793056,2026-03-11 16:07:36.506297,14.01,12.62,14.01,14.01,1021,44,2.9,159,31,0.0,Clouds,scattered clouds,15
Tiszaszentimre,47.490833,20.733056,2026-03-11 16:07:37.704317,13.92,12.54,13.92,13.92,1021,45,2.91,160,33,0.0,Clouds,scattered clouds,15
Tiszaszőlős,47.555556,20.728056,2026-03-11 16:07:38.905025,13.83,12.44,13.83,13.83,1021,45,2.92,161,32,0.0,Clouds,scattered clouds,15
Hosszúhát,47.235556,21.101944,2026-03-11 16:07:40.106501,14.53,13.11,14.53,14.53,1022,41,2.86,165,17,0.0,Clouds,few clouds,15
Szerep,47.234444,21.145833,2026-03-11 16:07:41.302783,14.58,13.16,14.58,14.58,1022,41,2.85,167,16,0.0,Clouds,few clouds,15
Sárrétudvari,47.231667,21.180833,2026-03-11 16:07:42.503060,14.61,13.2,14.61,14.61,1022,41,2.84,169,16,0.0,Clouds,few clouds,15
Biharnagybajom,47.208889,21.221944,2026-03-11 16:07:43.703790,14.68,13.27,14.68,14.68,1022,41,2.82,172,16,0.0,Clouds,few clouds,15
Füzesgyarmat,47.113056,21.194444,2026-03-11 16:07:44.909120,14.76,13.36,14.76,14.76,1022,41,2.8,161,15,0.0,Clouds,few clouds,15
Füzesgyarmatfürdő,47.093787,21.201582,2026-03-11 16:07:46.125176,14.76,13.36,14.76,14.76,1022,41,2.8,161,15,0.0,Clouds,few clouds,15
Báránd,47.299722,21.235278,2026-03-11 16:07:47.328889,14.55,13.13,14.55,14.55,1022,41,2.9,177,15,0.0,Clouds,few clouds,15
Sáp,47.259722,21.360556,2026-03-11 16:07:48.534044,14.76,13.36,14.76,14.76,1022,41,2.88,180,14,0.0,Clouds,few clouds,15
Berettyóújfalu,47.211944,21.535556,2026-03-11 16:07:49.741043,15.07,13.68,15.07,15.07,1022,40,2.82,189,13,0.0,Clouds,few clouds,15
Mezőpeterd,47.176111,21.625278,2026-03-11 16:07:50.943732,15.21,13.8,15.21,15.21,1022,39,2.78,195,13,0.0,Clouds,few clouds,15
Biharkeresztes,47.135556,21.721389,2026-03-11 16:07:52.148495,15.37,13.95,15.37,15.37,1022,38,2.67,206,13,0.0,Clouds,few clouds,15
Tócóvölgy,47.529444,21.588889,2026-03-11 16:07:53.371530,14.47,13.02,14.47,14.47,1022,40,2.72,177,16,0.0,Clouds,few clouds,15
Sáregres,46.7825,18.588889,2026-03-11 16:07:54.574980,15.06,14.08,15.06,15.06,1020,56,2.8,200,99,0.0,Clouds,overcast clouds,15
Simontornya,46.756582,18.540674,2026-03-11 16:07:55.778439,14.98,14.0,14.98,14.98,1020,56,2.7,194,99,0.0,Clouds,overcast clouds,15
Tolnanémedi,46.727778,18.475833,2026-03-11 16:07:56.979013,15.06,14.11,15.06,15.06,1020,57,2.66,192,99,0.0,Clouds,overcast clouds,15
Pincehely,46.681389,18.43,2026-03-11 16:07:58.180653,14.92,13.98,14.92,14.92,1020,58,2.71,185,99,0.0,Clouds,overcast clouds,15
Keszőhidegkút-Gyönk,46.597778,18.426111,2026-03-11 16:07:59.392445,14.94,14.0,14.94,14.94,1020,58,2.58,191,98,0.0,Clouds,overcast clouds,15
Szárazd,46.575556,18.420833,2026-03-11 16:08:00.601829,14.96,14.03,14.96,14.96,1020,58,2.52,193,98,0.0,Clouds,overcast clouds,15
Regöly,46.568889,18.396111,2026-03-11 16:08:01.806013,14.96,14.03,14.96,14.96,1020,58,2.52,193,98,0.0,Clouds,overcast clouds,15
Szakály-Hőgyész,46.523611,18.389444,2026-03-11 16:08:03.005920,14.86,13.94,14.86,14.86,1020,59,2.4,191,98,0.0,Clouds,overcast clouds,15
Dúzs,46.493889,18.377222,2026-03-11 16:08:04.211174,14.89,13.98,14.89,14.89,1020,59,2.32,193,99,0.0,Clouds,overcast clouds,15
Csibrák,46.466667,18.336389,2026-03-11 16:08:05.426985,14.94,14.03,14.94,14.94,1020,59,2.27,188,99,0.0,Clouds,overcast clouds,15
Kurd,46.449167,18.319167,2026-03-11 16:08:06.647545,14.59,13.67,14.59,14.59,1020,60,2.16,189,99,0.0,Clouds,overcast clouds,15
Döbrököz,46.418889,18.255,2026-03-11 16:08:07.849668,14.86,13.97,14.86,14.86,1020,60,2.2,178,100,0.0,Clouds,overcast clouds,15
Dombóvár,46.37,18.149722,2026-03-11 16:08:09.047714,14.81,13.97,14.81,14.81,1020,62,2.32,168,100,0.0,Clouds,overcast clouds,15
Dombóvár alsó,46.363889,18.134167,2026-03-11 16:08:10.254896,14.81,13.97,14.81,14.81,1020,62,2.32,168,100,0.0,Clouds,overcast clouds,15
Somoskőújfalu,48.154722,19.815556,2026-03-11 16:08:11.451873,11.65,10.23,11.65,11.65,1021,52,1.26,183,26,0.0,Clouds,scattered clouds,15
Jászfényszaru,47.593056,19.754444,2026-03-11 16:08:12.654817,14.53,13.29,14.53,14.53,1020,48,2.75,130,40,0.0,Clouds,scattered clouds,15
Pusztamonostor,47.564444,19.794167,2026-03-11 16:08:13.857470,14.52,13.28,14.52,14.52,1020,48,2.8,134,36,0.0,Clouds,scattered clouds,15
Jászberény,47.494444,19.893333,2026-03-11 16:08:15.059069,14.57,13.34,14.57,14.57,1020,48,2.92,142,29,0.0,Clouds,scattered clouds,15
Meggyespele,47.441944,19.938889,2026-03-11 16:08:16.258242,14.56,13.3,14.56,14.56,1020,47,2.87,149,24,0.0,Clouds,few clouds,15
Portelek,47.418056,19.958889,2026-03-11 16:08:17.460614,14.59,13.33,14.59,14.59,1020,47,2.89,150,26,0.0,Clouds,scattered clouds,15
Jászboldogháza-Jánoshida,47.366944,20.001389,2026-03-11 16:08:18.668103,14.58,13.32,14.58,14.58,1021,47,2.84,152,29,0.0,Clouds,scattered clouds,15
Jászárokszállás,47.635556,19.971111,2026-03-11 16:08:19.870864,14.37,13.12,14.37,14.37,1021,48,2.39,142,22,0.0,Clouds,few clouds,15
Jászdózsa,47.563056,20.028056,2026-03-11 16:08:21.066597,14.36,13.08,14.36,14.36,1021,47,2.51,149,18,0.0,Clouds,few clouds,15
Jászapáti,47.513611,20.155,2026-03-11 16:08:22.264944,14.28,12.96,14.28,14.28,1021,46,2.62,155,21,0.0,Clouds,few clouds,15
Jászkisér,47.456111,20.203333,2026-03-11 16:08:23.462027,14.32,13.01,14.32,14.32,1021,46,2.7,156,24,0.0,Clouds,few clouds,15
Jászladány,47.373333,20.159167,2026-03-11 16:08:24.658016,14.49,13.2,14.49,14.49,1021,46,2.72,158,27,0.0,Clouds,scattered clouds,15
Szászberek,47.320556,20.090833,2026-03-11 16:08:25.873070,14.56,13.27,14.56,14.56,1021,46,2.71,159,30,0.0,Clouds,scattered clouds,15
Gyöngyöshalász,47.743056,19.932222,2026-03-11 16:08:27.069924,14.08,12.82,14.08,14.08,1021,49,1.9,137,30,0.0,Clouds,scattered clouds,15
Gyöngyös,47.783056,19.937222,2026-03-11 16:08:28.281939,13.63,12.3,13.63,13.63,1021,48,1.79,143,27,0.0,Clouds,scattered clouds,15
Erdőtelek,47.683333,20.3025,2026-03-11 16:08:29.487605,13.79,12.43,13.79,13.79,1021,46,2.54,155,23,0.0,Clouds,few clouds,15
Heves,47.609444,20.306111,2026-03-11 16:08:30.686896,13.99,12.65,13.99,13.99,1021,46,2.65,154,26,0.0,Clouds,scattered clouds,15
Hevesvezekény,47.562222,20.365833,2026-03-11 16:08:31.881754,13.99,12.65,13.99,13.99,1021,46,2.75,154,30,0.0,Clouds,scattered clouds,15
Tarnaszentmiklós,47.546944,20.390833,2026-03-11 16:08:33.083965,14.03,12.69,14.03,14.03,1021,46,2.76,154,31,0.0,Clouds,scattered clouds,15
Kisköre,47.495556,20.481667,2026-03-11 16:08:34.283725,14.02,12.65,14.02,14.02,1021,45,2.87,154,35,0.0,Clouds,scattered clouds,15
Abádszalók,47.455278,20.553056,2026-03-11 16:08:35.484818,14.02,12.65,14.02,14.02,1021,45,2.87,154,35,0.0,Clouds,scattered clouds,15
Kunhegyes,47.376667,20.641111,2026-03-11 16:08:36.680075,14.07,12.68,14.07,14.07,1021,44,2.89,155,33,0.0,Clouds,scattered clouds,15
Kenderes,47.254444,20.686111,2026-03-11 16:08:37.882127,14.29,12.92,14.29,14.29,1021,44,2.85,156,26,0.0,Clouds,scattered clouds,15
Maklár,47.808056,20.404722,2026-03-11 16:08:39.086979,13.42,12.02,13.42,13.42,1021,46,2.61,158,21,0.0,Clouds,few clouds,15
Andornaktálya,47.852203,20.402295,2026-03-11 16:08:40.296742,13.19,11.77,13.19,13.19,1021,46,2.52,160,19,0.0,Clouds,few clouds,15
Eger,47.891667,20.381667,2026-03-11 16:08:41.512468,13.09,11.68,13.09,13.09,1021,47,2.41,160,18,0.0,Clouds,few clouds,15
Egervár,47.908056,20.380556,2026-03-11 16:08:42.719790,13.18,11.78,13.18,13.18,1021,47,2.37,161,18,0.0,Clouds,few clouds,15
Eger-Felnémet,47.936667,20.370556,2026-03-11 16:08:43.917393,13.09,11.68,13.09,13.09,1021,47,2.33,162,18,0.0,Clouds,few clouds,15
Szarvaskő,47.988611,20.3325,2026-03-11 16:08:45.121573,12.49,11.02,12.49,12.49,1021,47,2.23,164,18,0.0,Clouds,few clouds,15
Mónosbél,48.031944,20.33,2026-03-11 16:08:46.328407,12.57,11.11,12.57,12.57,1021,47,2.16,168,19,0.0,Clouds,few clouds,15
Bélapátfalva,48.055556,20.340556,2026-03-11 16:08:47.527808,12.31,10.82,12.31,12.31,1021,47,2.12,169,19,0.0,Clouds,few clouds,15
Bélapátfalvi Cementgyár,48.058056,20.355,2026-03-11 16:08:48.728115,12.31,10.82,12.31,12.31,1021,47,2.12,169,19,0.0,Clouds,few clouds,15
Szilvásvárad,48.11345,20.37919,2026-03-11 16:08:49.928994,11.96,10.44,11.96,11.96,1021,47,2.04,174,21,0.0,Clouds,few clouds,15
Hejőkeresztúr,47.960278,20.869444,2026-03-11 16:08:51.149741,13.28,11.86,13.28,13.28,1021,46,2.77,176,20,0.0,Clouds,few clouds,15
Tiszaújváros,47.926111,21.030556,2026-03-11 16:08:52.352171,13.45,12.05,13.45,13.45,1021,46,2.79,177,27,0.0,Clouds,scattered clouds,15
Miskolc-Gömöri,48.106667,20.800278,2026-03-11 16:08:53.560123,13.09,11.68,13.09,13.09,1020,47,2.66,172,18,0.0,Clouds,few clouds,15
Sajókeresztúr,48.168008,20.774014,2026-03-11 16:08:54.763502,13.11,11.7,13.11,13.11,1021,47,2.6,169,18,0.0,Clouds,few clouds,15
Sajóecseg,48.186111,20.766667,2026-03-11 16:08:55.965655,13.24,11.85,13.24,13.24,1021,47,2.6,168,18,0.0,Clouds,few clouds,15
Sajószentpéter,48.222222,20.708056,2026-03-11 16:08:57.166018,13.27,11.88,13.27,13.27,1021,47,2.56,167,18,0.0,Clouds,few clouds,15
Kazincbarcika,48.264444,20.6275,2026-03-11 16:08:58.364927,13.38,11.97,13.38,13.38,1021,46,2.26,168,21,0.0,Clouds,few clouds,15
Sajókaza,48.272778,20.581944,2026-03-11 16:08:59.564060,13.4,12.02,13.4,13.4,1021,47,2.17,170,22,0.0,Clouds,few clouds,15
Vadna,48.276389,20.555278,2026-03-11 16:09:00.767743,13.4,12.02,13.4,13.4,1021,47,2.17,170,22,0.0,Clouds,few clouds,15
Dubicsány,48.280833,20.504722,2026-03-11 16:09:01.961994,13.43,12.06,13.43,13.43,1021,47,1.95,177,23,0.0,Clouds,few clouds,15
Raposka,46.851389,17.412778,2026-03-11 16:09:03.157127,15.66,14.77,15.66,15.66,1019,57,2.77,176,37,0.0,Clouds,scattered clouds,15
Ivacs,47.641944,19.273889,2026-03-11 16:09:04.358050,14.26,12.99,14.26,14.26,1019,48,2.32,191,60,0.0,Clouds,broken clouds,15
Kisköre-Tiszahíd,47.480835,20.507698,2026-03-11 16:09:05.554883,14.05,12.69,14.05,14.05,1021,45,2.85,154,35,0.0,Clouds,scattered clouds,15
Rozsály,47.912778,22.7825,2026-03-11 16:09:06.783508,15.68,14.06,15.68,15.68,1022,29,2.24,121,13,0.0,Clouds,few clouds,15
Pusztakettős,47.453611,20.749722,2026-03-11 16:09:07.981673,13.98,12.58,13.98,13.98,1021,44,2.91,159,33,0.0,Clouds,scattered clouds,15
Kisvác,47.795278,19.113611,2026-03-11 16:09:09.184566,14.7,13.53,14.7,14.7,1019,50,1.89,180,52,0.0,Clouds,broken clouds,15
Tiszafüred-Gyártelep,47.6075,20.736111,2026-03-11 16:09:10.380624,13.74,12.34,13.74,13.74,1021,45,2.92,162,29,0.0,Clouds,scattered clouds,15
Újkenéz,48.251111,22.221667,2026-03-11 16:09:11.588747,14.44,12.88,14.44,14.44,1022,36,2.22,157,34,0.0,Clouds,scattered clouds,15
Püspökladány-Vásártér,47.319167,21.096111,2026-03-11 16:09:12.784100,14.41,13.0,14.41,14.41,1022,42,2.89,169,18,0.0,Clouds,few clouds,15
Végegyháza alsó,46.3675,20.866944,2026-03-11 16:09:13.984906,14.78,13.36,14.78,14.78,1022,40,3.38,176,14,0.0,Clouds,few clouds,15
Orosháza felső,46.553611,20.655278,2026-03-11 16:09:15.185377,14.81,13.52,14.81,14.81,1021,45,3.11,169,14,0.0,Clouds,few clouds,15
Ambrózfalva,46.353056,20.740556,2026-03-11 16:09:16.386462,14.79,13.45,14.79,14.79,1022,43,3.35,172,13,0.0,Clouds,few clouds,15
Alsónyék,46.199444,18.738056,2026-03-11 16:09:17.594947,15.3,14.32,15.3,15.3,1020,55,2.47,258,90,0.0,Clouds,overcast clouds,15
Tompapuszta,46.321389,20.966389,2026-03-11 16:09:18.788742,14.69,13.23,14.69,14.69,1022,39,3.41,179,14,0.0,Clouds,few clouds,15
Halászlak,46.911879,20.56228,2026-03-11 16:09:19.996387,14.67,13.37,14.67,14.67,1021,45,2.9,169,19,0.0,Clouds,few clouds,15
Sirató,46.840556,20.61,2026-03-11 16:09:21.203610,14.72,13.45,14.72,14.72,1021,46,2.94,171,16,0.0,Clouds,few clouds,15
Csabacsűd felső,46.829167,20.649167,2026-03-11 16:09:22.415758,14.72,13.42,14.72,14.72,1021,45,2.95,172,16,0.0,Clouds,few clouds,15
Orosháza-Üveggyár,46.579979,20.683644,2026-03-11 16:09:23.613248,14.8,13.51,14.8,14.8,1021,45,3.1,171,14,0.0,Clouds,few clouds,15
Gyulai városerdő,46.69482,21.32281,2026-03-11 16:09:24.811827,15.02,13.62,15.02,15.02,1022,40,2.98,169,16,0.0,Clouds,few clouds,15
Kórógyszentgyörgy,46.564377,20.224998,2026-03-11 16:09:26.009235,14.93,13.78,14.93,14.93,1021,50,2.88,157,12,0.0,Clouds,few clouds,15
Kunszállás,46.784444,19.767222,2026-03-11 16:09:27.213624,14.78,13.59,14.78,14.78,1021,49,2.69,152,55,0.0,Clouds,broken clouds,15
Selymes,46.655321,19.8534,2026-03-11 16:09:28.410093,14.89,13.71,14.89,14.89,1021,49,2.49,157,40,0.0,Clouds,scattered clouds,15
Petőfiszállási tanyák,46.587805,19.874509,2026-03-11 16:09:29.612793,14.96,13.79,14.96,14.96,1021,49,2.47,158,30,0.0,Clouds,scattered clouds,15
Kisteleki szőlők,46.514199,19.92868,2026-03-11 16:09:30.831843,14.99,13.82,14.99,14.99,1021,49,2.58,159,18,0.0,Clouds,few clouds,15
Kapitányság,46.435336,19.987564,2026-03-11 16:09:32.031505,15.11,13.96,15.11,15.11,1021,49,2.78,157,13,0.0,Clouds,few clouds,15
Őszeszék,46.39025,20.016017,2026-03-11 16:09:33.236000,15.16,14.01,15.16,15.16,1021,49,2.92,156,13,0.0,Clouds,few clouds,15
Vilmaszállás,46.366389,20.030833,2026-03-11 16:09:34.440738,15.19,14.04,15.19,15.19,1021,49,2.95,156,13,0.0,Clouds,few clouds,15
Jánosszállás,46.334359,20.051199,2026-03-11 16:09:35.641278,15.23,14.09,15.23,15.23,1021,49,2.98,156,14,0.0,Clouds,few clouds,15
Felsőpakony,47.343056,19.230556,2026-03-11 16:09:36.842785,15.02,13.8,15.02,15.02,1020,47,2.08,227,86,0.0,Clouds,overcast clouds,15
Felsőméntelek,46.987074,19.557745,2026-03-11 16:09:38.052929,14.69,13.44,14.69,14.69,1020,47,2.58,162,62,0.0,Clouds,broken clouds,15
Alsóméntelek,46.961558,19.579121,2026-03-11 16:09:39.248926,14.7,13.45,14.7,14.7,1020,47,2.57,161,62,0.0,Clouds,broken clouds,15
Nagynyír,46.943319,19.585447,2026-03-11 16:09:40.450942,14.7,13.45,14.7,14.7,1020,47,2.57,161,62,0.0,Clouds,broken clouds,15
Úrihegy,46.917778,19.621389,2026-03-11 16:09:41.657945,14.75,13.53,14.75,14.75,1020,48,2.66,158,61,0.0,Clouds,broken clouds,15
Miklóstelep,46.913412,19.630913,2026-03-11 16:09:42.854652,14.74,13.52,14.74,14.74,1020,48,2.72,155,58,0.0,Clouds,broken clouds,15
Tiszajenő alsó,47.016944,20.134444,2026-03-11 16:09:44.055055,14.71,13.46,14.71,14.71,1021,47,2.56,164,35,0.0,Clouds,scattered clouds,15
Óbög,46.987222,20.111111,2026-03-11 16:09:45.268148,14.73,13.49,14.73,14.73,1021,47,2.54,162,37,0.0,Clouds,scattered clouds,15
Árpádszállás,46.866456,19.989163,2026-03-11 16:09:46.470097,14.72,13.53,14.72,14.72,1021,49,2.52,153,41,0.0,Clouds,scattered clouds,15
Tőserdő,46.851111,19.980278,2026-03-11 16:09:47.680327,14.77,13.58,14.77,14.77,1021,49,2.5,153,39,0.0,Clouds,scattered clouds,15
Tiszaalpár felső,46.836256,19.976753,2026-03-11 16:09:48.880120,14.77,13.58,14.77,14.77,1021,49,2.5,153,39,0.0,Clouds,scattered clouds,15
Borsihalom,46.773056,19.92,2026-03-11 16:09:50.074373,14.8,13.62,14.8,14.8,1021,49,2.56,152,41,0.0,Clouds,scattered clouds,15
Petőfiváros,46.725556,19.848611,2026-03-11 16:09:51.269822,14.84,13.66,14.84,14.84,1021,49,2.59,153,48,0.0,Clouds,scattered clouds,15
Csorna,47.601944,17.248889,2026-03-11 16:09:52.480009,15.78,14.88,15.78,15.78,1018,56,2.16,175,8,0.0,Clear,clear sky,15
Szorgalmatos,47.986667,21.366389,2026-03-11 16:09:53.682592,13.73,12.31,13.73,13.73,1021,44,2.72,169,33,0.0,Clouds,scattered clouds,15
Fótfürdő,47.6225,19.200556,2026-03-11 16:09:54.887576,14.59,13.36,14.59,14.59,1019,48,2.48,199,63,0.0,Clouds,broken clouds,15
Fenyveshegy,47.818333,19.068056,2026-03-11 16:09:56.091787,14.91,13.76,14.91,14.91,1019,50,1.85,178,55,0.0,Clouds,broken clouds,15
Hűvösvölgy,47.541202,18.96351,2026-03-11 16:09:57.306462,13.59,12.31,13.59,13.59,1019,50,2.58,173,68,0.0,Clouds,broken clouds,15
Hárshegy,47.535318,18.961433,2026-03-11 16:09:58.494532,13.59,12.31,13.59,13.59,1019,50,2.58,173,68,0.0,Clouds,broken clouds,15
Szépjuhászné,47.528277,18.955246,2026-03-11 16:09:59.694966,13.31,12.03,13.31,13.31,1019,51,2.63,172,70,0.0,Clouds,broken clouds,15
Jánoshegy,47.51433,18.95047,2026-03-11 16:10:00.900506,13.31,12.03,13.31,13.31,1019,51,2.63,172,70,0.0,Clouds,broken clouds,15
Virágvölgy,47.505965,18.95876,2026-03-11 16:10:02.127143,13.57,12.29,13.57,13.57,1019,50,2.66,171,72,0.0,Clouds,broken clouds,15
Csillebérc,47.498196,18.961694,2026-03-11 16:10:03.334744,13.57,12.29,13.57,13.57,1019,50,2.66,171,72,0.0,Clouds,broken clouds,15
Normafa,47.5,18.970558,2026-03-11 16:10:04.537121,13.57,12.29,13.57,13.57,1019,50,2.66,171,72,0.0,Clouds,broken clouds,15
Széchenyihegy,47.49413,18.977049,2026-03-11 16:10:05.731873,12.79,11.43,12.79,12.79,1019,50,2.57,176,72,0.0,Clouds,broken clouds,15
Balatonfőkajár felső,47.031389,18.215278,2026-03-11 16:10:06.930686,15.05,14.07,15.05,15.05,1020,56,2.7,173,100,0.0,Clouds,overcast clouds,15
Piroska,47.148333,20.129722,2026-03-11 16:10:08.125998,14.64,13.36,14.64,14.64,1021,46,2.62,163,35,0.0,Clouds,scattered clouds,15
Somodor,46.4725,17.836667,2026-03-11 16:10:09.333108,14.86,13.99,14.86,14.86,1020,61,3.33,179,100,0.0,Clouds,overcast clouds,15
Középmező,45.995833,18.668889,2026-03-11 16:10:10.532802,15.49,14.48,15.49,15.49,1020,53,2.01,269,68,0.0,Clouds,broken clouds,15
Jobbágyi,47.828889,19.6875,2026-03-11 16:10:11.734611,14.24,13.03,14.24,14.24,1020,50,2.27,113,49,0.0,Clouds,scattered clouds,15
Ferihegy,47.437222,19.223889,2026-03-11 16:10:12.936985,14.95,13.7,14.95,14.95,1019,46,2.22,214,81,0.0,Clouds,broken clouds,15
Máriapócs,47.852778,22.019167,2026-03-11 16:10:14.138789,14.51,12.88,14.51,14.51,1022,33,2.7,206,24,0.0,Clouds,few clouds,15
Máriaudvar,47.751944,19.165,2026-03-11 16:10:15.348505,14.92,13.75,14.92,14.92,1019,49,2.11,189,52,0.0,Clouds,broken clouds,15
Nagyberki,46.353333,18.004167,2026-03-11 16:10:16.552062,14.69,13.83,14.69,14.69,1020,62,2.62,172,100,0.0,Clouds,overcast clouds,15
Badacsonytomaj,46.804722,17.518056,2026-03-11 16:10:17.752728,15.47,14.59,15.47,15.47,1019,58,3.41,175,70,0.0,Clouds,broken clouds,15
Badacsony,46.788611,17.506389,2026-03-11 16:10:18.956943,15.55,14.68,15.55,15.55,1019,58,3.45,178,71,0.0,Clouds,broken clouds,15
Badacsonylábdihegy,46.793889,17.470833,2026-03-11 16:10:20.156242,15.55,14.68,15.55,15.55,1019,58,3.45,178,71,0.0,Clouds,broken clouds,15
Badacsonytördemic-Szigliget,46.809722,17.469167,2026-03-11 16:10:21.357912,15.55,14.68,15.55,15.55,1019,58,3.34,176,64,0.0,Clouds,broken clouds,15
Nemesgulács-Kisapáti,46.836944,17.476389,2026-03-11 16:10:22.559365,15.57,14.67,15.57,15.57,1019,57,3.23,174,57,0.0,Clouds,broken clouds,15
Tapolca,46.877778,17.428611,2026-03-11 16:10:23.762045,15.62,14.7,15.62,15.62,1019,56,2.63,175,30,0.0,Clouds,scattered clouds,15
Uzsabánya alsó,46.898333,17.345278,2026-03-11 16:10:24.964380,14.59,13.57,14.59,14.59,1019,56,2.08,181,16,0.0,Clouds,few clouds,15
Uzsa,46.920278,17.331667,2026-03-11 16:10:26.167099,15.37,14.42,15.37,15.37,1019,56,1.99,183,13,0.0,Clouds,few clouds,15
Sümegi Bazaltbánya,46.9525,17.2925,2026-03-11 16:10:27.362838,15.4,14.46,15.4,15.4,1019,56,1.76,191,10,0.0,Clear,clear sky,15
Sümeg,46.981111,17.270833,2026-03-11 16:10:28.566841,15.58,14.63,15.58,15.58,1019,55,1.49,202,9,0.0,Clear,clear sky,15
Gógánfa,47.021111,17.207778,2026-03-11 16:10:29.763345,15.57,14.62,15.57,15.57,1019,55,1.55,212,11,0.0,Clouds,few clouds,15
Ukk,47.041944,17.195833,2026-03-11 16:10:30.962492,15.61,14.69,15.61,15.61,1019,56,1.54,214,10,0.0,Clear,clear sky,15
Nemeskeresztúr,47.093611,17.183611,2026-03-11 16:10:32.172545,15.54,14.61,15.54,15.54,1019,56,1.65,214,10,0.0,Clear,clear sky,15
Jánosháza,47.115833,17.171667,2026-03-11 16:10:33.380709,15.6,14.68,15.6,15.6,1019,56,1.68,214,9,0.0,Clear,clear sky,15
Keszthely,46.758333,17.248056,2026-03-11 16:10:34.588348,15.75,14.82,15.75,15.75,1018,55,2.19,183,21,0.0,Clouds,few clouds,15
Alsógyenes,46.765844,17.276435,2026-03-11 16:10:35.796714,15.74,14.83,15.74,15.74,1019,56,2.66,183,32,0.0,Clouds,scattered clouds,15
Gyenesdiás,46.763333,17.292778,2026-03-11 16:10:36.992981,15.74,14.83,15.74,15.74,1019,56,2.66,183,32,0.0,Clouds,scattered clouds,15
Vonyarcvashegy,46.755278,17.318333,2026-03-11 16:10:38.191953,15.15,14.18,15.15,15.15,1019,56,2.87,182,40,0.0,Clouds,scattered clouds,15
Balatongyörök,46.751944,17.354444,2026-03-11 16:10:39.393297,15.69,14.78,15.69,15.69,1019,56,3.07,182,47,0.0,Clouds,scattered clouds,15
Becehegy,46.776111,17.372778,2026-03-11 16:10:40.594665,14.54,13.51,14.54,14.54,1019,56,2.88,179,41,0.0,Clouds,scattered clouds,15
Balatonederics,46.8025,17.385,2026-03-11 16:10:41.797755,14.48,13.45,14.48,14.48,1019,56,2.72,178,36,0.0,Clouds,scattered clouds,15
Dabronc,47.025766,17.167006,2026-03-11 16:10:42.993645,15.61,14.66,15.61,15.61,1019,55,1.45,212,10,0.0,Clear,clear sky,15
Türje,46.994444,17.093611,2026-03-11 16:10:44.196236,15.6,14.65,15.6,15.6,1018,55,1.11,202,7,0.0,Clear,clear sky,15
Zalabér-Batyk,46.983056,17.040833,2026-03-11 16:10:45.397668,15.71,14.77,15.71,15.71,1018,55,0.8,170,6,0.0,Clear,clear sky,15
Pakod,46.959167,16.996667,2026-03-11 16:10:46.602275,15.61,14.66,15.61,15.61,1018,55,0.84,159,6,0.0,Clear,clear sky,15
Pókaszepetk,46.924444,16.972222,2026-03-11 16:10:47.808117,15.73,14.79,15.73,15.73,1018,55,0.63,146,6,0.0,Clear,clear sky,15
Kemendollár,46.905833,16.946667,2026-03-11 16:10:49.020238,15.43,14.46,15.43,15.43,1018,55,0.68,139,8,0.0,Clear,clear sky,15
Zalaegerszeg,46.833056,16.848333,2026-03-11 16:10:50.215145,15.49,14.53,15.49,15.49,1018,55,0.73,163,19,0.0,Clouds,few clouds,15
Bocfölde,46.780278,16.853611,2026-03-11 16:10:51.415537,15.6,14.65,15.6,15.6,1018,55,0.77,189,19,0.0,Clouds,few clouds,15
Sárhida,46.755833,16.851389,2026-03-11 16:10:52.633447,14.8,13.77,14.8,14.8,1018,55,1.09,199,22,0.0,Clouds,few clouds,15
Bak,46.7325,16.849167,2026-03-11 16:10:53.849996,15.22,14.23,15.22,15.22,1018,55,1.33,204,23,0.0,Clouds,few clouds,15
Tófej,46.670833,16.801944,2026-03-11 16:10:55.058297,15.06,14.06,15.06,15.06,1018,55,2.0,209,28,0.0,Clouds,scattered clouds,15
Gutorfölde,46.646944,16.739722,2026-03-11 16:10:56.261877,15.31,14.33,15.31,15.31,1018,55,2.46,210,32,0.0,Clouds,scattered clouds,15
Csömödér-Páka,46.608056,16.641111,2026-03-11 16:10:57.469497,15.51,14.55,15.51,15.51,1018,55,3.19,210,38,0.0,Clouds,scattered clouds,15
Iklódbördőce,46.603056,16.604722,2026-03-11 16:10:58.673127,15.32,14.34,15.32,15.32,1018,55,3.41,210,42,0.0,Clouds,scattered clouds,15
Lenti,46.621389,16.528611,2026-03-11 16:10:59.873918,15.49,14.53,15.49,15.49,1018,55,3.4,210,48,0.0,Clouds,scattered clouds,15
Rédics,46.618056,16.471111,2026-03-11 16:11:01.070012,15.48,14.52,15.48,15.48,1018,55,3.48,209,51,0.0,Clouds,broken clouds,15
Zalalövő,46.845556,16.576389,2026-03-11 16:11:02.269976,15.3,14.32,15.3,15.3,1018,55,1.68,186,51,0.0,Clouds,broken clouds,15
Zalaegerszeg-Ola,46.849167,16.844722,2026-03-11 16:11:03.472366,15.49,14.53,15.49,15.49,1018,55,0.73,163,19,0.0,Clouds,few clouds,15
Andráshida,46.863116,16.7792,2026-03-11 16:11:04.685313,15.44,14.5,15.44,15.44,1018,56,0.89,153,21,0.0,Clouds,few clouds,15
Bagod,46.875,16.746111,2026-03-11 16:11:05.881721,15.53,14.6,15.53,15.53,1018,56,1.12,162,28,0.0,Clouds,scattered clouds,15
Zalaszentgyörgy,46.872222,16.7125,2026-03-11 16:11:07.089324,15.47,14.53,15.47,15.47,1018,56,1.22,165,31,0.0,Clouds,scattered clouds,15
Zalacséb-Salomvár,46.858056,16.662222,2026-03-11 16:11:08.286729,15.24,14.28,15.24,15.24,1018,56,1.32,169,35,0.0,Clouds,scattered clouds,15
Kópháza,47.631389,16.6375,2026-03-11 16:11:09.481784,15.27,14.37,15.27,15.27,1018,58,0.7,113,19,0.0,Clouds,few clouds,15
Nagycenk,47.601111,16.690278,2026-03-11 16:11:10.686452,15.45,14.54,15.45,15.45,1018,57,1.04,142,16,0.0,Clouds,few clouds,15
Sopronkövesd,47.548333,16.748056,2026-03-11 16:11:11.892887,15.29,14.36,15.29,15.29,1018,57,2.02,161,11,0.0,Clouds,few clouds,15
Lövő,47.509444,16.7775,2026-03-11 16:11:13.100037,15.26,14.33,15.26,15.26,1018,57,2.49,165,7,0.0,Clear,clear sky,15
Újkér,47.457778,16.786667,2026-03-11 16:11:14.308938,15.35,14.43,15.35,15.35,1018,57,2.92,167,9,0.0,Clear,clear sky,15
Bük,47.388611,16.752222,2026-03-11 16:11:15.510747,15.43,14.49,15.43,15.43,1018,56,2.91,167,15,0.0,Clouds,few clouds,15
Acsád,47.308333,16.734722,2026-03-11 16:11:16.706271,15.14,14.17,15.14,15.14,1018,56,2.45,165,21,0.0,Clouds,few clouds,15
Salköveskút-Vassurány,47.291389,16.704167,2026-03-11 16:11:17.910837,15.19,14.23,15.19,15.19,1018,56,2.31,163,22,0.0,Clouds,few clouds,15
Zalaszentiván,46.8875,16.909444,2026-03-11 16:11:19.115242,15.59,14.64,15.59,15.59,1018,55,0.73,133,12,0.0,Clouds,few clouds,15
Alsónemesapáti,46.854167,16.936389,2026-03-11 16:11:20.311665,15.7,14.76,15.7,15.7,1018,55,0.5,137,9,0.0,Clear,clear sky,15
Józsa,47.600833,21.584444,2026-03-11 16:11:21.513439,14.15,12.67,14.15,14.15,1022,40,2.76,175,18,0.0,Clouds,few clouds,15
Hajdúszentgyörgy,47.608056,21.578333,2026-03-11 16:11:22.717153,14.15,12.67,14.15,14.15,1022,40,2.76,175,18,0.0,Clouds,few clouds,15
Zelemér,47.627778,21.578333,2026-03-11 16:11:23.920162,14.08,12.59,14.08,14.08,1022,40,2.77,175,19,0.0,Clouds,few clouds,15
Hajdúböszörmény,47.668056,21.524167,2026-03-11 16:11:25.114033,14.04,12.57,14.04,14.04,1022,41,2.87,173,20,0.0,Clouds,few clouds,15
Hajdúvid,47.749444,21.508056,2026-03-11 16:11:26.321233,14.02,12.57,14.02,14.02,1022,42,2.91,173,24,0.0,Clouds,few clouds,15
Hajdúdorog,47.805556,21.493056,2026-03-11 16:11:27.521275,13.94,12.49,13.94,13.94,1022,42,2.92,172,27,0.0,Clouds,scattered clouds,15
Hajdúnánás,47.831944,21.426667,2026-03-11 16:11:28.726241,13.92,12.49,13.92,13.92,1021,43,2.92,171,30,0.0,Clouds,scattered clouds,15
Hajdúnánás-Vásártér,47.843056,21.407222,2026-03-11 16:11:29.929868,13.92,12.49,13.92,13.92,1021,43,2.92,171,30,0.0,Clouds,scattered clouds,15
Tedej,47.903611,21.404444,2026-03-11 16:11:31.129851,13.83,12.39,13.83,13.83,1021,43,2.87,170,33,0.0,Clouds,scattered clouds,15
Tiszavasvári,47.945278,21.374722,2026-03-11 16:11:32.324462,13.76,12.34,13.76,13.76,1021,44,2.81,170,33,0.0,Clouds,scattered clouds,15
Egyházerdő,47.9725,21.365,2026-03-11 16:11:33.521435,13.76,12.34,13.76,13.76,1021,44,2.78,169,33,0.0,Clouds,scattered clouds,15
Tiszalök,48.013056,21.369167,2026-03-11 16:11:34.724042,13.71,12.29,13.71,13.71,1021,44,2.67,169,32,0.0,Clouds,scattered clouds,15
Hajnalos,47.998889,21.414167,2026-03-11 16:11:35.920815,13.78,12.36,13.78,13.78,1021,44,2.73,169,33,0.0,Clouds,scattered clouds,15
Kisfástanya,47.989167,21.47,2026-03-11 16:11:37.119249,13.79,12.35,13.79,13.79,1021,43,2.74,169,34,0.0,Clouds,scattered clouds,15
Tiszaeszlár,48.010556,21.491944,2026-03-11 16:11:38.319647,13.84,12.4,13.84,13.84,1021,43,2.69,170,35,0.0,Clouds,scattered clouds,15
Bashalom,48.026111,21.514722,2026-03-11 16:11:39.514610,13.86,12.42,13.86,13.86,1021,43,2.64,170,34,0.0,Clouds,scattered clouds,15
Sáránd,47.415556,21.625,2026-03-11 16:11:40.721587,14.79,13.37,14.79,14.79,1022,40,2.66,183,14,0.0,Clouds,few clouds,15
Derecske,47.365,21.584167,2026-03-11 16:11:41.921354,14.84,13.42,14.84,14.84,1022,40,2.72,185,14,0.0,Clouds,few clouds,15
Derecske-Vásártér,47.352222,21.58,2026-03-11 16:11:43.117112,14.84,13.42,14.84,14.84,1022,40,2.72,185,14,0.0,Clouds,few clouds,15
Konyár,47.323611,21.666111,2026-03-11 16:11:44.321826,15.05,13.63,15.05,15.05,1022,39,2.66,190,13,0.0,Clouds,few clouds,15
Konyári Sóstófürdő,47.324167,21.744444,2026-03-11 16:11:45.533453,15.14,13.7,15.14,15.14,1022,38,2.46,194,13,0.0,Clouds,few clouds,15
Pocsaj-Esztár,47.288333,21.793056,2026-03-11 16:11:46.732021,15.23,13.8,15.23,15.23,1022,38,2.32,199,13,0.0,Clouds,few clouds,15
Kismarja,47.243889,21.813889,2026-03-11 16:11:47.928953,15.31,13.89,15.31,15.31,1022,38,2.37,203,13,0.0,Clouds,few clouds,15
Nagykereki,47.191667,21.8,2026-03-11 16:11:49.129912,15.36,13.94,15.36,15.36,1022,38,2.46,207,13,0.0,Clouds,few clouds,15
Debrecen-Szabadságtelep,47.527778,21.658611,2026-03-11 16:11:50.341670,14.5,13.02,14.5,14.5,1022,39,2.64,179,15,0.0,Clouds,few clouds,15
Kondoroskert,47.525556,21.713889,2026-03-11 16:11:51.546905,14.61,13.12,14.61,14.61,1022,38,2.53,184,15,0.0,Clouds,few clouds,15
Nagycsere,47.523889,21.763056,2026-03-11 16:11:52.755768,14.66,13.17,14.66,14.66,1022,38,2.5,186,15,0.0,Clouds,few clouds,15
Haláp,47.521667,21.818333,2026-03-11 16:11:53.957326,14.67,13.16,14.67,14.67,1022,37,2.48,188,15,0.0,Clouds,few clouds,15
Vámospércs,47.518056,21.893889,2026-03-11 16:11:55.157516,14.73,13.22,14.73,14.73,1022,37,2.41,196,14,0.0,Clouds,few clouds,15
Szentannapuszta,47.52,21.965833,2026-03-11 16:11:56.363825,14.85,13.33,14.85,14.85,1022,36,2.38,203,14,0.0,Clouds,few clouds,15
Nyírábrány,47.523889,22.016944,2026-03-11 16:11:57.571372,14.88,13.34,14.88,14.88,1022,35,2.38,206,14,0.0,Clouds,few clouds,15
Dombostanya,47.602778,21.706389,2026-03-11 16:11:58.773990,14.34,12.85,14.34,14.34,1022,39,2.63,179,19,0.0,Clouds,few clouds,15
Hajdúsámson,47.608056,21.755278,2026-03-11 16:11:59.977209,14.45,12.94,14.45,14.45,1022,38,2.55,185,19,0.0,Clouds,few clouds,15
Tamásipuszta,47.632778,21.796111,2026-03-11 16:12:01.177893,14.4,12.86,14.4,14.4,1022,37,2.56,187,20,0.0,Clouds,few clouds,15
Aradványpuszta,47.662778,21.8425,2026-03-11 16:12:02.379658,14.42,12.88,14.42,14.42,1022,37,2.56,189,21,0.0,Clouds,few clouds,15
Nyíradony,47.699444,21.903333,2026-03-11 16:12:03.575740,14.42,12.86,14.42,14.42,1022,36,2.57,196,21,0.0,Clouds,few clouds,15
Nyírmihálydi,47.7375,21.958889,2026-03-11 16:12:04.779661,14.43,12.84,14.43,14.43,1022,35,2.57,198,20,0.0,Clouds,few clouds,15
Nyírgelse,47.750833,21.987778,2026-03-11 16:12:05.992545,14.42,12.81,14.42,14.42,1022,34,2.6,201,20,0.0,Clouds,few clouds,15
Nyírbogát,47.793056,22.066389,2026-03-11 16:12:07.186142,14.58,12.96,14.58,14.58,1022,33,2.67,209,18,0.0,Clouds,few clouds,15
Nagykálló,47.871111,21.825833,2026-03-11 16:12:08.388358,14.28,12.7,14.28,14.28,1022,36,2.7,196,41,0.0,Clouds,scattered clouds,15
Kállósemjén,47.854722,21.935,2026-03-11 16:12:09.596639,14.4,12.81,14.4,14.4,1022,35,2.69,201,32,0.0,Clouds,scattered clouds,15
Nyírbátor,47.8425,22.131111,2026-03-11 16:12:10.799702,14.58,12.96,14.58,14.58,1022,33,2.67,210,18,0.0,Clouds,few clouds,15
Nyírcsászári,47.865556,22.179167,2026-03-11 16:12:12.006007,14.72,13.08,14.72,14.72,1022,32,2.56,208,17,0.0,Clouds,few clouds,15
Hodász,47.896111,22.213611,2026-03-11 16:12:13.204427,14.72,13.08,14.72,14.72,1022,32,2.38,201,16,0.0,Clouds,few clouds,15
Nyírmeggyes,47.9225,22.256667,2026-03-11 16:12:14.411315,14.78,13.15,14.78,14.78,1022,32,2.26,189,17,0.0,Clouds,few clouds,15
Mátészalka,47.951389,22.313333,2026-03-11 16:12:15.615822,14.86,13.24,14.86,14.86,1022,32,2.2,178,17,0.0,Clouds,few clouds,15
Kocsord,47.941944,22.375833,2026-03-11 16:12:16.818082,15.13,13.53,15.13,15.13,1022,32,2.09,164,15,0.0,Clouds,few clouds,15
Kocsord alsó,47.946389,22.400556,2026-03-11 16:12:18.021932,15.13,13.53,15.13,15.13,1022,32,2.09,164,15,0.0,Clouds,few clouds,15
Győrtelek,47.936667,22.424722,2026-03-11 16:12:19.228212,15.2,13.59,15.2,15.2,1022,31,2.1,157,15,0.0,Clouds,few clouds,15
Győrtelek alsó,47.921111,22.443333,2026-03-11 16:12:20.429339,15.3,13.7,15.3,15.3,1022,31,2.05,155,15,0.0,Clouds,few clouds,15
Ököritófülpös,47.911389,22.495,2026-03-11 16:12:21.641321,15.37,13.75,15.37,15.37,1022,30,2.08,149,15,0.0,Clouds,few clouds,15
Porcsalma-Tyukod,47.868056,22.568333,2026-03-11 16:12:22.841316,15.56,13.93,15.56,15.56,1022,29,2.05,138,14,0.0,Clouds,few clouds,15
Csenger,47.826111,22.666389,2026-03-11 16:12:24.043695,15.68,14.06,15.68,15.68,1022,29,2.07,129,13,0.0,Clouds,few clouds,15
Kisfái,46.888303,19.807366,2026-03-11 16:12:25.242707,14.72,13.53,14.72,14.72,1021,49,2.8,148,52,0.0,Clouds,broken clouds,15
Nyárlőrinci szőlők,46.8775,19.828333,2026-03-11 16:12:26.447407,14.73,13.54,14.73,14.73,1021,49,2.75,148,51,0.0,Clouds,broken clouds,15
Nyárlőrinc alsó,46.863889,19.878889,2026-03-11 16:12:27.648244,14.7,13.51,14.7,14.7,1021,49,2.71,149,49,0.0,Clouds,scattered clouds,15
Tiszaug-Tiszahídfő,46.866106,20.052098,2026-03-11 16:12:28.853344,14.82,13.64,14.82,14.82,1021,49,2.49,155,39,0.0,Clouds,scattered clouds,15
Csongrádi úti tanyák,46.690278,19.921667,2026-03-11 16:12:30.048221,14.89,13.74,14.89,14.89,1021,50,2.51,154,32,0.0,Clouds,scattered clouds,15
Kettőshalom,46.689167,20.0225,2026-03-11 16:12:31.251390,14.9,13.75,14.9,14.9,1021,50,2.52,154,25,0.0,Clouds,scattered clouds,15
Csongrád alsó,46.711389,20.126389,2026-03-11 16:12:32.450701,14.89,13.74,14.89,14.89,1021,50,2.54,156,21,0.0,Clouds,few clouds,15
Dónát,46.66988,20.368168,2026-03-11 16:12:33.654848,14.8,13.62,14.8,14.8,1021,49,2.88,160,15,0.0,Clouds,few clouds,15
Pusztatemplom,46.676667,20.407222,2026-03-11 16:12:34.856014,14.78,13.59,14.78,14.78,1021,49,2.93,161,14,0.0,Clouds,few clouds,15
Előhát,47.364722,20.653611,2026-03-11 16:12:36.055783,14.1,12.71,14.1,14.1,1021,44,2.88,155,32,0.0,Clouds,scattered clouds,15
Polgárdi-Tekerespuszta,47.017778,18.297778,2026-03-11 16:12:37.262928,15.03,14.02,15.03,15.03,1020,55,2.72,174,100,0.0,Clouds,overcast clouds,15
Szatina-Kishajmás,46.202778,18.083611,2026-03-11 16:12:38.482242,14.22,13.34,14.22,14.22,1020,63,1.48,183,99,0.0,Clouds,overcast clouds,15
Márok,45.886944,18.499167,2026-03-11 16:12:39.689641,15.31,14.31,15.31,15.31,1020,54,1.65,291,75,0.0,Clouds,broken clouds,15
Nagynyárád,45.953333,18.564722,2026-03-11 16:12:40.887433,15.33,14.33,15.33,15.33,1020,54,1.77,279,74,0.0,Clouds,broken clouds,15
Szászvár,46.2875,18.369722222222222,2026-03-11 16:12:42.096844,14.39,13.45,14.39,14.39,1020,60,1.33,219,99,0.0,Clouds,overcast clouds,15
