station_name,station_lat,station_lon,observation_time,temp,feels_like,temp_min,temp_max,pressure,humidity,wind_speed,wind_deg,clouds,precipitation_1h,weather_main,weather_description,collection_hour
Búcsúszentlászló,46.793056,16.932778,2026-03-10 09:55:13.048947,13.25,12.2,13.25,13.25,1023,60,4.71,180,77,0.0,Clouds,broken clouds,9
Angyalföld,47.549722,19.09,2026-03-10 09:55:14.289962,11.66,10.32,11.66,11.66,1025,55,3.29,150,100,0.0,Clouds,overcast clouds,9
Felsőjánosfa,46.841389,16.544167,2026-03-10 09:55:15.528066,13.19,12.05,13.19,13.19,1022,57,4.57,201,49,0.0,Clouds,scattered clouds,9
Pankasz,46.835833,16.496111,2026-03-10 09:55:16.765400,12.92,11.78,12.92,12.92,1022,58,4.71,202,50,0.0,Clouds,scattered clouds,9
Nagyrákos,46.827222,16.455556,2026-03-10 09:55:18.001016,12.89,11.75,12.89,12.89,1022,58,4.74,203,50,0.0,Clouds,scattered clouds,9
Őriszentpéter,46.828889,16.415278,2026-03-10 09:55:19.237836,13.01,11.88,13.01,13.01,1022,58,4.74,206,51,0.0,Clouds,broken clouds,9
Törökbálint,47.45,18.908611,2026-03-10 09:55:20.468343,11.43,10.09,11.43,11.43,1025,56,3.79,147,100,0.0,Clouds,overcast clouds,9
Bicske alsó,47.486389,18.642778,2026-03-10 09:55:21.705403,11.53,10.28,11.53,11.53,1025,59,4.78,141,100,0.0,Clouds,overcast clouds,9
Bajánsenye,46.818056,16.358056,2026-03-10 09:55:22.940406,13.14,12.02,13.14,13.14,1022,58,4.79,207,56,0.0,Clouds,broken clouds,9
Aquincum,47.566218,19.048273,2026-03-10 09:55:24.173440,11.25,9.89,11.25,11.25,1025,56,3.28,146,100,0.0,Clouds,overcast clouds,9
Piliscsév,47.673889,18.791389,2026-03-10 09:55:25.410057,11.28,9.98,11.28,11.28,1025,58,3.89,138,100,0.0,Clouds,overcast clouds,9
Tát,47.741201,18.64783,2026-03-10 09:55:26.641864,11.92,10.68,11.92,11.92,1025,58,4.11,138,100,0.0,Clouds,overcast clouds,9
Süttő felső,47.756667,18.437222,2026-03-10 09:55:27.879320,12.03,10.78,12.03,12.03,1025,57,4.73,141,100,0.0,Clouds,overcast clouds,9
Budatétény,47.405,19.016389,2026-03-10 09:55:29.128413,11.61,10.24,11.61,11.61,1025,54,3.66,151,100,0.0,Clouds,overcast clouds,9
Seregélyes-Szőlőhegy,47.119444,18.612222,2026-03-10 09:55:30.363786,11.87,10.6,11.87,11.87,1025,57,3.99,154,99,0.0,Clouds,overcast clouds,9
Gödöllő-Állami telepek,47.564444,19.375556,2026-03-10 09:55:31.602737,11.01,9.6,11.01,11.01,1026,55,4.14,155,100,0.0,Clouds,overcast clouds,9
Dunakeszi alsó,47.607778,19.128889,2026-03-10 09:55:32.844859,11.62,10.27,11.62,11.62,1025,55,3.38,149,100,0.0,Clouds,overcast clouds,9
Vác-Alsóváros,47.773056,19.149722,2026-03-10 09:55:34.090118,11.63,10.36,11.63,11.63,1025,58,4.0,145,100,0.0,Clouds,overcast clouds,9
Szob alsó,47.816667,18.8725,2026-03-10 09:55:35.322017,11.83,10.58,11.83,11.83,1025,58,3.38,135,100,0.0,Clouds,overcast clouds,9
Zalaszentmihály-Pacsa,46.7225,16.951944,2026-03-10 09:55:36.556762,13.29,12.24,13.29,13.29,1023,60,4.63,181,85,0.0,Clouds,overcast clouds,9
Pötréte,46.682778,16.9575,2026-03-10 09:55:37.791925,13.35,12.31,13.35,13.35,1023,60,4.56,183,92,0.0,Clouds,overcast clouds,9
Felsőrajk,46.667222,16.982778,2026-03-10 09:55:39.028014,13.3,12.25,13.3,13.3,1023,60,4.72,182,93,0.0,Clouds,overcast clouds,9
Gelse,46.600556,16.982778,2026-03-10 09:55:40.267754,13.33,12.29,13.33,13.33,1023,60,4.69,187,98,0.0,Clouds,overcast clouds,9
Őrtilos,46.297778,16.887778,2026-03-10 09:55:41.515693,13.68,12.64,13.68,13.68,1023,59,4.99,200,100,0.0,Clouds,overcast clouds,9
Zákány,46.251944,16.9425,2026-03-10 09:55:42.750944,13.43,12.37,13.43,13.43,1024,59,4.91,203,100,0.0,Clouds,overcast clouds,9
Berzence,46.201389,17.143611,2026-03-10 09:55:43.998175,13.65,12.59,13.65,13.65,1024,58,4.03,202,100,0.0,Clouds,overcast clouds,9
Somogyudvarhely,46.163333,17.179722,2026-03-10 09:55:45.238481,13.62,12.55,13.62,13.62,1024,58,3.8,202,100,0.0,Clouds,overcast clouds,9
Bélavár,46.122778,17.207778,2026-03-10 09:55:46.478022,13.71,12.65,13.71,13.71,1024,58,3.47,203,100,0.0,Clouds,overcast clouds,9
Vízvár,46.101389,17.239444,2026-03-10 09:55:47.719321,13.61,12.54,13.61,13.61,1024,58,3.29,202,100,0.0,Clouds,overcast clouds,9
Babócsa,46.028359,17.342276,2026-03-10 09:55:48.971733,13.63,12.56,13.63,13.63,1024,58,2.87,198,100,0.0,Clouds,overcast clouds,9
Péterhida-Komlósd,46.006667,17.358056,2026-03-10 09:55:50.208602,13.7,12.64,13.7,13.7,1024,58,2.66,197,100,0.0,Clouds,overcast clouds,9
Barcs,45.951944,17.446944,2026-03-10 09:55:51.441413,13.69,12.66,13.69,13.69,1024,59,2.03,188,100,0.0,Clouds,overcast clouds,9
Barcs felső,45.958333,17.486389,2026-03-10 09:55:52.681821,13.55,12.5,13.55,13.55,1024,59,1.95,183,100,0.0,Clouds,overcast clouds,9
Középrigóc,45.970556,17.525,2026-03-10 09:55:53.918253,13.4,12.36,13.4,13.4,1024,60,1.91,177,100,0.0,Clouds,overcast clouds,9
Darány,45.992222,17.598611,2026-03-10 09:55:55.157420,13.16,12.12,13.16,13.16,1024,61,2.18,165,100,0.0,Clouds,overcast clouds,9
Kisdobsza,46.012222,17.668056,2026-03-10 09:55:56.392008,13.02,12.0,13.02,13.02,1024,62,2.46,162,100,0.0,Clouds,overcast clouds,9
Nemeske,46.023333,17.705278,2026-03-10 09:55:57.621815,12.97,11.94,12.97,12.97,1025,62,2.49,160,100,0.0,Clouds,overcast clouds,9
Molvány,46.035278,17.748611,2026-03-10 09:55:58.860284,12.85,11.81,12.85,12.85,1025,62,2.67,160,99,0.0,Clouds,overcast clouds,9
Szigetvár,46.043333,17.801944,2026-03-10 09:56:00.099221,12.78,11.73,12.78,12.78,1025,62,2.68,159,99,0.0,Clouds,overcast clouds,9
Nagypeterd,46.039444,17.871667,2026-03-10 09:56:01.348229,12.7,11.64,12.7,12.7,1025,62,2.67,155,99,0.0,Clouds,overcast clouds,9
Szentdénes,46.036667,17.926944,2026-03-10 09:56:02.589480,12.61,11.55,12.61,12.61,1025,62,2.65,154,100,0.0,Clouds,overcast clouds,9
Háros,47.412222,19.035,2026-03-10 09:56:03.827688,11.61,10.24,11.61,11.61,1025,54,3.66,151,100,0.0,Clouds,overcast clouds,9
Nagytétény-Diósd,47.398333,18.974444,2026-03-10 09:56:05.068627,11.9,10.58,11.9,11.9,1025,55,3.8,151,100,0.0,Clouds,overcast clouds,9
Érdliget,47.390278,18.937778,2026-03-10 09:56:06.321977,11.81,10.48,11.81,11.81,1025,55,3.85,150,100,0.0,Clouds,overcast clouds,9
Érd felső,47.381111,18.922222,2026-03-10 09:56:07.555682,11.48,10.12,11.48,11.48,1025,55,3.92,149,100,0.0,Clouds,overcast clouds,9
Érd,47.369722,18.900833,2026-03-10 09:56:08.790909,11.63,10.28,11.63,11.63,1025,55,3.99,150,100,0.0,Clouds,overcast clouds,9
Százhalombatta,47.322222,18.899167,2026-03-10 09:56:10.025027,11.66,10.32,11.66,11.66,1025,55,4.12,152,100,0.0,Clouds,overcast clouds,9
Dunai Finomító,47.294444,18.878889,2026-03-10 09:56:11.269951,11.56,10.21,11.56,11.56,1025,55,4.17,152,100,0.0,Clouds,overcast clouds,9
Ercsi,47.247222,18.875278,2026-03-10 09:56:12.504351,11.69,10.35,11.69,11.69,1025,55,4.19,152,100,0.0,Clouds,overcast clouds,9
Iváncsa,47.177778,18.811944,2026-03-10 09:56:13.742039,11.7,10.36,11.7,11.7,1025,55,4.14,154,100,0.0,Clouds,overcast clouds,9
Pusztaszabolcs,47.139722,18.761667,2026-03-10 09:56:14.983765,11.8,10.47,11.8,11.8,1025,55,4.11,156,100,0.0,Clouds,overcast clouds,9
Szabadegyháza,47.082778,18.704167,2026-03-10 09:56:16.226812,11.81,10.51,11.81,11.81,1025,56,4.08,157,100,0.0,Clouds,overcast clouds,9
Sárosd,47.039722,18.660278,2026-03-10 09:56:17.480262,11.91,10.64,11.91,11.91,1025,57,4.04,157,100,0.0,Clouds,overcast clouds,9
Nagylók,46.979444,18.635833,2026-03-10 09:56:18.756663,11.81,10.53,11.81,11.81,1025,57,4.06,159,100,0.0,Clouds,overcast clouds,9
Sárbogárd,46.896944,18.611944,2026-03-10 09:56:19.997601,12.07,10.85,12.07,12.07,1025,58,4.03,160,100,0.0,Clouds,overcast clouds,9
Rétszilas,46.814167,18.601389,2026-03-10 09:56:21.230865,12.15,10.94,12.15,12.15,1025,58,4.01,161,100,0.0,Clouds,overcast clouds,9
Nagyatád,46.228611,17.354167,2026-03-10 09:56:22.470698,13.37,12.28,13.37,13.37,1024,58,3.51,192,100,0.0,Clouds,overcast clouds,9
Budapest-Keleti,47.500278,19.084167,2026-03-10 09:56:23.704208,11.72,10.38,11.72,11.72,1025,55,3.36,150,100,0.0,Clouds,overcast clouds,9
Ferencváros,47.468611,19.088056,2026-03-10 09:56:24.942562,11.84,10.49,11.84,11.84,1025,54,3.43,151,100,0.0,Clouds,overcast clouds,9
Budapest-Nyugati,47.510833,19.0575,2026-03-10 09:56:26.176459,11.7,10.36,11.7,11.7,1025,55,3.3,149,100,0.0,Clouds,overcast clouds,9
Kőbánya felső,47.491944,19.133889,2026-03-10 09:56:27.411673,11.63,10.26,11.63,11.63,1025,54,3.41,153,100,0.0,Clouds,overcast clouds,9
Rákos,47.488889,19.174722,2026-03-10 09:56:28.649891,11.54,10.16,11.54,11.54,1025,54,3.47,154,100,0.0,Clouds,overcast clouds,9
Rákosrendező,47.525556,19.089444,2026-03-10 09:56:29.885232,11.68,10.34,11.68,11.68,1025,55,3.31,151,100,0.0,Clouds,overcast clouds,9
Zugló,47.511389,19.101389,2026-03-10 09:56:31.125699,11.68,10.34,11.68,11.68,1025,55,3.31,151,100,0.0,Clouds,overcast clouds,9
Mezőtárkány,47.725,20.480278,2026-03-10 09:56:32.366100,11.54,9.9,11.54,11.54,1026,44,4.64,174,49,0.0,Clouds,scattered clouds,9
Istvántelek,47.550278,19.106389,2026-03-10 09:56:33.606775,11.66,10.32,11.66,11.66,1025,55,3.29,150,100,0.0,Clouds,overcast clouds,9
Rákospalota-Újpest,47.565833,19.111944,2026-03-10 09:56:34.847992,11.63,10.28,11.63,11.63,1025,55,3.29,149,100,0.0,Clouds,overcast clouds,9
Kőbánya alsó,47.483056,19.127222,2026-03-10 09:56:36.085058,11.63,10.26,11.63,11.63,1025,54,3.41,153,100,0.0,Clouds,overcast clouds,9
Kőbánya-Kispest,47.463889,19.149444,2026-03-10 09:56:37.321844,11.64,10.27,11.64,11.64,1025,54,3.48,154,100,0.0,Clouds,overcast clouds,9
Pestszentlőrinc,47.454722,19.182778,2026-03-10 09:56:38.554636,11.53,10.15,11.53,11.53,1025,54,3.64,155,100,0.0,Clouds,overcast clouds,9
Kispest,47.448135,19.157552,2026-03-10 09:56:39.787863,11.69,10.32,11.69,11.69,1025,54,3.58,155,100,0.0,Clouds,overcast clouds,9
Újpest,47.558889,19.079722,2026-03-10 09:56:41.025910,11.68,10.34,11.68,11.68,1025,55,3.27,148,100,0.0,Clouds,overcast clouds,9
Pestszentimre felső,47.413611,19.173333,2026-03-10 09:56:42.263859,11.55,10.14,11.55,11.55,1025,53,3.75,156,100,0.0,Clouds,overcast clouds,9
Dunakeszi,47.626111,19.136111,2026-03-10 09:56:43.494211,11.56,10.23,11.56,11.56,1025,56,3.43,148,100,0.0,Clouds,overcast clouds,9
Dunakeszi-Gyártelep,47.643611,19.135,2026-03-10 09:56:44.727020,11.61,10.29,11.61,11.61,1025,56,3.51,147,100,0.0,Clouds,overcast clouds,9
Alsógöd,47.676944,19.134444,2026-03-10 09:56:45.958936,11.63,10.31,11.63,11.63,1025,56,3.61,146,100,0.0,Clouds,overcast clouds,9
Göd,47.687778,19.1375,2026-03-10 09:56:47.191808,11.63,10.31,11.63,11.63,1025,56,3.61,146,100,0.0,Clouds,overcast clouds,9
Felsőgöd,47.705556,19.143333,2026-03-10 09:56:48.425674,11.71,10.42,11.71,11.71,1025,57,3.7,146,100,0.0,Clouds,overcast clouds,9
Sződ-Sződliget,47.728056,19.154722,2026-03-10 09:56:49.674398,11.74,10.46,11.74,11.74,1025,57,3.8,145,100,0.0,Clouds,overcast clouds,9
Vác,47.782778,19.133056,2026-03-10 09:56:50.913691,11.63,10.36,11.63,11.63,1025,58,4.0,145,100,0.0,Clouds,overcast clouds,9
Verőce,47.823889,19.029444,2026-03-10 09:56:52.151868,10.99,9.66,10.99,10.99,1025,58,3.57,139,100,0.0,Clouds,overcast clouds,9
Kismaros,47.8275,19.010278,2026-03-10 09:56:53.384404,10.23,8.82,10.23,10.23,1025,58,3.47,138,100,0.0,Clouds,overcast clouds,9
Nagymaros-Visegrád,47.791389,18.959167,2026-03-10 09:56:54.624983,10.62,9.25,10.62,10.62,1025,58,3.41,138,100,0.0,Clouds,overcast clouds,9
Nagymaros,47.780278,18.952222,2026-03-10 09:56:55.862906,10.62,9.25,10.62,10.62,1025,58,3.41,138,100,0.0,Clouds,overcast clouds,9
Zebegény,47.801389,18.908889,2026-03-10 09:56:57.099688,11.36,10.07,11.36,11.36,1025,58,3.37,136,100,0.0,Clouds,overcast clouds,9
Szob,47.821111,18.861944,2026-03-10 09:56:58.338092,11.28,9.98,11.28,11.28,1025,58,3.32,134,100,0.0,Clouds,overcast clouds,9
Alagimajor,47.601944,19.153889,2026-03-10 09:56:59.570262,11.62,10.27,11.62,11.62,1025,55,3.38,149,100,0.0,Clouds,overcast clouds,9
Fót,47.611389,19.181667,2026-03-10 09:57:00.809656,11.39,10.05,11.39,11.39,1025,56,3.53,149,100,0.0,Clouds,overcast clouds,9
Fótújfalu,47.615,19.192778,2026-03-10 09:57:02.046679,11.39,10.05,11.39,11.39,1025,56,3.53,149,100,0.0,Clouds,overcast clouds,9
Csomád,47.635556,19.222778,2026-03-10 09:57:03.283732,10.63,9.18,10.63,10.63,1025,55,3.64,149,100,0.0,Clouds,overcast clouds,9
Veresegyház,47.649167,19.288611,2026-03-10 09:57:04.535688,11.26,9.9,11.26,11.26,1025,56,4.11,150,100,0.0,Clouds,overcast clouds,9
Erdőkertes,47.662222,19.295833,2026-03-10 09:57:05.768795,11.26,9.9,11.26,11.26,1025,56,4.11,150,100,0.0,Clouds,overcast clouds,9
Őrbottyán,47.685833,19.283611,2026-03-10 09:57:07.001845,11.09,9.72,11.09,11.09,1026,56,4.21,150,100,0.0,Clouds,overcast clouds,9
Váchartyán,47.725833,19.248889,2026-03-10 09:57:08.242554,11.2,9.84,11.2,11.2,1026,56,4.31,149,100,0.0,Clouds,overcast clouds,9
Magyarkút-Verőce,47.826111,19.044444,2026-03-10 09:57:09.477862,10.99,9.66,10.99,10.99,1025,58,3.57,139,100,0.0,Clouds,overcast clouds,9
Szokolya,47.871111,19.030556,2026-03-10 09:57:10.715300,10.32,8.95,10.32,10.32,1025,59,3.63,138,100,0.0,Clouds,overcast clouds,9
Berkenye,47.885278,19.071944,2026-03-10 09:57:11.959560,11.04,9.74,11.04,11.04,1025,59,3.79,140,100,0.0,Clouds,overcast clouds,9
Nógrád,47.901944,19.0475,2026-03-10 09:57:13.191234,10.69,9.36,10.69,10.69,1025,59,3.67,138,100,0.0,Clouds,overcast clouds,9
Diósjenő,47.94,19.049444,2026-03-10 09:57:14.427524,10.33,8.96,10.33,10.33,1025,59,3.73,137,100,0.0,Clouds,overcast clouds,9
Borsosberény,47.971389,19.093056,2026-03-10 09:57:15.671928,11.05,9.75,11.05,11.05,1025,59,4.34,142,100,0.0,Clouds,overcast clouds,9
Nagyoroszi,47.993611,19.101111,2026-03-10 09:57:16.904799,10.91,9.6,10.91,10.91,1026,59,4.43,141,100,0.0,Clouds,overcast clouds,9
Drégelyvár,48.001944,19.079444,2026-03-10 09:57:18.138922,11.18,9.89,11.18,11.18,1025,59,4.24,135,100,0.0,Clouds,overcast clouds,9
Drégely,48.042222,19.056111,2026-03-10 09:57:19.370835,11.58,10.31,11.58,11.58,1025,58,4.4,133,100,0.0,Clouds,overcast clouds,9
Drégelypalánk,48.055,19.046111,2026-03-10 09:57:20.609827,11.75,10.5,11.75,11.75,1025,58,4.45,129,100,0.0,Clouds,overcast clouds,9
Ipolyvece,48.056944,19.106389,2026-03-10 09:57:21.847906,11.71,10.45,11.71,11.71,1026,58,4.78,136,100,0.0,Clouds,overcast clouds,9
Dejtár,48.045556,19.196389,2026-03-10 09:57:23.083205,11.61,10.34,11.61,11.61,1026,58,4.86,142,100,0.0,Clouds,overcast clouds,9
Ipolyszög,48.054444,19.221944,2026-03-10 09:57:24.316547,11.65,10.39,11.65,11.65,1026,58,4.96,142,100,0.0,Clouds,overcast clouds,9
Iklad-Domony,47.658056,19.444444,2026-03-10 09:57:25.550903,11.53,10.17,11.53,11.53,1026,55,4.59,153,100,0.0,Clouds,overcast clouds,9
Iklad-Domony felső,47.667778,19.428056,2026-03-10 09:57:26.792222,11.49,10.16,11.49,11.49,1026,56,4.59,152,100,0.0,Clouds,overcast clouds,9
Galgamácsa,47.693889,19.3925,2026-03-10 09:57:28.031967,11.22,9.86,11.22,11.22,1026,56,4.51,150,100,0.0,Clouds,overcast clouds,9
Vácrátót,47.732778,19.217778,2026-03-10 09:57:29.267529,11.45,10.14,11.45,11.45,1025,57,4.06,147,100,0.0,Clouds,overcast clouds,9
Csörög,47.735833,19.196389,2026-03-10 09:57:30.515640,11.68,10.39,11.68,11.68,1025,57,3.93,147,100,0.0,Clouds,overcast clouds,9
Galgagyörk,47.735278,19.372222,2026-03-10 09:57:31.766484,11.31,9.96,11.31,11.31,1026,56,4.61,150,100,0.0,Clouds,overcast clouds,9
Püspökhatvan,47.768611,19.366944,2026-03-10 09:57:33.005743,11.34,9.99,11.34,11.34,1026,56,4.77,150,100,0.0,Clouds,overcast clouds,9
Acsa-Erdőkürt,47.801111,19.386111,2026-03-10 09:57:34.241882,11.2,9.84,11.2,11.2,1026,56,4.84,150,100,0.0,Clouds,overcast clouds,9
Galgaguta,47.848611,19.385556,2026-03-10 09:57:35.475559,10.93,9.57,10.93,10.93,1026,57,4.91,150,100,0.0,Clouds,overcast clouds,9
Nógrádkövesd,47.879444,19.371111,2026-03-10 09:57:36.712276,11.11,9.76,11.11,11.11,1026,57,4.93,151,100,0.0,Clouds,overcast clouds,9
Magyarnándor,47.970833,19.356667,2026-03-10 09:57:37.952268,11.02,9.67,11.02,11.02,1026,57,4.92,150,100,0.0,Clouds,overcast clouds,9
Mohora,47.995556,19.347778,2026-03-10 09:57:39.190218,11.15,9.81,11.15,11.15,1026,57,4.88,150,100,0.0,Clouds,overcast clouds,9
Szügy,48.036389,19.333056,2026-03-10 09:57:40.424348,11.42,10.11,11.42,11.42,1026,57,4.77,148,100,0.0,Clouds,overcast clouds,9
Balassagyarmat,48.071111,19.293611,2026-03-10 09:57:41.654382,11.55,10.25,11.55,11.55,1026,57,4.83,146,100,0.0,Clouds,overcast clouds,9
Őrhalom,48.078773,19.403936,2026-03-10 09:57:42.900687,11.31,9.96,11.31,11.31,1026,56,3.93,148,100,0.0,Clouds,overcast clouds,9
Hugyag,48.083056,19.421111,2026-03-10 09:57:44.136499,11.31,9.96,11.31,11.31,1026,56,3.93,148,100,0.0,Clouds,overcast clouds,9
Szécsény,48.093056,19.521111,2026-03-10 09:57:45.379800,11.54,10.19,11.54,11.54,1026,55,3.17,151,100,0.0,Clouds,overcast clouds,9
Ludányhalászi,48.1325,19.529444,2026-03-10 09:57:46.611950,11.56,10.18,11.56,11.56,1026,54,2.81,148,100,0.0,Clouds,overcast clouds,9
Nógrádszakál,48.178333,19.521667,2026-03-10 09:57:47.851870,11.54,10.16,11.54,11.54,1026,54,2.68,146,100,0.0,Clouds,overcast clouds,9
Ráróspuszta,48.207222,19.541389,2026-03-10 09:57:49.091778,11.04,9.61,11.04,11.04,1026,54,2.48,142,100,0.0,Clouds,overcast clouds,9
Litke,48.215833,19.598611,2026-03-10 09:57:50.328903,11.55,10.14,11.55,11.55,1026,53,2.0,147,100,0.0,Clouds,overcast clouds,9
Nyíregyháza külső,47.943056,21.740278,2026-03-10 09:57:51.580489,12.26,10.72,12.26,12.26,1027,45,2.6,154,16,0.0,Clouds,few clouds,9
Oros,47.945833,21.806389,2026-03-10 09:57:52.810672,12.36,10.8,12.36,12.36,1027,44,2.69,152,17,0.0,Clouds,few clouds,9
Napkor,47.948889,21.873056,2026-03-10 09:57:54.040597,12.4,10.84,12.4,12.4,1027,44,2.75,150,18,0.0,Clouds,few clouds,9
Apagy,47.953775,21.939044,2026-03-10 09:57:55.280877,12.44,10.89,12.44,12.44,1027,44,2.76,148,19,0.0,Clouds,few clouds,9
Levelek-Magy,47.948056,21.993611,2026-03-10 09:57:56.518793,12.46,10.88,12.46,12.46,1027,43,2.77,144,19,0.0,Clouds,few clouds,9
Ófehértó,47.940556,22.041389,2026-03-10 09:57:57.754169,12.45,10.87,12.45,12.45,1027,43,2.84,140,20,0.0,Clouds,few clouds,9
Ligettanya,47.951667,22.071389,2026-03-10 09:57:58.992084,12.4,10.82,12.4,12.4,1027,43,2.74,137,20,0.0,Clouds,few clouds,9
Baktalórántháza,47.988611,22.083333,2026-03-10 09:58:00.231008,12.38,10.82,12.38,12.38,1027,44,2.65,139,19,0.0,Clouds,few clouds,9
Vaja-Rohod,48.006389,22.164167,2026-03-10 09:58:01.464359,12.43,10.88,12.43,12.43,1027,44,2.65,136,19,0.0,Clouds,few clouds,9
Rákóczitanya,48.022222,22.178333,2026-03-10 09:58:02.702415,12.44,10.86,12.44,12.44,1027,43,2.72,134,19,0.0,Clouds,few clouds,9
Nyírmada,48.059167,22.203056,2026-03-10 09:58:03.945375,12.42,10.87,12.42,12.42,1027,44,2.73,138,19,0.0,Clouds,few clouds,9
Tunyogmatolcs,47.960244,22.442247,2026-03-10 09:58:05.188469,12.89,11.28,12.89,12.89,1027,40,3.84,136,17,0.0,Clouds,few clouds,9
Tunyogmatolcs alsó,47.966025,22.464713,2026-03-10 09:58:06.430090,12.91,11.27,12.91,12.91,1027,39,4.04,138,18,0.0,Clouds,few clouds,9
Fehérgyarmat,47.979167,22.524444,2026-03-10 09:58:07.662599,12.97,11.31,12.97,12.97,1027,38,4.69,142,23,0.0,Clouds,few clouds,9
Penyige,47.995278,22.566944,2026-03-10 09:58:08.898021,13.01,11.36,13.01,13.01,1027,38,4.84,143,26,0.0,Clouds,scattered clouds,9
Nagyszekeres,47.976111,22.6125,2026-03-10 09:58:10.134717,13.05,11.38,13.05,13.05,1027,37,4.95,144,29,0.0,Clouds,scattered clouds,9
Kisszekeres,47.965833,22.629444,2026-03-10 09:58:11.371831,13.06,11.39,13.06,13.06,1027,37,4.84,143,28,0.0,Clouds,scattered clouds,9
Jánkmajtis,47.941944,22.657222,2026-03-10 09:58:12.614181,13.12,11.43,13.12,13.12,1027,36,4.81,143,31,0.0,Clouds,scattered clouds,9
Gacsály,47.926111,22.745,2026-03-10 09:58:13.851454,13.19,11.48,13.19,13.19,1027,35,5.08,144,39,0.0,Clouds,scattered clouds,9
Zajta,47.9025,22.796111,2026-03-10 09:58:15.090782,13.26,11.53,13.26,13.26,1027,34,5.17,145,42,0.0,Clouds,scattered clouds,9
Eperjeske alsó,48.360556,22.19,2026-03-10 09:58:16.328120,12.5,11.08,12.5,12.5,1027,49,4.08,153,14,0.0,Clouds,few clouds,9
Mándok,48.326944,22.196389,2026-03-10 09:58:17.560432,12.45,11.0,12.45,12.45,1027,48,3.88,151,14,0.0,Clouds,few clouds,9
Tornyospálca,48.268333,22.201944,2026-03-10 09:58:18.795740,12.46,11.01,12.46,12.46,1027,48,3.66,150,14,0.0,Clouds,few clouds,9
Aranyosapáti,48.211303,22.253534,2026-03-10 09:58:20.030972,12.58,11.07,12.58,12.58,1027,45,3.9,148,14,0.0,Clouds,few clouds,9
Gyüre,48.171389,22.269167,2026-03-10 09:58:21.273643,12.57,11.06,12.57,12.57,1027,45,3.62,145,15,0.0,Clouds,few clouds,9
Varsány,48.151722,22.290047,2026-03-10 09:58:22.512860,12.61,11.08,12.61,12.61,1027,44,3.67,143,15,0.0,Clouds,few clouds,9
Vásárosnamény,48.126667,22.306111,2026-03-10 09:58:23.747823,12.63,11.1,12.63,12.63,1027,44,3.54,141,16,0.0,Clouds,few clouds,9
Vitka,48.095556,22.308056,2026-03-10 09:58:24.989578,12.64,11.08,12.64,12.64,1027,43,3.42,139,16,0.0,Clouds,few clouds,9
Nagydobos,48.054167,22.311111,2026-03-10 09:58:26.224321,12.59,11.03,12.59,12.59,1027,43,3.32,137,17,0.0,Clouds,few clouds,9
Ópályi,47.997778,22.318333,2026-03-10 09:58:27.456099,12.64,11.06,12.64,12.64,1027,42,3.17,132,17,0.0,Clouds,few clouds,9
Nyírcsaholy,47.908056,22.348333,2026-03-10 09:58:28.687845,12.83,11.24,12.83,12.83,1027,41,3.3,129,16,0.0,Clouds,few clouds,9
Nagyecsed,47.864722,22.385556,2026-03-10 09:58:29.923418,12.98,11.35,12.98,12.98,1027,39,3.46,131,17,0.0,Clouds,few clouds,9
Tiborszállás,47.815278,22.402778,2026-03-10 09:58:31.160662,13.07,11.42,13.07,13.07,1027,38,3.43,129,17,0.0,Clouds,few clouds,9
Kiskunhalas,46.434444,19.493611,2026-03-10 09:58:32.396729,12.35,10.89,12.35,12.35,1025,48,6.12,169,87,0.0,Clouds,overcast clouds,9
Kecskemét alsó,46.895833,19.692222,2026-03-10 09:58:33.629219,12.13,10.65,12.13,12.13,1026,48,6.17,171,82,0.0,Clouds,broken clouds,9
Putnok,48.286667,20.4375,2026-03-10 09:58:34.867611,11.18,9.58,11.18,11.18,1026,47,3.69,184,100,0.0,Clouds,overcast clouds,9
Bánréve,48.299722,20.351944,2026-03-10 09:58:36.098766,11.32,9.76,11.32,11.32,1026,48,3.85,184,98,0.0,Clouds,overcast clouds,9
Ipolytarnóc,48.236667,19.629167,2026-03-10 09:58:37.333691,11.52,10.11,11.52,11.52,1026,53,1.89,146,100,0.0,Clouds,overcast clouds,9
Rákosliget,47.486111,19.257778,2026-03-10 09:58:38.566169,11.17,9.75,11.17,11.17,1025,54,3.76,156,100,0.0,Clouds,overcast clouds,9
Ikrény,47.657778,17.524167,2026-03-10 09:58:39.808445,12.72,11.48,12.72,12.72,1023,55,4.37,174,56,0.0,Clouds,broken clouds,9
Rábapatona,47.648889,17.461944,2026-03-10 09:58:41.044231,12.74,11.53,12.74,12.74,1023,56,4.72,176,54,0.0,Clouds,broken clouds,9
Enese,47.644167,17.425278,2026-03-10 09:58:42.276929,12.74,11.53,12.74,12.74,1023,56,5.16,177,54,0.0,Clouds,broken clouds,9
Kóny,47.632222,17.357222,2026-03-10 09:58:43.510904,12.73,11.52,12.73,12.73,1023,56,5.49,178,53,0.0,Clouds,broken clouds,9
Farád,47.595278,17.195833,2026-03-10 09:58:44.747504,12.81,11.63,12.81,12.81,1023,57,6.33,177,47,0.0,Clouds,scattered clouds,9
Rábatamási,47.592778,17.161389,2026-03-10 09:58:45.984986,12.81,11.63,12.81,12.81,1023,57,6.33,177,47,0.0,Clouds,scattered clouds,9
Szárföld,47.589167,17.123889,2026-03-10 09:58:47.225877,12.82,11.65,12.82,12.82,1023,57,6.36,177,45,0.0,Clouds,scattered clouds,9
Veszkény,47.586944,17.101389,2026-03-10 09:58:48.469450,12.84,11.67,12.84,12.84,1023,57,6.36,178,42,0.0,Clouds,scattered clouds,9
Kapuvár,47.581944,17.046944,2026-03-10 09:58:49.707597,12.85,11.68,12.85,12.85,1022,57,6.36,179,36,0.0,Clouds,scattered clouds,9
Vitnyéd-Csermajor,47.5825,16.987222,2026-03-10 09:58:50.943840,12.87,11.7,12.87,12.87,1022,57,6.38,179,30,0.0,Clouds,scattered clouds,9
Petőháza,47.595278,16.893056,2026-03-10 09:58:52.190913,12.91,11.77,12.91,12.91,1022,58,6.41,178,21,0.0,Clouds,few clouds,9
Fertőszentmiklós,47.6,16.858889,2026-03-10 09:58:53.427881,12.89,11.78,12.89,12.89,1022,59,6.4,178,19,0.0,Clouds,few clouds,9
Pinnye,47.600278,16.768611,2026-03-10 09:58:54.664192,12.78,11.65,12.78,12.78,1022,59,6.11,178,14,0.0,Clouds,few clouds,9
Fertőboz,47.625,16.691667,2026-03-10 09:58:55.897771,12.73,11.6,12.73,12.73,1022,59,5.82,176,17,0.0,Clouds,few clouds,9
Sopron,47.677778,16.587222,2026-03-10 09:58:57.131121,12.43,11.22,12.43,12.43,1021,57,5.23,172,21,0.0,Clouds,few clouds,9
Fertőszéplak-Fertőd,47.618889,16.850833,2026-03-10 09:58:58.378658,12.95,11.84,12.95,12.95,1022,59,6.37,176,18,0.0,Clouds,few clouds,9
Nyúl,47.587778,17.698056,2026-03-10 09:58:59.613172,12.74,11.48,12.74,12.74,1023,54,4.08,165,70,0.0,Clouds,broken clouds,9
Pannonhalma,47.547778,17.740833,2026-03-10 09:59:00.849710,12.54,11.23,12.54,12.54,1023,53,4.18,160,73,0.0,Clouds,broken clouds,9
Tarjánpuszta,47.504722,17.789167,2026-03-10 09:59:02.087501,12.4,11.11,12.4,12.4,1023,54,4.24,161,70,0.0,Clouds,broken clouds,9
Győrasszonyfa,47.4925,17.799167,2026-03-10 09:59:03.322053,12.4,11.11,12.4,12.4,1023,54,4.24,161,70,0.0,Clouds,broken clouds,9
Veszprémvarsány,47.443333,17.818333,2026-03-10 09:59:04.610408,12.24,10.93,12.24,12.24,1023,54,4.39,160,65,0.0,Clouds,broken clouds,9
Bakonyszentlászló,47.395556,17.8175,2026-03-10 09:59:05.849314,11.85,10.53,11.85,11.85,1024,55,4.39,161,61,0.0,Clouds,broken clouds,9
Porva-Csesznek,47.326944,17.841111,2026-03-10 09:59:07.084101,10.48,9.05,10.48,10.48,1024,56,4.37,161,57,0.0,Clouds,broken clouds,9
Zirc,47.266667,17.878056,2026-03-10 09:59:08.320572,10.47,9.09,10.47,10.47,1024,58,4.24,158,57,0.0,Clouds,broken clouds,9
Eplény,47.192778,17.921667,2026-03-10 09:59:09.555393,10.87,9.55,10.87,10.87,1024,59,3.71,155,65,0.0,Clouds,broken clouds,9
Marcaltő,47.4275,17.348889,2026-03-10 09:59:10.793679,12.78,11.55,12.78,12.78,1023,55,6.23,181,41,0.0,Clouds,scattered clouds,9
Szany-Rábaszentandrás,47.460833,17.315278,2026-03-10 09:59:12.030728,12.76,11.53,12.76,12.76,1023,55,6.15,181,44,0.0,Clouds,scattered clouds,9
Egyed-Rábacsanak,47.521944,17.316389,2026-03-10 09:59:13.264496,12.73,11.52,12.73,12.73,1023,56,6.01,181,48,0.0,Clouds,scattered clouds,9
Rábapordány,47.557222,17.315,2026-03-10 09:59:14.504964,12.76,11.55,12.76,12.76,1023,56,5.94,180,49,0.0,Clouds,scattered clouds,9
Albertfalva,47.440784,19.033965,2026-03-10 09:59:15.738193,11.8,10.45,11.8,11.8,1025,54,3.56,150,100,0.0,Clouds,overcast clouds,9
Budafok,47.425833,19.041389,2026-03-10 09:59:16.970900,11.61,10.24,11.61,11.61,1025,54,3.66,151,100,0.0,Clouds,overcast clouds,9
Tétényliget,47.384722,18.955278,2026-03-10 09:59:18.210567,11.81,10.48,11.81,11.81,1025,55,3.85,150,100,0.0,Clouds,overcast clouds,9
Érd alsó,47.379722,18.923056,2026-03-10 09:59:19.435930,11.48,10.12,11.48,11.48,1025,55,3.92,149,100,0.0,Clouds,overcast clouds,9
Tárnok,47.365556,18.873889,2026-03-10 09:59:20.675063,11.79,10.49,11.79,11.79,1025,56,4.12,148,100,0.0,Clouds,overcast clouds,9
Martonvásár,47.321389,18.781667,2026-03-10 09:59:21.910534,11.75,10.44,11.75,11.75,1025,56,4.22,149,100,0.0,Clouds,overcast clouds,9
Baracska,47.297222,18.753333,2026-03-10 09:59:23.147066,11.82,10.52,11.82,11.82,1025,56,4.2,150,100,0.0,Clouds,overcast clouds,9
Pettend,47.26,18.708889,2026-03-10 09:59:24.384369,11.71,10.4,11.71,11.71,1025,56,4.18,150,100,0.0,Clouds,overcast clouds,9
Kápolnásnyék,47.245556,18.692222,2026-03-10 09:59:25.616671,11.79,10.49,11.79,11.79,1025,56,4.13,151,99,0.0,Clouds,overcast clouds,9
Velence,47.226944,18.663889,2026-03-10 09:59:26.855521,11.87,10.6,11.87,11.87,1025,57,4.12,150,99,0.0,Clouds,overcast clouds,9
Velencefürdő,47.218611,18.648056,2026-03-10 09:59:28.085420,11.87,10.57,11.87,11.87,1025,56,4.08,151,99,0.0,Clouds,overcast clouds,9
Gárdony,47.205833,18.624722,2026-03-10 09:59:29.325379,11.92,10.66,11.92,11.92,1025,57,4.06,151,98,0.0,Clouds,overcast clouds,9
Agárd,47.197666,18.604907,2026-03-10 09:59:30.559980,11.92,10.66,11.92,11.92,1025,57,4.06,151,98,0.0,Clouds,overcast clouds,9
Dinnyés,47.179722,18.560833,2026-03-10 09:59:31.793825,11.94,10.68,11.94,11.94,1025,57,3.96,152,97,0.0,Clouds,overcast clouds,9
Székesfehérvár,47.183611,18.424722,2026-03-10 09:59:33.027032,12.02,10.77,12.02,12.02,1025,57,3.63,151,91,0.0,Clouds,overcast clouds,9
Szabadbattyán,47.105278,18.388333,2026-03-10 09:59:34.258302,12.06,10.84,12.06,12.06,1025,58,3.43,155,93,0.0,Clouds,overcast clouds,9
Kiscséripuszta,47.048056,18.355,2026-03-10 09:59:35.494536,11.95,10.72,11.95,11.95,1024,58,3.32,157,95,0.0,Clouds,overcast clouds,9
Lepsény,46.9875,18.248056,2026-03-10 09:59:36.730916,12.34,11.17,12.34,12.34,1024,59,3.09,159,97,0.0,Clouds,overcast clouds,9
Balatonaliga,46.984444,18.171389,2026-03-10 09:59:37.968827,12.21,11.03,12.21,12.21,1024,59,2.76,160,95,0.0,Clouds,overcast clouds,9
Balatonvilágos,46.964167,18.157222,2026-03-10 09:59:39.206492,12.65,11.54,12.65,12.65,1024,60,2.65,161,95,0.0,Clouds,overcast clouds,9
Szabadifürdő,46.926111,18.103333,2026-03-10 09:59:40.451097,12.83,11.76,12.83,12.83,1024,61,2.59,164,97,0.0,Clouds,overcast clouds,9
Ózd alsó,48.227778,20.306111,2026-03-10 09:59:41.692018,11.17,9.6,11.17,11.17,1026,48,4.2,180,99,0.0,Clouds,overcast clouds,9
Ózd,48.2225,20.294722,2026-03-10 09:59:42.930695,11.17,9.6,11.17,11.17,1026,48,4.2,180,99,0.0,Clouds,overcast clouds,9
Alsóboldva,48.212778,20.792222,2026-03-10 09:59:44.168650,10.85,9.27,10.85,10.85,1026,49,3.71,159,52,0.0,Clouds,broken clouds,9
Boldva,48.223333,20.790278,2026-03-10 09:59:45.407671,10.85,9.27,10.85,10.85,1026,49,3.71,159,52,0.0,Clouds,broken clouds,9
Borsodszirák,48.259167,20.770556,2026-03-10 09:59:46.642304,10.97,9.38,10.97,10.97,1026,48,3.8,162,65,0.0,Clouds,broken clouds,9
Edelény alsó,48.279167,20.760833,2026-03-10 09:59:47.881846,10.97,9.38,10.97,10.97,1026,48,3.8,162,65,0.0,Clouds,broken clouds,9
Edelény,48.299722,20.749444,2026-03-10 09:59:49.116982,10.99,9.4,10.99,10.99,1026,48,3.79,164,68,0.0,Clouds,broken clouds,9
Szendrőlád,48.334444,20.731944,2026-03-10 09:59:50.348424,10.05,8.36,10.05,10.05,1026,48,3.75,169,78,0.0,Clouds,broken clouds,9
Szendrő,48.400725,20.721346,2026-03-10 09:59:51.579075,11.08,9.5,11.08,11.08,1026,48,3.73,176,82,0.0,Clouds,broken clouds,9
Szendrő felső,48.409907,20.720148,2026-03-10 09:59:52.812104,11.08,9.5,11.08,11.08,1026,48,3.73,176,82,0.0,Clouds,broken clouds,9
Szalonna,48.449444,20.722222,2026-03-10 09:59:54.069020,11.22,9.68,11.22,11.22,1026,49,3.74,183,86,0.0,Clouds,overcast clouds,9
Perkupa,48.471389,20.691111,2026-03-10 09:59:55.306046,10.57,8.96,10.57,10.57,1026,49,3.55,187,89,0.0,Clouds,overcast clouds,9
Szemeretelep,47.443056,19.214167,2026-03-10 09:59:56.539536,11.41,9.99,11.41,11.41,1025,53,3.71,156,100,0.0,Clouds,overcast clouds,9
Jósvafő-Aggtelek,48.489722,20.693889,2026-03-10 09:59:57.779693,10.93,9.36,10.93,10.93,1026,49,3.55,190,90,0.0,Clouds,overcast clouds,9
Bódvaszilas,48.5375,20.738056,2026-03-10 09:59:59.027947,10.56,8.98,10.56,10.56,1026,50,3.79,191,93,0.0,Clouds,overcast clouds,9
Komjáti,48.5475,20.759722,2026-03-10 10:00:00.265087,10.14,8.52,10.14,10.14,1026,50,3.91,193,95,0.0,Clouds,overcast clouds,9
Tornanádaska,48.558333,20.787222,2026-03-10 10:00:01.504567,11.29,9.81,11.29,11.29,1026,51,3.98,194,95,0.0,Clouds,overcast clouds,9
Onga,48.121111,20.906667,2026-03-10 10:00:02.738757,10.84,9.29,10.84,10.84,1026,50,3.07,157,29,0.0,Clouds,scattered clouds,9
Szikszó-Vásártér,48.193056,20.934722,2026-03-10 10:00:03.969815,10.88,9.33,10.88,10.88,1026,50,3.23,162,35,0.0,Clouds,scattered clouds,9
Szikszó,48.201667,20.941667,2026-03-10 10:00:05.214211,10.96,9.42,10.96,10.96,1026,50,3.11,163,33,0.0,Clouds,scattered clouds,9
Aszaló,48.219867,20.961466,2026-03-10 10:00:06.450350,10.85,9.3,10.85,10.85,1026,50,3.16,166,36,0.0,Clouds,scattered clouds,9
Halmaj,48.246667,20.991667,2026-03-10 10:00:07.683235,11.05,9.52,11.05,11.05,1026,50,3.11,170,37,0.0,Clouds,scattered clouds,9
Csobád,48.277222,21.033889,2026-03-10 10:00:08.931291,11.12,9.59,11.12,11.12,1026,50,3.06,174,38,0.0,Clouds,scattered clouds,9
Ináncs,48.291111,21.057778,2026-03-10 10:00:10.168590,11.13,9.63,11.13,11.13,1026,51,2.95,179,37,0.0,Clouds,scattered clouds,9
Forró-Encs,48.3275,21.117778,2026-03-10 10:00:11.408943,11.13,9.63,11.13,11.13,1026,51,2.92,183,37,0.0,Clouds,scattered clouds,9
Méra,48.363056,21.140278,2026-03-10 10:00:12.649629,11.0,9.51,11.0,11.0,1026,52,3.02,190,38,0.0,Clouds,scattered clouds,9
Novajidrány,48.404444,21.170556,2026-03-10 10:00:13.885859,11.26,9.8,11.26,11.26,1026,52,3.02,193,37,0.0,Clouds,scattered clouds,9
Hernádszurdok,48.487222,21.213889,2026-03-10 10:00:15.123796,11.26,9.83,11.26,11.26,1026,53,3.17,200,36,0.0,Clouds,scattered clouds,9
Hidasnémeti,48.508333,21.229722,2026-03-10 10:00:16.365686,11.13,9.68,11.13,11.13,1026,53,3.33,201,37,0.0,Clouds,scattered clouds,9
Mád,48.19,21.268889,2026-03-10 10:00:17.597523,10.96,9.39,10.96,10.96,1026,49,2.26,154,26,0.0,Clouds,scattered clouds,9
Rátka,48.215,21.230278,2026-03-10 10:00:18.849011,11.28,9.77,11.28,11.28,1026,50,2.34,160,27,0.0,Clouds,scattered clouds,9
Tállya,48.226944,21.225278,2026-03-10 10:00:20.079857,11.28,9.77,11.28,11.28,1026,50,2.34,160,27,0.0,Clouds,scattered clouds,9
Golop,48.242778,21.204167,2026-03-10 10:00:21.325841,11.28,9.77,11.28,11.28,1026,50,2.53,168,29,0.0,Clouds,scattered clouds,9
Abaújszántó,48.286944,21.181667,2026-03-10 10:00:22.565973,11.02,9.51,11.02,11.02,1026,51,2.63,177,32,0.0,Clouds,scattered clouds,9
Abaújszántói fürdő,48.268333,21.179722,2026-03-10 10:00:23.804954,11.27,9.78,11.27,11.27,1026,51,2.57,172,30,0.0,Clouds,scattered clouds,9
Abaújkér,48.309444,21.198333,2026-03-10 10:00:25.043040,11.05,9.54,11.05,11.05,1026,51,2.71,181,33,0.0,Clouds,scattered clouds,9
Boldogkőváralja,48.345,21.208889,2026-03-10 10:00:26.274661,11.07,9.59,11.07,11.07,1026,52,2.56,182,32,0.0,Clouds,scattered clouds,9
Korlát-Vizsoly,48.365,21.219167,2026-03-10 10:00:27.507317,11.2,9.73,11.2,11.2,1026,52,2.65,186,32,0.0,Clouds,scattered clouds,9
Fony,48.411389,21.242778,2026-03-10 10:00:28.749324,11.29,9.86,11.29,11.29,1026,53,2.89,194,34,0.0,Clouds,scattered clouds,9
Hejce-Vilmány,48.419444,21.245556,2026-03-10 10:00:29.981225,11.29,9.86,11.29,11.29,1026,53,2.89,194,34,0.0,Clouds,scattered clouds,9
Göncruszka,48.445,21.246944,2026-03-10 10:00:31.216571,11.28,9.85,11.28,11.28,1026,53,3.02,197,35,0.0,Clouds,scattered clouds,9
Gönc,48.470556,21.261389,2026-03-10 10:00:32.459723,11.27,9.84,11.27,11.27,1026,53,3.0,198,34,0.0,Clouds,scattered clouds,9
Zsujta,48.4925,21.265,2026-03-10 10:00:33.702222,11.26,9.83,11.26,11.26,1026,53,3.16,200,35,0.0,Clouds,scattered clouds,9
Bodrogkeresztúr,48.175556,21.354167,2026-03-10 10:00:34.943220,10.69,9.07,10.69,10.69,1027,48,2.15,148,24,0.0,Clouds,few clouds,9
Szegi,48.201944,21.387778,2026-03-10 10:00:36.183015,11.23,9.69,11.23,11.23,1027,49,2.1,150,24,0.0,Clouds,few clouds,9
Erdőbénye,48.218056,21.401944,2026-03-10 10:00:37.429863,11.63,10.18,11.63,11.63,1027,51,2.09,151,25,0.0,Clouds,scattered clouds,9
Olaszliszka-Tolcsva,48.258333,21.448056,2026-03-10 10:00:38.661629,11.63,10.26,11.63,11.63,1026,54,2.06,154,28,0.0,Clouds,scattered clouds,9
Bodrogolaszi,48.286944,21.512778,2026-03-10 10:00:39.897559,10.34,8.89,10.34,10.34,1026,56,2.04,154,30,0.0,Clouds,scattered clouds,9
Sárospatak,48.325833,21.566111,2026-03-10 10:00:41.141717,11.69,10.48,11.69,11.69,1026,60,2.04,153,33,0.0,Clouds,scattered clouds,9
Sátoraljaújhely,48.385833,21.657778,2026-03-10 10:00:42.379378,11.13,10.13,11.13,11.13,1026,70,2.19,156,38,0.0,Clouds,scattered clouds,9
Vecsés,47.40855,19.25652,2026-03-10 10:00:43.613102,11.41,9.99,11.41,11.41,1025,53,3.99,159,100,0.0,Clouds,overcast clouds,9
Vecsés-Kertekalja,47.403333,19.271389,2026-03-10 10:00:44.844765,11.41,9.99,11.41,11.41,1025,53,3.99,159,100,0.0,Clouds,overcast clouds,9
Üllő,47.390833,19.348889,2026-03-10 10:00:46.075596,11.51,10.1,11.51,11.51,1025,53,4.3,161,100,0.0,Clouds,overcast clouds,9
Monor,47.34545,19.43701,2026-03-10 10:00:47.306238,11.49,10.05,11.49,11.49,1025,52,4.88,165,98,0.0,Clouds,overcast clouds,9
Pilis,47.279722,19.536389,2026-03-10 10:00:48.546367,11.49,10.03,11.49,11.49,1026,51,5.2,166,93,0.0,Clouds,overcast clouds,9
Albertirsa,47.240278,19.606389,2026-03-10 10:00:49.788718,11.63,10.15,11.63,11.63,1026,50,5.52,168,82,0.0,Clouds,broken clouds,9
Ceglédbercel-Cserő,47.210278,19.686944,2026-03-10 10:00:51.032086,11.78,10.29,11.78,11.78,1026,49,5.71,169,74,0.0,Clouds,broken clouds,9
Cegléd,47.182778,19.806111,2026-03-10 10:00:52.268651,11.95,10.43,11.95,11.95,1026,47,5.97,170,68,0.0,Clouds,broken clouds,9
Abony,47.173056,20.016389,2026-03-10 10:00:53.503757,12.12,10.59,12.12,12.12,1026,46,6.24,170,64,0.0,Clouds,broken clouds,9
Szolnok,47.179167,20.175833,2026-03-10 10:00:54.735439,12.23,10.68,12.23,12.23,1026,45,6.29,170,52,0.0,Clouds,broken clouds,9
Szajol,47.170556,20.295278,2026-03-10 10:00:55.974022,12.3,10.76,12.3,12.3,1026,45,6.35,171,38,0.0,Clouds,scattered clouds,9
Törökszentmiklós,47.170278,20.413611,2026-03-10 10:00:57.213746,12.41,10.86,12.41,12.41,1026,44,6.34,172,26,0.0,Clouds,scattered clouds,9
Rákoscsaba-Újtelep,47.4875,19.271944,2026-03-10 10:00:58.448430,11.17,9.75,11.17,11.17,1025,54,3.76,156,100,0.0,Clouds,overcast clouds,9
Rákoscsaba,47.492222,19.284722,2026-03-10 10:00:59.683870,11.25,9.84,11.25,11.25,1025,54,3.88,157,100,0.0,Clouds,overcast clouds,9
Pécel,47.493889,19.338889,2026-03-10 10:01:00.913089,11.14,9.72,11.14,11.14,1025,54,3.99,157,100,0.0,Clouds,overcast clouds,9
Isaszeg,47.537719,19.388955,2026-03-10 10:01:02.167214,11.01,9.6,11.01,11.01,1026,55,4.1,156,100,0.0,Clouds,overcast clouds,9
Gödöllő,47.592222,19.358611,2026-03-10 10:01:03.398622,10.9,9.48,10.9,10.9,1026,55,4.19,154,100,0.0,Clouds,overcast clouds,9
Máriabesnyő,47.595556,19.389722,2026-03-10 10:01:04.629384,10.9,9.48,10.9,10.9,1026,55,4.19,154,100,0.0,Clouds,overcast clouds,9
Bag,47.641111,19.471667,2026-03-10 10:01:05.874332,11.53,10.17,11.53,11.53,1026,55,4.59,153,100,0.0,Clouds,overcast clouds,9
Aszód,47.647467,19.492882,2026-03-10 10:01:07.103688,11.41,10.04,11.41,11.41,1026,55,4.64,154,100,0.0,Clouds,overcast clouds,9
Hévízgyörk,47.638611,19.526667,2026-03-10 10:01:08.339805,11.4,10.03,11.4,11.4,1026,55,4.68,154,100,0.0,Clouds,overcast clouds,9
Galgahévíz,47.6325,19.558333,2026-03-10 10:01:09.572714,11.61,10.24,11.61,11.61,1026,54,4.69,156,100,0.0,Clouds,overcast clouds,9
Tura,47.626389,19.5975,2026-03-10 10:01:10.814961,11.54,10.16,11.54,11.54,1026,54,4.7,157,100,0.0,Clouds,overcast clouds,9
Hatvan,47.663611,19.671389,2026-03-10 10:01:12.050818,11.64,10.24,11.64,11.64,1026,53,4.67,156,100,0.0,Clouds,overcast clouds,9
Vámosgyörk,47.686111,19.927778,2026-03-10 10:01:13.285770,11.64,10.17,11.64,11.64,1026,50,4.56,167,87,0.0,Clouds,overcast clouds,9
Adács,47.696389,19.975278,2026-03-10 10:01:14.524798,11.67,10.17,11.67,11.67,1026,49,4.58,170,84,0.0,Clouds,broken clouds,9
Karácsond,47.718056,20.048611,2026-03-10 10:01:15.755543,11.55,10.04,11.55,11.55,1026,49,4.6,171,85,0.0,Clouds,overcast clouds,9
Ludas,47.723889,20.095556,2026-03-10 10:01:16.988701,11.72,10.2,11.72,11.72,1026,48,4.92,173,68,0.0,Clouds,broken clouds,9
Nagyút,47.72666666666667,20.161388888888887,2026-03-10 10:01:18.234077,11.67,10.12,11.67,11.67,1026,47,5.03,174,62,0.0,Clouds,broken clouds,9
Kál-Kápolna,47.734167,20.254167,2026-03-10 10:01:19.472199,11.61,10.03,11.61,11.61,1026,46,5.26,174,46,0.0,Clouds,scattered clouds,9
Füzesabony,47.751389,20.415278,2026-03-10 10:01:20.707770,11.49,9.87,11.49,11.49,1026,45,4.83,174,48,0.0,Clouds,scattered clouds,9
Szihalom,47.766944,20.491944,2026-03-10 10:01:21.947518,11.32,9.68,11.32,11.32,1026,45,4.5,174,49,0.0,Clouds,scattered clouds,9
Mezőkövesd,47.797222,20.5675,2026-03-10 10:01:23.180276,11.27,9.65,11.27,11.27,1026,46,4.05,174,44,0.0,Clouds,scattered clouds,9
Mezőkövesd felső,47.807222,20.591389,2026-03-10 10:01:24.424823,11.27,9.65,11.27,11.27,1026,46,4.05,174,44,0.0,Clouds,scattered clouds,9
Mezőkeresztes-Mezőnyárád,47.845556,20.670278,2026-03-10 10:01:25.669789,11.08,9.47,11.08,11.08,1026,47,3.64,173,32,0.0,Clouds,scattered clouds,9
Csincse,47.890833,20.764167,2026-03-10 10:01:26.909603,11.06,9.47,11.06,11.06,1026,48,3.34,171,29,0.0,Clouds,scattered clouds,9
Emőd,47.930556,20.822778,2026-03-10 10:01:28.147929,10.71,9.12,10.71,10.71,1026,49,3.22,167,28,0.0,Clouds,scattered clouds,9
Nyékládháza,47.9925,20.840556,2026-03-10 10:01:29.386289,10.87,9.29,10.87,10.87,1026,49,3.16,163,28,0.0,Clouds,scattered clouds,9
Miskolc-Tiszai,48.098611,20.811389,2026-03-10 10:01:30.630097,10.53,8.94,10.53,10.53,1026,50,3.46,159,34,0.0,Clouds,scattered clouds,9
Felsőzsolca,48.083611,20.866111,2026-03-10 10:01:31.865557,10.73,9.16,10.73,10.73,1026,50,3.25,158,31,0.0,Clouds,scattered clouds,9
Hernádnémeti-Bőcs,48.051389,20.985,2026-03-10 10:01:33.108727,10.94,9.4,10.94,10.94,1026,50,2.74,154,25,0.0,Clouds,scattered clouds,9
Tiszalúc,48.039722,21.0575,2026-03-10 10:01:34.348327,11.09,9.53,11.09,11.09,1026,49,2.46,149,23,0.0,Clouds,few clouds,9
Taktaharkány,48.091667,21.128611,2026-03-10 10:01:35.591479,11.18,9.66,11.18,11.18,1026,50,2.42,149,23,0.0,Clouds,few clouds,9
Taktaszada,48.1125,21.149444,2026-03-10 10:01:36.833356,11.21,9.67,11.21,11.21,1026,49,2.37,150,23,0.0,Clouds,few clouds,9
Szerencs,48.155556,21.214444,2026-03-10 10:01:38.073755,11.39,9.86,11.39,11.39,1026,49,2.28,152,24,0.0,Clouds,few clouds,9
Mezőzombor,48.156944,21.267778,2026-03-10 10:01:39.313883,11.36,9.83,11.36,11.36,1027,49,2.23,150,24,0.0,Clouds,few clouds,9
Tarcal,48.125,21.34,2026-03-10 10:01:40.551203,11.57,10.01,11.57,11.57,1027,47,2.1,144,21,0.0,Clouds,few clouds,9
Tokaj,48.112778,21.406667,2026-03-10 10:01:41.792228,11.14,9.54,11.14,11.14,1027,47,2.03,145,19,0.0,Clouds,few clouds,9
Rakamaz,48.12,21.475,2026-03-10 10:01:43.033416,11.71,10.19,11.71,11.71,1027,48,2.01,146,19,0.0,Clouds,few clouds,9
Görögszállás,48.04,21.555,2026-03-10 10:01:44.272406,11.87,10.37,11.87,11.87,1027,48,2.05,151,17,0.0,Clouds,few clouds,9
Nyírtelek,48.005,21.615556,2026-03-10 10:01:45.517526,12.0,10.51,12.0,12.0,1027,48,2.23,155,16,0.0,Clouds,few clouds,9
Rákoshegy,47.468611,19.245556,2026-03-10 10:01:46.757201,11.25,9.84,11.25,11.25,1025,54,3.82,157,100,0.0,Clouds,overcast clouds,9
Ecser,47.439444,19.318056,2026-03-10 10:01:47.996597,11.35,9.95,11.35,11.35,1025,54,4.0,159,100,0.0,Clouds,overcast clouds,9
Maglód,47.438889,19.340833,2026-03-10 10:01:49.241278,11.2,9.79,11.2,11.2,1025,54,4.1,159,100,0.0,Clouds,overcast clouds,9
Maglódi nyaraló,47.434167,19.363611,2026-03-10 10:01:50.480281,10.99,9.55,10.99,10.99,1025,54,4.21,160,100,0.0,Clouds,overcast clouds,9
Gyömrő,47.429722,19.393333,2026-03-10 10:01:51.718827,10.99,9.55,10.99,10.99,1025,54,4.21,160,100,0.0,Clouds,overcast clouds,9
Mende,47.426944,19.439722,2026-03-10 10:01:52.955837,11.01,9.55,11.01,11.01,1025,53,4.58,163,99,0.0,Clouds,overcast clouds,9
Szőlősnyaraló,47.450278,19.561111,2026-03-10 10:01:54.196671,11.46,10.05,11.46,11.46,1026,53,4.75,165,98,0.0,Clouds,overcast clouds,9
Sülysáp,47.451944,19.5275,2026-03-10 10:01:55.435940,11.32,9.89,11.32,11.32,1026,53,4.66,164,99,0.0,Clouds,overcast clouds,9
Tápiószecső,47.443056,19.614722,2026-03-10 10:01:56.666548,11.54,10.11,11.54,11.54,1026,52,4.79,166,97,0.0,Clouds,overcast clouds,9
Szentmártonkáta,47.431944,19.680556,2026-03-10 10:01:57.908981,11.56,10.1,11.56,11.56,1026,51,4.87,167,94,0.0,Clouds,overcast clouds,9
Nagykáta,47.409722,19.737778,2026-03-10 10:01:59.148261,11.64,10.19,11.64,11.64,1026,51,4.99,168,88,0.0,Clouds,overcast clouds,9
Farmos,47.355278,19.8375,2026-03-10 10:02:00.380789,11.84,10.33,11.84,11.84,1026,48,5.42,169,67,0.0,Clouds,broken clouds,9
Tápiószele,47.346313,19.873504,2026-03-10 10:02:01.618632,11.85,10.34,11.85,11.85,1026,48,5.6,170,62,0.0,Clouds,broken clouds,9
Tápiógyörgye,47.325,19.95,2026-03-10 10:02:02.865342,11.93,10.41,11.93,11.93,1026,47,5.8,170,50,0.0,Clouds,scattered clouds,9
Újszász,47.285833,20.066944,2026-03-10 10:02:04.101435,12.07,10.53,12.07,12.07,1026,46,6.09,170,47,0.0,Clouds,scattered clouds,9
Szurdokpüspöki,47.851944,19.690278,2026-03-10 10:02:05.333195,11.54,10.13,11.54,11.54,1026,53,4.02,153,99,0.0,Clouds,overcast clouds,9
Lőrinci,47.739444,19.673611,2026-03-10 10:02:06.564178,11.58,10.18,11.58,11.58,1026,53,4.61,154,100,0.0,Clouds,overcast clouds,9
Selyp,47.759167,19.670833,2026-03-10 10:02:07.805026,11.57,10.17,11.57,11.57,1026,53,4.55,153,100,0.0,Clouds,overcast clouds,9
Apc-Zagyvaszántó,47.791328,19.66822,2026-03-10 10:02:09.043854,11.59,10.19,11.59,11.59,1026,53,4.47,153,99,0.0,Clouds,overcast clouds,9
Pásztó,47.918889,19.688889,2026-03-10 10:02:10.278474,11.42,10.03,11.42,11.42,1026,54,3.64,153,100,0.0,Clouds,overcast clouds,9
Mátraszőlős-Hasznos,47.938506,19.706122,2026-03-10 10:02:11.516597,11.45,10.03,11.45,11.45,1026,53,3.34,154,100,0.0,Clouds,overcast clouds,9
Tar,47.956111,19.746389,2026-03-10 10:02:12.764717,11.06,9.61,11.06,11.06,1026,53,3.06,158,100,0.0,Clouds,overcast clouds,9
Mátraverebély,47.968333,19.778611,2026-03-10 10:02:13.998585,11.06,9.61,11.06,11.06,1026,53,3.06,158,100,0.0,Clouds,overcast clouds,9
Nagybátony,47.981111,19.82,2026-03-10 10:02:15.231913,11.26,9.83,11.26,11.26,1026,53,2.94,161,100,0.0,Clouds,overcast clouds,9
Kisterenye,48.009444,19.831944,2026-03-10 10:02:16.471087,11.38,9.93,11.38,11.38,1026,52,2.91,163,100,0.0,Clouds,overcast clouds,9
Kisterenye-Bányatelep,48.021389,19.831944,2026-03-10 10:02:17.702086,11.38,9.93,11.38,11.38,1026,52,2.91,163,100,0.0,Clouds,overcast clouds,9
Salgótarján külső,48.089444,19.790833,2026-03-10 10:02:18.942272,10.88,9.41,10.88,10.88,1026,53,2.52,163,99,0.0,Clouds,overcast clouds,9
Balatonfenyves GV,46.7125,17.479167,2026-03-10 10:02:20.179219,12.96,11.88,12.96,12.96,1024,60,3.6,177,98,0.0,Clouds,overcast clouds,9
Várhegyalja,47.737778,18.366667,2026-03-10 10:02:21.415351,12.0,10.74,12.0,12.0,1024,57,5.07,141,100,0.0,Clouds,overcast clouds,9
Imremajor,46.680556,17.499722,2026-03-10 10:02:22.657514,13.02,11.94,13.02,13.02,1024,60,3.6,179,99,0.0,Clouds,overcast clouds,9
Rákospalota-Kertváros,47.578333,19.122778,2026-03-10 10:02:23.897952,11.63,10.28,11.63,11.63,1025,55,3.29,149,100,0.0,Clouds,overcast clouds,9
Vicziántelep,47.675833,19.286111,2026-03-10 10:02:25.129464,11.09,9.72,11.09,11.09,1026,56,4.21,150,100,0.0,Clouds,overcast clouds,9
Pálmajor,46.662831,17.457526,2026-03-10 10:02:26.364076,13.08,11.98,13.08,13.08,1024,59,3.68,182,100,0.0,Clouds,overcast clouds,9
Somogyszentpál felső,46.649758,17.471404,2026-03-10 10:02:27.597260,13.03,11.96,13.03,13.03,1024,60,3.62,181,100,0.0,Clouds,overcast clouds,9
Somogyszentpál,46.638611,17.478611,2026-03-10 10:02:28.851675,13.0,11.9,13.0,13.0,1024,59,3.66,183,100,0.0,Clouds,overcast clouds,9
Rudnaykert,47.7175,19.257778,2026-03-10 10:02:30.093636,11.2,9.84,11.2,11.2,1026,56,4.31,149,100,0.0,Clouds,overcast clouds,9
Maroshegy,47.158333,18.406667,2026-03-10 10:02:31.344953,12.02,10.77,12.02,12.02,1025,57,3.58,152,92,0.0,Clouds,overcast clouds,9
Bánhida,47.573703,18.371737,2026-03-10 10:02:32.576648,11.69,10.4,11.69,11.69,1024,57,5.45,142,98,0.0,Clouds,overcast clouds,9
Magyarkút,47.850278,19.045,2026-03-10 10:02:33.823839,10.99,9.66,10.99,10.99,1025,58,3.6,139,100,0.0,Clouds,overcast clouds,9
Becske alsó,47.897222,19.364722,2026-03-10 10:02:35.065111,10.6,9.2,10.6,10.6,1026,57,4.92,151,100,0.0,Clouds,overcast clouds,9
Hosszúberek-Péteri,47.370556,19.389722,2026-03-10 10:02:36.305616,11.51,10.1,11.51,11.51,1025,53,4.51,163,100,0.0,Clouds,overcast clouds,9
Monorierdő,47.308889,19.499167,2026-03-10 10:02:37.536499,11.47,10.03,11.47,11.47,1025,52,5.04,166,96,0.0,Clouds,overcast clouds,9
Ceglédbercel,47.215833,19.658611,2026-03-10 10:02:38.770414,11.7,10.21,11.7,11.7,1026,49,5.66,169,77,0.0,Clouds,broken clouds,9
Budai út,47.208333,19.731389,2026-03-10 10:02:40.006738,11.71,10.19,11.71,11.71,1026,48,5.77,169,72,0.0,Clouds,broken clouds,9
Büdöskútpuszta,48.373056,20.726111,2026-03-10 10:02:41.244558,11.16,9.58,11.16,11.16,1026,48,3.74,173,80,0.0,Clouds,broken clouds,9
Bánrévei Vízmű,48.282778,20.368333,2026-03-10 10:02:42.481034,11.25,9.66,11.25,11.25,1026,47,3.8,184,99,0.0,Clouds,overcast clouds,9
Rákoskert,47.456389,19.296111,2026-03-10 10:02:43.718723,11.17,9.75,11.17,11.17,1025,54,3.93,158,100,0.0,Clouds,overcast clouds,9
Szirmabesenyő,48.146944,20.783056,2026-03-10 10:02:44.956967,10.0,8.17,10.0,10.0,1026,50,3.65,158,43,0.0,Clouds,scattered clouds,9
Kitérőgyár,47.766944,19.935278,2026-03-10 10:02:46.193688,11.41,9.91,11.41,11.41,1026,50,4.23,166,100,0.0,Clouds,overcast clouds,9
Tápiószentmárton,47.373333,19.797778,2026-03-10 10:02:47.443927,11.72,10.23,11.72,11.72,1026,49,5.37,169,71,0.0,Clouds,broken clouds,9
Zagyvarékas,47.244229,20.097435,2026-03-10 10:02:48.686041,12.14,10.61,12.14,12.14,1026,46,6.18,170,51,0.0,Clouds,broken clouds,9
Abonyi út,47.206401,20.125204,2026-03-10 10:02:49.924947,12.17,10.62,12.17,12.17,1026,45,6.23,170,55,0.0,Clouds,broken clouds,9
Jászkisér felső,47.438056,20.202222,2026-03-10 10:02:51.164359,11.97,10.42,11.97,11.97,1026,46,5.95,172,30,0.0,Clouds,scattered clouds,9
Szellőhát,47.425556,20.188889,2026-03-10 10:02:52.396594,11.99,10.42,11.99,11.99,1026,45,5.99,172,31,0.0,Clouds,scattered clouds,9
Szilvásvárad-Szalajkavölgy,48.0956,20.38272,2026-03-10 10:02:53.632648,9.8,7.48,9.8,9.8,1026,49,4.64,174,82,0.0,Clouds,broken clouds,9
Vásárosnamény külső,48.084444,22.255556,2026-03-10 10:02:54.878321,12.51,10.97,12.51,12.51,1027,44,3.22,139,17,0.0,Clouds,few clouds,9
Újváros,46.660556,20.536111,2026-03-10 10:02:56.110861,13.31,11.77,13.31,13.31,1026,41,6.59,171,13,0.0,Clouds,few clouds,9
Városi park,46.697778,19.864722,2026-03-10 10:02:57.344988,12.51,11.02,12.51,12.51,1026,46,6.77,172,69,0.0,Clouds,broken clouds,9
Belsőkamaráspuszta,46.341944,20.848889,2026-03-10 10:02:58.592582,14.0,12.42,14.0,14.0,1027,37,6.22,171,24,0.0,Clouds,few clouds,9
Sajószöged,47.945278,20.981667,2026-03-10 10:02:59.832786,11.22,9.65,11.22,11.22,1026,48,2.68,156,27,0.0,Clouds,scattered clouds,9
Kazincbarcika alsó,48.255278,20.649167,2026-03-10 10:03:01.071689,10.76,9.14,10.76,10.76,1026,48,3.75,165,78,0.0,Clouds,broken clouds,9
Nyárjas,46.857778,19.923611,2026-03-10 10:03:02.311878,12.28,10.74,12.28,12.28,1026,45,6.66,173,73,0.0,Clouds,broken clouds,9
Pogonyipuszta,48.296389,20.381667,2026-03-10 10:03:03.544158,11.25,9.66,11.25,11.25,1026,47,3.8,184,99,0.0,Clouds,overcast clouds,9
Sióvölgy,46.911103,18.076964,2026-03-10 10:03:04.813267,13.01,11.96,13.01,13.01,1024,61,2.48,164,96,0.0,Clouds,overcast clouds,9
Répáspuszta,46.430278,17.847222,2026-03-10 10:03:06.054563,12.52,11.39,12.52,12.52,1024,60,3.59,185,97,0.0,Clouds,overcast clouds,9
Virányos,48.066667,21.527222,2026-03-10 10:03:07.285630,11.84,10.36,11.84,11.84,1027,49,2.03,150,17,0.0,Clouds,few clouds,9
Füzesbokor,47.988611,21.6475,2026-03-10 10:03:08.535698,12.11,10.6,12.11,12.11,1027,47,2.34,156,16,0.0,Clouds,few clouds,9
Kunfehértó,46.355833,19.417222,2026-03-10 10:03:09.770493,12.34,10.91,12.34,12.34,1025,49,5.86,168,83,0.0,Clouds,broken clouds,9
Erdőszél,46.329444,19.395,2026-03-10 10:03:11.003275,12.22,10.8,12.22,12.22,1025,50,5.58,168,86,0.0,Clouds,overcast clouds,9
Jánoshalma,46.293056,19.330278,2026-03-10 10:03:12.242423,12.39,11.02,12.39,12.39,1025,51,5.39,167,86,0.0,Clouds,overcast clouds,9
Mélykút,46.213056,19.370556,2026-03-10 10:03:13.478184,12.55,11.17,12.55,12.55,1025,50,5.38,166,81,0.0,Clouds,broken clouds,9
Bácsalmás,46.118056,19.346389,2026-03-10 10:03:14.716458,12.69,11.35,12.69,12.69,1025,51,5.03,165,85,0.0,Clouds,overcast clouds,9
Almás,46.116216,19.328803,2026-03-10 10:03:15.954893,12.69,11.35,12.69,12.69,1025,51,5.03,165,85,0.0,Clouds,overcast clouds,9
Bácsbokod-Bácsborsód,46.115833,19.16,2026-03-10 10:03:17.191178,12.61,11.31,12.61,12.61,1025,53,4.43,167,96,0.0,Clouds,overcast clouds,9
Baja,46.187014,18.957602,2026-03-10 10:03:18.432555,12.62,11.37,12.62,12.62,1025,55,4.15,169,96,0.0,Clouds,overcast clouds,9
Harkakötöny,46.458333,19.601944,2026-03-10 10:03:19.676667,12.46,10.99,12.46,12.46,1025,47,6.53,170,76,0.0,Clouds,broken clouds,9
Tajó,46.473056,19.650556,2026-03-10 10:03:20.909689,12.51,11.04,12.51,12.51,1026,47,6.63,169,72,0.0,Clouds,broken clouds,9
Kiskunmajsa,46.501667,19.728056,2026-03-10 10:03:22.146214,12.58,11.09,12.58,12.58,1026,46,6.79,170,65,0.0,Clouds,broken clouds,9
Jászszentlászló,46.565833,19.753611,2026-03-10 10:03:23.392446,12.55,11.06,12.55,12.55,1026,46,6.81,171,65,0.0,Clouds,broken clouds,9
Galambos,46.625,19.801111,2026-03-10 10:03:24.640617,12.51,11.02,12.51,12.51,1026,46,6.78,171,67,0.0,Clouds,broken clouds,9
Pestszentimre,47.402222,19.188611,2026-03-10 10:03:25.873112,11.64,10.24,11.64,11.64,1025,53,3.88,157,100,0.0,Clouds,overcast clouds,9
Gyál felső,47.390278,19.204722,2026-03-10 10:03:27.113118,11.55,10.14,11.55,11.55,1025,53,3.95,158,100,0.0,Clouds,overcast clouds,9
Gyál,47.376667,19.219444,2026-03-10 10:03:28.350938,11.55,10.14,11.55,11.55,1025,53,3.95,158,100,0.0,Clouds,overcast clouds,9
Ócsa,47.301389,19.232222,2026-03-10 10:03:29.580543,12.03,10.72,12.03,12.03,1025,55,4.37,160,100,0.0,Clouds,overcast clouds,9
Inárcs-Kakucs,47.247222,19.317778,2026-03-10 10:03:30.819988,12.06,10.73,12.06,12.06,1025,54,4.79,163,99,0.0,Clouds,overcast clouds,9
Dabas,47.194722,19.328889,2026-03-10 10:03:32.054228,12.02,10.69,12.02,12.02,1025,54,5.0,165,97,0.0,Clouds,overcast clouds,9
Gyón,47.178333,19.355556,2026-03-10 10:03:33.293937,12.05,10.72,12.05,12.05,1025,54,5.04,165,95,0.0,Clouds,overcast clouds,9
Hernád,47.161389,19.4025,2026-03-10 10:03:34.529846,11.98,10.62,11.98,11.98,1025,53,5.31,167,90,0.0,Clouds,overcast clouds,9
Bakonygyirót,47.416389,17.811944,2026-03-10 10:03:35.767581,12.32,11.04,12.32,12.32,1024,55,4.22,163,62,0.0,Clouds,broken clouds,9
Vinye,47.360317,17.819635,2026-03-10 10:03:36.998734,11.81,10.51,11.81,11.81,1024,56,4.38,161,59,0.0,Clouds,broken clouds,9
Nemesgörzsöny,47.402924,17.376385,2026-03-10 10:03:38.237098,12.81,11.58,12.81,12.81,1023,55,6.17,181,43,0.0,Clouds,scattered clouds,9
Rábahíd,47.438618,17.337525,2026-03-10 10:03:39.478455,12.82,11.59,12.82,12.82,1023,55,6.2,181,43,0.0,Clouds,scattered clouds,9
Öskü,47.162222,18.076389,2026-03-10 10:03:40.718826,12.03,10.86,12.03,12.03,1024,60,3.39,155,74,0.0,Clouds,broken clouds,9
Márkó,47.1275,17.813889,2026-03-10 10:03:41.959817,11.34,10.07,11.34,11.34,1024,59,3.5,154,68,0.0,Clouds,broken clouds,9
Nemeskocs,47.203333,17.188889,2026-03-10 10:03:43.199675,12.84,11.64,12.84,12.84,1023,56,6.26,174,28,0.0,Clouds,scattered clouds,9
Zalagyömörő,47.011111,17.220833,2026-03-10 10:03:44.441496,12.82,11.67,12.82,12.82,1023,58,5.87,166,46,0.0,Clouds,scattered clouds,9
Rigács,47.061667,17.199167,2026-03-10 10:03:45.685172,12.76,11.61,12.76,12.76,1023,58,5.96,167,42,0.0,Clouds,scattered clouds,9
Kemenespálfa,47.139722,17.183056,2026-03-10 10:03:46.933961,12.83,11.66,12.83,12.83,1023,57,6.13,171,32,0.0,Clouds,scattered clouds,9
Lentiszombathely,46.611389,16.5725,2026-03-10 10:03:48.183682,13.37,12.3,13.37,13.37,1023,59,3.99,200,74,0.0,Clouds,broken clouds,9
Ortaháza,46.626667,16.685833,2026-03-10 10:03:49.425775,13.12,12.03,13.12,13.12,1023,59,3.27,194,80,0.0,Clouds,broken clouds,9
Rádiháza,46.654722,16.765833,2026-03-10 10:03:50.674109,13.03,11.93,13.03,13.03,1023,59,3.26,191,83,0.0,Clouds,broken clouds,9
Baktüttös,46.690833,16.826389,2026-03-10 10:03:51.916014,13.06,11.99,13.06,13.06,1023,60,3.71,187,86,0.0,Clouds,overcast clouds,9
Budafa,46.851667,16.624722,2026-03-10 10:03:53.157007,13.04,11.94,13.04,13.04,1023,59,4.34,199,50,0.0,Clouds,scattered clouds,9
Zalapatakalja,46.845556,16.603889,2026-03-10 10:03:54.396942,13.05,11.95,13.05,13.05,1023,59,4.49,200,49,0.0,Clouds,scattered clouds,9
Tormásliget,47.430556,16.781667,2026-03-10 10:03:55.643900,12.72,11.56,12.72,12.72,1022,58,6.13,186,7,0.0,Clear,clear sky,9
Belecska,46.64,18.411389,2026-03-10 10:03:56.883716,12.4,11.26,12.4,12.4,1025,60,3.03,159,100,0.0,Clouds,overcast clouds,9
Almár,47.956111,20.356944,2026-03-10 10:03:58.125640,10.91,9.41,10.91,10.91,1026,52,5.04,171,73,0.0,Clouds,broken clouds,9
Vasútmúzeum,47.543889,19.099444,2026-03-10 10:03:59.357903,12.04,10.81,12.04,12.04,1024,58,3.29,150,100,0.0,Clouds,overcast clouds,9
Abda,47.690833,17.540556,2026-03-10 10:04:00.602543,12.79,11.59,12.79,12.79,1023,56,4.23,168,57,0.0,Clouds,broken clouds,9
Vadaspark,47.526111,18.949167,2026-03-10 10:04:01.839794,10.48,9.1,10.48,10.48,1024,58,3.49,145,100,0.0,Clouds,overcast clouds,9
Barosstelep,47.398889,18.989167,2026-03-10 10:04:03.070580,12.18,10.92,12.18,12.18,1024,56,3.8,151,100,0.0,Clouds,overcast clouds,9
Fegyvernek-Örményes,47.194444,20.5575,2026-03-10 10:04:04.304215,12.75,11.26,12.75,12.75,1026,45,6.04,173,17,0.0,Clouds,few clouds,9
Zagyvapálfalva,48.068889,19.785,2026-03-10 10:04:05.550801,11.44,10.02,11.44,11.44,1026,53,2.61,163,99,0.0,Clouds,overcast clouds,9
Salgótarján,48.105556,19.807222,2026-03-10 10:04:06.789649,10.81,9.33,10.81,10.81,1026,53,2.43,164,99,0.0,Clouds,overcast clouds,9
Szabadisóstó,46.933889,18.118056,2026-03-10 10:04:08.025294,12.72,11.72,12.72,12.72,1024,64,2.57,163,96,0.0,Clouds,overcast clouds,9
Siófok,46.907778,18.053889,2026-03-10 10:04:09.261803,12.84,11.88,12.84,12.84,1024,65,2.48,164,96,0.0,Clouds,overcast clouds,9
Balatonszéplak felső,46.898056,18.018056,2026-03-10 10:04:10.500188,12.68,11.65,12.68,12.68,1024,63,2.52,166,97,0.0,Clouds,overcast clouds,9
Balatonszéplak alsó,46.891944,17.993333,2026-03-10 10:04:11.731975,12.75,11.73,12.75,12.75,1024,63,2.51,165,97,0.0,Clouds,overcast clouds,9
Zamárdi felső,46.886111,17.969444,2026-03-10 10:04:12.968739,12.73,11.68,12.73,12.73,1024,62,2.51,165,97,0.0,Clouds,overcast clouds,9
Zamárdi,46.88,17.944722,2026-03-10 10:04:14.208981,12.73,11.68,12.73,12.73,1024,62,2.51,165,97,0.0,Clouds,overcast clouds,9
Szántód,46.861944,17.899167,2026-03-10 10:04:15.445372,12.72,11.67,12.72,12.72,1024,62,2.66,166,98,0.0,Clouds,overcast clouds,9
Szőny-Déli,47.735278,18.141944,2026-03-10 10:04:16.675755,12.51,11.28,12.51,12.51,1024,56,5.93,143,93,0.0,Clouds,overcast clouds,9
Várpalota,47.194444,18.149167,2026-03-10 10:04:17.909474,11.74,10.51,11.74,11.74,1024,59,3.67,153,75,0.0,Clouds,broken clouds,9
Pétfürdő,47.1675,18.121389,2026-03-10 10:04:19.144689,12.19,11.01,12.19,12.19,1024,59,3.52,154,75,0.0,Clouds,broken clouds,9
Hajmáskér,47.141111,18.009444,2026-03-10 10:04:20.386305,11.81,10.61,11.81,11.81,1024,60,3.42,155,73,0.0,Clouds,broken clouds,9
Veszprém,47.118889,17.91,2026-03-10 10:04:21.630045,11.79,10.59,11.79,11.79,1024,60,3.26,154,72,0.0,Clouds,broken clouds,9
Herend,47.136944,17.760278,2026-03-10 10:04:22.870645,11.27,9.99,11.27,11.27,1024,59,3.63,154,67,0.0,Clouds,broken clouds,9
Városlőd,47.144167,17.652778,2026-03-10 10:04:24.113360,11.15,9.84,11.15,11.15,1024,58,4.52,159,59,0.0,Clouds,broken clouds,9
Városlőd-Kislőd,47.133889,17.631111,2026-03-10 10:04:25.351968,11.58,10.31,11.58,11.58,1024,58,4.42,157,61,0.0,Clouds,broken clouds,9
Ajka,47.105902,17.572938,2026-03-10 10:04:26.586511,12.05,10.83,12.05,12.05,1024,58,5.08,159,57,0.0,Clouds,broken clouds,9
Ajka-Gyártelep,47.096806,17.555219,2026-03-10 10:04:27.816738,12.05,10.83,12.05,12.05,1024,58,5.08,159,57,0.0,Clouds,broken clouds,9
Devecser,47.1125,17.435278,2026-03-10 10:04:29.052620,12.46,11.25,12.46,12.46,1023,57,5.68,161,51,0.0,Clouds,broken clouds,9
Somlóvásárhely,47.124444,17.369167,2026-03-10 10:04:30.284051,12.56,11.36,12.56,12.56,1023,57,6.1,165,43,0.0,Clouds,scattered clouds,9
Tüskevár,47.128611,17.331389,2026-03-10 10:04:31.521679,12.67,11.48,12.67,12.67,1023,57,6.16,166,40,0.0,Clouds,scattered clouds,9
Karakószörcsök,47.133611,17.287778,2026-03-10 10:04:32.755831,12.74,11.56,12.74,12.74,1023,57,6.19,167,38,0.0,Clouds,scattered clouds,9
Kerta,47.151944,17.237222,2026-03-10 10:04:33.994268,12.85,11.68,12.85,12.85,1023,57,6.22,171,32,0.0,Clouds,scattered clouds,9
Boba,47.183333,17.191389,2026-03-10 10:04:35.235262,12.82,11.65,12.82,12.82,1023,57,6.23,173,29,0.0,Clouds,scattered clouds,9
Börgönd,47.140278,18.515,2026-03-10 10:04:36.473500,12.08,10.86,12.08,12.08,1025,58,3.86,153,97,0.0,Clouds,overcast clouds,9
Belsőbáránd,47.102778,18.499722,2026-03-10 10:04:37.711116,12.06,10.84,12.06,12.06,1024,58,3.78,154,97,0.0,Clouds,overcast clouds,9
Zichyújfalu,47.124444,18.6725,2026-03-10 10:04:38.954985,12.01,10.75,12.01,12.01,1025,57,4.04,155,100,0.0,Clouds,overcast clouds,9
Seregélyes,47.121111,18.580556,2026-03-10 10:04:40.204374,12.2,10.99,12.2,12.2,1025,58,3.91,154,98,0.0,Clouds,overcast clouds,9
Polgárdi-Ipartelepek,47.079167,18.314444,2026-03-10 10:04:41.451856,11.94,10.76,11.94,11.94,1024,60,3.23,156,93,0.0,Clouds,overcast clouds,9
Polgárdi,47.07,18.284167,2026-03-10 10:04:42.697474,11.94,10.76,11.94,11.94,1024,60,3.23,156,93,0.0,Clouds,overcast clouds,9
Füle,47.05,18.255278,2026-03-10 10:04:43.940157,11.96,10.78,11.96,11.96,1024,60,3.1,157,93,0.0,Clouds,overcast clouds,9
Zánka-Erzsébettábor,46.8775,17.709167,2026-03-10 10:04:45.178640,12.77,11.7,12.77,12.77,1024,61,3.19,161,94,0.0,Clouds,overcast clouds,9
Csajág,47.033889,18.186389,2026-03-10 10:04:46.413327,12.17,11.04,12.17,12.17,1024,61,2.78,159,93,0.0,Clouds,overcast clouds,9
Balatonakarattya,47.017222,18.167778,2026-03-10 10:04:47.651487,12.17,11.04,12.17,12.17,1024,61,2.78,159,93,0.0,Clouds,overcast clouds,9
Csittényhegy,47.025278,18.1375,2026-03-10 10:04:48.887438,12.43,11.35,12.43,12.43,1024,62,2.7,159,92,0.0,Clouds,overcast clouds,9
Balatonkenese,47.0325,18.105556,2026-03-10 10:04:50.128882,12.58,11.51,12.58,12.58,1024,62,2.64,159,91,0.0,Clouds,overcast clouds,9
Balatonfűzfő,47.060278,18.0425,2026-03-10 10:04:51.363765,12.32,11.2,12.32,12.32,1024,61,2.63,156,86,0.0,Clouds,overcast clouds,9
Balatonalmádi,47.028333,18.015,2026-03-10 10:04:52.615462,12.55,11.48,12.55,12.55,1024,62,2.51,158,89,0.0,Clouds,overcast clouds,9
Káptalanfüred,47.008889,18.003889,2026-03-10 10:04:53.858323,11.71,10.56,11.71,11.71,1024,62,2.43,158,91,0.0,Clouds,overcast clouds,9
Alsóörs,46.985278,17.974722,2026-03-10 10:04:55.092377,11.71,10.56,11.71,11.71,1024,62,2.43,158,91,0.0,Clouds,overcast clouds,9
Csopak,46.974722,17.931111,2026-03-10 10:04:56.337478,12.11,11.0,12.11,12.11,1024,62,2.47,156,92,0.0,Clouds,overcast clouds,9
Balatonarács,46.9625,17.8975,2026-03-10 10:04:57.573244,12.11,11.0,12.11,12.11,1024,62,2.47,156,92,0.0,Clouds,overcast clouds,9
Balatonfüred,46.955833,17.883056,2026-03-10 10:04:58.805469,12.53,11.43,12.53,12.53,1024,61,2.54,157,94,0.0,Clouds,overcast clouds,9
Aszófő,46.925556,17.8325,2026-03-10 10:05:00.051719,12.52,11.42,12.52,12.52,1024,61,2.66,158,95,0.0,Clouds,overcast clouds,9
Örvényes,46.9125,17.818056,2026-03-10 10:05:01.283654,12.52,11.42,12.52,12.52,1024,61,2.66,158,95,0.0,Clouds,overcast clouds,9
Balatonudvari,46.904722,17.808056,2026-03-10 10:05:02.516040,12.01,10.86,12.01,12.01,1024,61,2.78,157,94,0.0,Clouds,overcast clouds,9
Fövenyes,46.893611,17.789444,2026-03-10 10:05:03.762693,12.65,11.56,12.65,12.65,1024,61,2.81,160,96,0.0,Clouds,overcast clouds,9
Balatonakali-Dörgicse,46.88,17.747778,2026-03-10 10:05:05.024499,12.31,11.19,12.31,12.31,1024,61,2.93,159,95,0.0,Clouds,overcast clouds,9
Zánka-Köveskál,46.872778,17.687778,2026-03-10 10:05:06.265938,12.39,11.28,12.39,12.39,1024,61,3.33,161,93,0.0,Clouds,overcast clouds,9
Balatonszepezd,46.851111,17.663056,2026-03-10 10:05:07.501604,12.79,11.72,12.79,12.79,1024,61,3.3,164,94,0.0,Clouds,overcast clouds,9
Szepezdfürdő,46.839722,17.649444,2026-03-10 10:05:08.740592,11.78,10.61,11.78,11.78,1024,61,3.41,163,93,0.0,Clouds,overcast clouds,9
Révfülöp,46.829167,17.632222,2026-03-10 10:05:09.979796,11.78,10.61,11.78,11.78,1024,61,3.41,163,93,0.0,Clouds,overcast clouds,9
Balatonrendes,46.824722,17.582778,2026-03-10 10:05:11.218388,12.48,11.38,12.48,12.48,1024,61,3.66,166,91,0.0,Clouds,overcast clouds,9
Ábrahámhegy,46.815,17.572222,2026-03-10 10:05:12.453294,12.48,11.38,12.48,12.48,1024,61,3.66,166,91,0.0,Clouds,overcast clouds,9
Badacsonyörs,46.805556,17.531667,2026-03-10 10:05:13.689281,12.77,11.7,12.77,12.77,1024,61,3.75,166,90,0.0,Clouds,overcast clouds,9
Kisújszállás,47.223889,20.751111,2026-03-10 10:05:14.921914,12.9,11.37,12.9,12.9,1026,43,5.04,174,16,0.0,Clouds,few clouds,9
Karcag,47.303333,20.928056,2026-03-10 10:05:16.167255,12.92,11.36,12.92,12.92,1026,42,3.95,173,14,0.0,Clouds,few clouds,9
Püspökladány,47.3275,21.128889,2026-03-10 10:05:17.410321,13.13,11.52,13.13,13.13,1027,39,3.32,172,11,0.0,Clouds,few clouds,9
Kaba,47.368889,21.259444,2026-03-10 10:05:18.650541,13.28,11.63,13.28,13.28,1027,37,2.97,169,12,0.0,Clouds,few clouds,9
Hajdúszoboszló,47.429444,21.406944,2026-03-10 10:05:19.887817,13.3,11.63,13.3,13.3,1027,36,2.62,167,13,0.0,Clouds,few clouds,9
Ebes,47.462778,21.488889,2026-03-10 10:05:21.123209,13.33,11.66,13.33,13.33,1027,36,2.53,165,14,0.0,Clouds,few clouds,9
Debrecen,47.520278,21.628611,2026-03-10 10:05:22.365595,13.31,11.64,13.31,13.31,1027,36,2.4,156,18,0.0,Clouds,few clouds,9
Debrecen-Csapókert,47.540556,21.648056,2026-03-10 10:05:23.599283,13.18,11.49,13.18,13.18,1027,36,2.4,153,19,0.0,Clouds,few clouds,9
Apafa,47.584045,21.655858,2026-03-10 10:05:24.838343,13.11,11.42,13.11,13.11,1027,36,2.45,152,19,0.0,Clouds,few clouds,9
Bocskaikert,47.6425,21.666389,2026-03-10 10:05:26.074929,12.81,11.14,12.81,12.81,1027,38,2.57,152,20,0.0,Clouds,few clouds,9
Hajdúhadház,47.686944,21.679167,2026-03-10 10:05:27.317661,12.88,11.22,12.88,12.88,1027,38,2.59,148,20,0.0,Clouds,few clouds,9
Téglás,47.714722,21.684722,2026-03-10 10:05:28.571168,12.86,11.19,12.86,12.86,1027,38,2.63,149,20,0.0,Clouds,few clouds,9
Újfehértó,47.814444,21.706389,2026-03-10 10:05:29.804408,12.82,11.2,12.82,12.82,1027,40,2.64,151,18,0.0,Clouds,few clouds,9
Nyíregyháza,47.946667,21.705556,2026-03-10 10:05:31.055091,12.66,11.13,12.66,12.66,1027,44,2.5,155,16,0.0,Clouds,few clouds,9
Sóstó,47.998051,21.729047,2026-03-10 10:05:32.302162,12.62,11.11,12.62,12.62,1027,45,2.5,156,16,0.0,Clouds,few clouds,9
Sóstóhegy,48.012222,21.742778,2026-03-10 10:05:33.536015,12.68,11.18,12.68,12.68,1027,45,2.45,157,16,0.0,Clouds,few clouds,9
Kemecse,48.065556,21.801667,2026-03-10 10:05:34.768528,12.72,11.25,12.72,12.72,1027,46,2.41,158,17,0.0,Clouds,few clouds,9
Nyírbogdány,48.082222,21.855278,2026-03-10 10:05:36.021321,12.71,11.26,12.71,12.71,1027,47,2.4,158,17,0.0,Clouds,few clouds,9
Kék,48.093333,21.883889,2026-03-10 10:05:37.264951,12.77,11.3,12.77,12.77,1027,46,2.46,157,17,0.0,Clouds,few clouds,9
Demecser,48.111667,21.926667,2026-03-10 10:05:38.504723,12.8,11.34,12.8,12.8,1027,46,2.47,156,16,0.0,Clouds,few clouds,9
Gégény,48.128333,21.951944,2026-03-10 10:05:39.741421,12.8,11.34,12.8,12.8,1027,46,2.51,155,16,0.0,Clouds,few clouds,9
Pátroha,48.158611,21.996667,2026-03-10 10:05:40.974639,12.84,11.41,12.84,12.84,1027,47,2.58,153,15,0.0,Clouds,few clouds,9
Ajak,48.1865,22.048972,2026-03-10 10:05:42.218836,12.86,11.43,12.86,12.86,1027,47,2.69,152,14,0.0,Clouds,few clouds,9
Kisvárda,48.208333,22.078333,2026-03-10 10:05:43.456587,12.89,11.44,12.89,12.89,1027,46,2.97,150,14,0.0,Clouds,few clouds,9
Kisvárda-Hármasút,48.228333,22.091944,2026-03-10 10:05:44.688596,12.89,11.44,12.89,12.89,1027,46,2.97,150,14,0.0,Clouds,few clouds,9
Fényeslitke,48.267222,22.107222,2026-03-10 10:05:45.921618,12.87,11.44,12.87,12.87,1027,47,3.33,151,14,0.0,Clouds,few clouds,9
Komoró,48.305278,22.118056,2026-03-10 10:05:47.155266,12.89,11.46,12.89,12.89,1027,47,3.44,152,14,0.0,Clouds,few clouds,9
Tuzsér,48.342222,22.131667,2026-03-10 10:05:48.395080,12.86,11.45,12.86,12.86,1027,48,3.64,153,14,0.0,Clouds,few clouds,9
Tiszabezdéd,48.371389,22.145,2026-03-10 10:05:49.637038,12.91,11.48,12.91,12.91,1027,47,3.91,153,14,0.0,Clouds,few clouds,9
Záhony,48.402222,22.183611,2026-03-10 10:05:50.880270,12.94,11.49,12.94,12.94,1027,46,4.15,154,14,0.0,Clouds,few clouds,9
Karcag-Vásártér,47.3225,20.9075,2026-03-10 10:05:52.111975,12.92,11.36,12.92,12.92,1026,42,3.95,173,14,0.0,Clouds,few clouds,9
Berekfürdő,47.374722,20.827222,2026-03-10 10:05:53.355856,12.76,11.21,12.76,12.76,1026,43,4.26,173,18,0.0,Clouds,few clouds,9
Kunmadaras,47.415278,20.793056,2026-03-10 10:05:54.594087,12.64,11.08,12.64,12.64,1026,43,4.25,173,20,0.0,Clouds,few clouds,9
Tiszaszentimre,47.490833,20.733056,2026-03-10 10:05:55.826884,12.51,10.97,12.51,12.51,1026,44,4.34,173,21,0.0,Clouds,few clouds,9
Tiszaszőlős,47.555556,20.728056,2026-03-10 10:05:57.058309,12.42,10.87,12.42,12.42,1026,44,4.16,173,24,0.0,Clouds,few clouds,9
Hosszúhát,47.235556,21.101944,2026-03-10 10:05:58.297959,13.29,11.69,13.29,13.29,1027,39,3.47,173,9,0.0,Clear,clear sky,9
Szerep,47.234444,21.145833,2026-03-10 10:05:59.547879,13.35,11.73,13.35,13.35,1027,38,3.38,173,10,0.0,Clear,clear sky,9
Sárrétudvari,47.231667,21.180833,2026-03-10 10:06:00.788479,13.39,11.75,13.39,13.39,1027,37,3.31,172,10,0.0,Clear,clear sky,9
Biharnagybajom,47.208889,21.221944,2026-03-10 10:06:02.029842,13.47,11.84,13.47,13.47,1027,37,3.23,172,12,0.0,Clouds,few clouds,9
Füzesgyarmat,47.113056,21.194444,2026-03-10 10:06:03.260672,13.59,11.97,13.59,13.59,1027,37,3.53,178,12,0.0,Clouds,few clouds,9
Füzesgyarmatfürdő,47.093787,21.201582,2026-03-10 10:06:04.497420,13.59,11.97,13.59,13.59,1027,37,3.53,178,12,0.0,Clouds,few clouds,9
Báránd,47.299722,21.235278,2026-03-10 10:06:05.738951,13.33,11.68,13.33,13.33,1027,37,3.1,170,11,0.0,Clouds,few clouds,9
Sáp,47.259722,21.360556,2026-03-10 10:06:06.989404,13.54,11.86,13.54,13.54,1027,35,2.97,170,15,0.0,Clouds,few clouds,9
Berettyóújfalu,47.211944,21.535556,2026-03-10 10:06:08.241768,13.83,12.13,13.83,13.83,1027,33,2.49,173,17,0.0,Clouds,few clouds,9
Mezőpeterd,47.176111,21.625278,2026-03-10 10:06:09.480890,13.96,12.25,13.96,13.96,1027,32,2.25,178,14,0.0,Clouds,few clouds,9
Biharkeresztes,47.135556,21.721389,2026-03-10 10:06:10.712567,14.13,12.38,14.13,14.13,1027,30,2.0,196,13,0.0,Clouds,few clouds,9
Tócóvölgy,47.529444,21.588889,2026-03-10 10:06:11.966485,13.3,11.63,13.3,13.3,1027,36,2.45,159,17,0.0,Clouds,few clouds,9
Sáregres,46.7825,18.588889,2026-03-10 10:06:13.208966,12.3,11.1,12.3,12.3,1025,58,4.01,162,100,0.0,Clouds,overcast clouds,9
Simontornya,46.756582,18.540674,2026-03-10 10:06:14.443121,12.26,11.08,12.26,12.26,1025,59,3.79,160,100,0.0,Clouds,overcast clouds,9
Tolnanémedi,46.727778,18.475833,2026-03-10 10:06:15.685638,12.35,11.21,12.35,12.35,1025,60,3.67,160,100,0.0,Clouds,overcast clouds,9
Pincehely,46.681389,18.43,2026-03-10 10:06:16.924010,12.27,11.12,12.27,12.27,1025,60,3.18,159,100,0.0,Clouds,overcast clouds,9
Keszőhidegkút-Gyönk,46.597778,18.426111,2026-03-10 10:06:18.166584,12.32,11.17,12.32,12.32,1025,60,2.96,158,100,0.0,Clouds,overcast clouds,9
Szárazd,46.575556,18.420833,2026-03-10 10:06:19.404438,12.36,11.22,12.36,12.36,1025,60,2.88,158,100,0.0,Clouds,overcast clouds,9
Regöly,46.568889,18.396111,2026-03-10 10:06:20.641358,12.36,11.22,12.36,12.36,1025,60,2.88,158,100,0.0,Clouds,overcast clouds,9
Szakály-Hőgyész,46.523611,18.389444,2026-03-10 10:06:21.879758,12.3,11.15,12.3,12.3,1025,60,2.6,160,100,0.0,Clouds,overcast clouds,9
Dúzs,46.493889,18.377222,2026-03-10 10:06:23.122774,12.35,11.21,12.35,12.35,1025,60,2.56,161,100,0.0,Clouds,overcast clouds,9
Csibrák,46.466667,18.336389,2026-03-10 10:06:24.363210,12.44,11.31,12.44,12.44,1025,60,2.37,163,100,0.0,Clouds,overcast clouds,9
Kurd,46.449167,18.319167,2026-03-10 10:06:25.602534,12.11,10.94,12.11,12.11,1025,60,2.33,164,100,0.0,Clouds,overcast clouds,9
Döbrököz,46.418889,18.255,2026-03-10 10:06:26.838569,12.47,11.34,12.47,12.47,1025,60,2.11,169,100,0.0,Clouds,overcast clouds,9
Dombóvár,46.37,18.149722,2026-03-10 10:06:28.072047,12.58,11.46,12.58,12.58,1025,60,2.15,179,100,0.0,Clouds,overcast clouds,9
Dombóvár alsó,46.363889,18.134167,2026-03-10 10:06:29.307888,12.58,11.46,12.58,12.58,1025,60,2.15,179,100,0.0,Clouds,overcast clouds,9
Somoskőújfalu,48.154722,19.815556,2026-03-10 10:06:30.576655,9.72,8.63,9.72,9.72,1026,53,2.31,163,100,0.0,Clouds,overcast clouds,9
Jászfényszaru,47.593056,19.754444,2026-03-10 10:06:31.810395,12.06,10.68,12.06,12.06,1025,52,4.66,163,95,0.0,Clouds,overcast clouds,9
Pusztamonostor,47.564444,19.794167,2026-03-10 10:06:33.041734,12.07,10.69,12.07,12.07,1025,52,4.72,165,90,0.0,Clouds,overcast clouds,9
Jászberény,47.494444,19.893333,2026-03-10 10:06:34.276773,12.17,10.77,12.17,12.17,1026,51,5.0,169,70,0.0,Clouds,broken clouds,9
Meggyespele,47.441944,19.938889,2026-03-10 10:06:35.518074,12.25,10.84,12.25,12.25,1026,50,5.44,170,47,0.0,Clouds,scattered clouds,9
Portelek,47.418056,19.958889,2026-03-10 10:06:36.760506,12.26,10.85,12.26,12.26,1026,50,5.53,170,47,0.0,Clouds,scattered clouds,9
Jászboldogháza-Jánoshida,47.366944,20.001389,2026-03-10 10:06:37.992057,12.28,10.84,12.28,12.28,1026,49,5.77,170,45,0.0,Clouds,scattered clouds,9
Jászárokszállás,47.635556,19.971111,2026-03-10 10:06:39.232720,12.18,10.79,12.18,12.18,1026,51,4.8,169,72,0.0,Clouds,broken clouds,9
Jászdózsa,47.563056,20.028056,2026-03-10 10:06:40.473485,12.23,10.81,12.23,12.23,1026,50,5.18,171,51,0.0,Clouds,broken clouds,9
Jászapáti,47.513611,20.155,2026-03-10 10:06:41.710847,12.27,10.83,12.27,12.27,1026,49,5.71,173,33,0.0,Clouds,scattered clouds,9
Jászkisér,47.456111,20.203333,2026-03-10 10:06:42.944011,12.32,10.86,12.32,12.32,1026,48,5.89,172,30,0.0,Clouds,scattered clouds,9
Jászladány,47.373333,20.159167,2026-03-10 10:06:44.174851,12.39,10.94,12.39,12.39,1026,48,6.03,171,34,0.0,Clouds,scattered clouds,9
Szászberek,47.320556,20.090833,2026-03-10 10:06:45.413061,12.39,10.94,12.39,12.39,1026,48,6.07,171,41,0.0,Clouds,scattered clouds,9
Gyöngyöshalász,47.743056,19.932222,2026-03-10 10:06:46.648771,11.98,10.57,11.98,11.98,1026,51,4.31,166,98,0.0,Clouds,overcast clouds,9
Gyöngyös,47.783056,19.937222,2026-03-10 10:06:47.887301,11.63,10.15,11.63,11.63,1026,50,4.3,168,99,0.0,Clouds,overcast clouds,9
Erdőtelek,47.683333,20.3025,2026-03-10 10:06:49.125160,12.09,10.61,12.09,12.09,1026,48,5.39,174,38,0.0,Clouds,scattered clouds,9
Heves,47.609444,20.306111,2026-03-10 10:06:50.371323,12.22,10.75,12.22,12.22,1026,48,5.69,174,31,0.0,Clouds,scattered clouds,9
Hevesvezekény,47.562222,20.365833,2026-03-10 10:06:51.618211,12.3,10.81,12.3,12.3,1026,47,5.73,173,28,0.0,Clouds,scattered clouds,9
Tarnaszentmiklós,47.546944,20.390833,2026-03-10 10:06:52.863632,12.32,10.81,12.32,12.32,1026,46,5.82,173,26,0.0,Clouds,scattered clouds,9
Kisköre,47.495556,20.481667,2026-03-10 10:06:54.095032,12.41,10.88,12.41,12.41,1026,45,5.7,173,17,0.0,Clouds,few clouds,9
Abádszalók,47.455278,20.553056,2026-03-10 10:06:55.340681,12.43,10.88,12.43,12.43,1026,44,5.67,173,15,0.0,Clouds,few clouds,9
Kunhegyes,47.376667,20.641111,2026-03-10 10:06:56.579389,12.58,11.04,12.58,12.58,1026,44,5.27,173,16,0.0,Clouds,few clouds,9
Kenderes,47.254444,20.686111,2026-03-10 10:06:57.813451,12.8,11.28,12.8,12.8,1026,44,5.48,174,17,0.0,Clouds,few clouds,9
Maklár,47.808056,20.404722,2026-03-10 10:06:59.055157,11.89,10.41,11.89,11.89,1026,49,4.75,174,50,0.0,Clouds,scattered clouds,9
Andornaktálya,47.852203,20.402295,2026-03-10 10:07:00.295877,11.67,10.2,11.67,11.67,1026,50,4.69,173,49,0.0,Clouds,scattered clouds,9
Eger,47.891667,20.381667,2026-03-10 10:07:01.536475,11.57,10.09,11.57,11.57,1026,50,4.97,172,59,0.0,Clouds,broken clouds,9
Egervár,47.908056,20.380556,2026-03-10 10:07:02.779547,11.68,10.24,11.68,11.68,1026,51,4.95,172,61,0.0,Clouds,broken clouds,9
Eger-Felnémet,47.936667,20.370556,2026-03-10 10:07:04.019635,11.59,10.14,11.59,11.59,1026,51,4.93,171,63,0.0,Clouds,broken clouds,9
Szarvaskő,47.988611,20.3325,2026-03-10 10:07:05.254968,11.0,9.51,11.0,11.0,1026,52,5.01,171,77,0.0,Clouds,broken clouds,9
Mónosbél,48.031944,20.33,2026-03-10 10:07:06.495063,11.07,9.59,11.07,11.07,1026,52,4.91,172,82,0.0,Clouds,broken clouds,9
Bélapátfalva,48.055556,20.340556,2026-03-10 10:07:07.733717,10.81,9.3,10.81,10.81,1026,52,4.83,173,85,0.0,Clouds,overcast clouds,9
Bélapátfalvi Cementgyár,48.058056,20.355,2026-03-10 10:07:08.970526,10.81,9.3,10.81,10.81,1026,52,4.83,173,85,0.0,Clouds,overcast clouds,9
Szilvásvárad,48.11345,20.37919,2026-03-10 10:07:10.212535,10.41,8.86,10.41,10.41,1026,52,4.54,175,86,0.0,Clouds,overcast clouds,9
Hejőkeresztúr,47.960278,20.869444,2026-03-10 10:07:11.446577,11.81,10.35,11.81,11.81,1026,50,3.03,163,28,0.0,Clouds,scattered clouds,9
Tiszaújváros,47.926111,21.030556,2026-03-10 10:07:12.678113,12.01,10.55,12.01,12.01,1026,49,2.61,155,27,0.0,Clouds,scattered clouds,9
Miskolc-Gömöri,48.106667,20.800278,2026-03-10 10:07:13.913444,11.5,10.04,11.5,11.5,1026,51,3.52,158,37,0.0,Clouds,scattered clouds,9
Sajókeresztúr,48.168008,20.774014,2026-03-10 10:07:15.153955,11.53,10.07,11.53,11.53,1026,51,3.7,158,47,0.0,Clouds,scattered clouds,9
Sajóecseg,48.186111,20.766667,2026-03-10 10:07:16.390971,11.65,10.2,11.65,11.65,1026,51,3.74,159,52,0.0,Clouds,broken clouds,9
Sajószentpéter,48.222222,20.708056,2026-03-10 10:07:17.625896,11.69,10.25,11.69,11.69,1026,51,3.8,160,60,0.0,Clouds,broken clouds,9
Kazincbarcika,48.264444,20.6275,2026-03-10 10:07:18.858535,11.79,10.36,11.79,11.79,1026,51,3.68,169,87,0.0,Clouds,overcast clouds,9
Sajókaza,48.272778,20.581944,2026-03-10 10:07:20.099476,11.81,10.38,11.81,11.81,1026,51,3.64,172,90,0.0,Clouds,overcast clouds,9
Vadna,48.276389,20.555278,2026-03-10 10:07:21.332003,11.81,10.38,11.81,11.81,1026,51,3.64,172,90,0.0,Clouds,overcast clouds,9
Dubicsány,48.280833,20.504722,2026-03-10 10:07:22.567821,11.83,10.4,11.83,11.83,1026,51,3.67,179,97,0.0,Clouds,overcast clouds,9
Raposka,46.851389,17.412778,2026-03-10 10:07:23.806616,12.93,11.85,12.93,12.93,1024,60,4.3,164,82,0.0,Clouds,broken clouds,9
Ivacs,47.641944,19.273889,2026-03-10 10:07:25.040309,11.45,10.14,11.45,11.45,1025,57,3.98,150,100,0.0,Clouds,overcast clouds,9
Kisköre-Tiszahíd,47.480835,20.507698,2026-03-10 10:07:26.272999,12.43,10.9,12.43,12.43,1026,45,5.79,173,15,0.0,Clouds,few clouds,9
Rozsály,47.912778,22.7825,2026-03-10 10:07:27.508532,13.48,11.72,13.48,13.48,1027,32,5.09,144,40,0.0,Clouds,scattered clouds,9
Pusztakettős,47.453611,20.749722,2026-03-10 10:07:28.743065,12.59,11.03,12.59,12.59,1026,43,4.34,173,20,0.0,Clouds,few clouds,9
Kisvác,47.795278,19.113611,2026-03-10 10:07:29.986493,11.96,10.7,11.96,11.96,1025,57,3.94,144,100,0.0,Clouds,overcast clouds,9
Tiszafüred-Gyártelep,47.6075,20.736111,2026-03-10 10:07:31.222568,12.34,10.8,12.34,12.34,1026,45,4.0,174,28,0.0,Clouds,scattered clouds,9
Újkenéz,48.251111,22.221667,2026-03-10 10:07:32.458611,12.9,11.39,12.9,12.9,1027,44,3.86,149,14,0.0,Clouds,few clouds,9
Püspökladány-Vásártér,47.319167,21.096111,2026-03-10 10:07:33.691460,13.17,11.56,13.17,13.17,1027,39,3.35,172,10,0.0,Clear,clear sky,9
Végegyháza alsó,46.3675,20.866944,2026-03-10 10:07:34.927761,13.97,12.36,13.97,13.97,1027,36,5.97,171,23,0.0,Clouds,few clouds,9
Orosháza felső,46.553611,20.655278,2026-03-10 10:07:36.158570,13.6,12.06,13.6,13.6,1026,40,6.45,171,18,0.0,Clouds,few clouds,9
Ambrózfalva,46.353056,20.740556,2026-03-10 10:07:37.395880,13.87,12.3,13.87,13.87,1026,38,6.58,171,25,0.0,Clouds,scattered clouds,9
Alsónyék,46.199444,18.738056,2026-03-10 10:07:38.633313,12.57,11.42,12.57,12.57,1025,59,3.65,169,99,0.0,Clouds,overcast clouds,9
Tompapuszta,46.321389,20.966389,2026-03-10 10:07:39.870710,14.05,12.45,14.05,14.05,1027,36,5.65,171,15,0.0,Clouds,few clouds,9
Halászlak,46.911879,20.56228,2026-03-10 10:07:41.108751,13.07,11.58,13.07,13.07,1026,44,6.18,172,11,0.0,Clouds,few clouds,9
Sirató,46.840556,20.61,2026-03-10 10:07:42.343841,13.21,11.71,13.21,13.21,1026,43,6.15,172,8,0.0,Clear,clear sky,9
Csabacsűd felső,46.829167,20.649167,2026-03-10 10:07:43.583789,13.23,11.73,13.23,13.23,1026,43,6.08,172,7,0.0,Clear,clear sky,9
Orosháza-Üveggyár,46.579979,20.683644,2026-03-10 10:07:44.819084,13.57,12.03,13.57,13.57,1026,40,6.28,172,17,0.0,Clouds,few clouds,9
Gyulai városerdő,46.69482,21.32281,2026-03-10 10:07:46.055170,14.04,12.41,14.04,14.04,1027,35,3.64,187,9,0.0,Clear,clear sky,9
Kórógyszentgyörgy,46.564377,20.224998,2026-03-10 10:07:47.288848,13.21,11.71,13.21,13.21,1026,43,7.34,173,16,0.0,Clouds,few clouds,9
Kunszállás,46.784444,19.767222,2026-03-10 10:07:48.523720,12.46,10.99,12.46,12.46,1026,47,6.47,172,82,0.0,Clouds,broken clouds,9
Selymes,46.655321,19.8534,2026-03-10 10:07:49.766759,12.68,11.2,12.68,12.68,1026,46,6.8,172,67,0.0,Clouds,broken clouds,9
Petőfiszállási tanyák,46.587805,19.874509,2026-03-10 10:07:51.011855,12.79,11.3,12.79,12.79,1026,45,6.96,172,57,0.0,Clouds,broken clouds,9
Kisteleki szőlők,46.514199,19.92868,2026-03-10 10:07:52.248277,12.88,11.4,12.88,12.88,1026,45,7.24,172,41,0.0,Clouds,scattered clouds,9
Kapitányság,46.435336,19.987564,2026-03-10 10:07:53.493850,13.1,11.61,13.1,13.1,1026,44,7.44,172,28,0.0,Clouds,scattered clouds,9
Őszeszék,46.39025,20.016017,2026-03-10 10:07:54.733647,13.21,11.74,13.21,13.21,1026,44,7.55,172,22,0.0,Clouds,few clouds,9
Vilmaszállás,46.366389,20.030833,2026-03-10 10:07:55.969930,13.24,11.77,13.24,13.24,1026,44,7.59,171,20,0.0,Clouds,few clouds,9
Jánosszállás,46.334359,20.051199,2026-03-10 10:07:57.210032,13.28,11.81,13.28,13.28,1026,44,7.62,171,18,0.0,Clouds,few clouds,9
Felsőpakony,47.343056,19.230556,2026-03-10 10:07:58.439120,12.01,10.7,12.01,12.01,1025,55,4.23,160,100,0.0,Clouds,overcast clouds,9
Felsőméntelek,46.987074,19.557745,2026-03-10 10:07:59.675627,12.05,10.62,12.05,12.05,1026,50,5.85,170,79,0.0,Clouds,broken clouds,9
Alsóméntelek,46.961558,19.579121,2026-03-10 10:08:00.917090,12.08,10.65,12.08,12.08,1026,50,5.87,170,80,0.0,Clouds,broken clouds,9
Nagynyír,46.943319,19.585447,2026-03-10 10:08:02.155875,12.1,10.65,12.1,12.1,1026,49,5.89,170,81,0.0,Clouds,broken clouds,9
Úrihegy,46.917778,19.621389,2026-03-10 10:08:03.394347,12.2,10.76,12.2,12.2,1026,49,5.99,170,82,0.0,Clouds,broken clouds,9
Miklóstelep,46.913412,19.630913,2026-03-10 10:08:04.633875,12.25,10.81,12.25,12.25,1026,49,6.07,171,81,0.0,Clouds,broken clouds,9
Tiszajenő alsó,47.016944,20.134444,2026-03-10 10:08:05.871397,12.65,11.2,12.65,12.65,1026,47,6.59,170,63,0.0,Clouds,broken clouds,9
Óbög,46.987222,20.111111,2026-03-10 10:08:07.106905,12.64,11.19,12.64,12.64,1026,47,6.63,171,66,0.0,Clouds,broken clouds,9
Árpádszállás,46.866456,19.989163,2026-03-10 10:08:08.337897,12.6,11.12,12.6,12.6,1026,46,6.74,173,67,0.0,Clouds,broken clouds,9
Tőserdő,46.851111,19.980278,2026-03-10 10:08:09.571105,12.66,11.16,12.66,12.66,1026,45,6.79,173,65,0.0,Clouds,broken clouds,9
Tiszaalpár felső,46.836256,19.976753,2026-03-10 10:08:10.803920,12.66,11.16,12.66,12.66,1026,45,6.79,173,65,0.0,Clouds,broken clouds,9
Borsihalom,46.773056,19.92,2026-03-10 10:08:12.045305,12.65,11.15,12.65,12.65,1026,45,6.78,173,67,0.0,Clouds,broken clouds,9
Petőfiváros,46.725556,19.848611,2026-03-10 10:08:13.281602,12.61,11.13,12.61,12.61,1026,46,6.66,172,74,0.0,Clouds,broken clouds,9
Csorna,47.601944,17.248889,2026-03-10 10:08:14.525771,12.84,11.64,12.84,12.84,1023,56,6.19,178,50,0.0,Clouds,scattered clouds,9
Szorgalmatos,47.986667,21.366389,2026-03-10 10:08:15.764362,12.33,10.87,12.33,12.33,1026,48,2.03,146,17,0.0,Clouds,few clouds,9
Fótfürdő,47.6225,19.200556,2026-03-10 10:08:16.998942,11.79,10.51,11.79,11.79,1024,57,3.53,149,100,0.0,Clouds,overcast clouds,9
Fenyveshegy,47.818333,19.068056,2026-03-10 10:08:18.236182,12.16,10.92,12.16,12.16,1025,57,3.66,141,100,0.0,Clouds,overcast clouds,9
Hűvösvölgy,47.541202,18.96351,2026-03-10 10:08:19.475865,10.78,9.45,10.78,10.78,1024,59,3.44,145,100,0.0,Clouds,overcast clouds,9
Hárshegy,47.535318,18.961433,2026-03-10 10:08:20.701297,10.78,9.45,10.78,10.78,1024,59,3.44,145,100,0.0,Clouds,overcast clouds,9
Szépjuhászné,47.528277,18.955246,2026-03-10 10:08:21.936620,10.48,9.1,10.48,10.48,1024,58,3.49,145,100,0.0,Clouds,overcast clouds,9
Jánoshegy,47.51433,18.95047,2026-03-10 10:08:23.168479,10.48,9.1,10.48,10.48,1024,58,3.49,145,100,0.0,Clouds,overcast clouds,9
Virágvölgy,47.505965,18.95876,2026-03-10 10:08:24.400630,10.69,9.33,10.69,10.69,1024,58,3.55,146,100,0.0,Clouds,overcast clouds,9
Csillebérc,47.498196,18.961694,2026-03-10 10:08:25.646427,10.69,9.33,10.69,10.69,1024,58,3.55,146,100,0.0,Clouds,overcast clouds,9
Normafa,47.5,18.970558,2026-03-10 10:08:26.885208,10.69,9.33,10.69,10.69,1024,58,3.55,146,100,0.0,Clouds,overcast clouds,9
Széchenyihegy,47.49413,18.977049,2026-03-10 10:08:28.121831,9.88,8.12,9.88,9.88,1024,58,3.46,148,100,0.0,Clouds,overcast clouds,9
Balatonfőkajár felső,47.031389,18.215278,2026-03-10 10:08:29.359311,12.27,11.15,12.27,12.27,1024,61,2.88,159,94,0.0,Clouds,overcast clouds,9
Piroska,47.148333,20.129722,2026-03-10 10:08:30.596570,12.52,11.08,12.52,12.52,1026,48,6.34,170,57,0.0,Clouds,broken clouds,9
Somodor,46.4725,17.836667,2026-03-10 10:08:31.834078,12.55,11.45,12.55,12.55,1024,61,3.61,184,97,0.0,Clouds,overcast clouds,9
Középmező,45.995833,18.668889,2026-03-10 10:08:33.065905,12.79,11.69,12.79,12.79,1025,60,2.97,166,92,0.0,Clouds,overcast clouds,9
Jobbágyi,47.828889,19.6875,2026-03-10 10:08:34.307697,11.91,10.54,11.91,11.91,1025,53,4.19,153,99,0.0,Clouds,overcast clouds,9
Ferihegy,47.437222,19.223889,2026-03-10 10:08:35.548739,11.81,10.51,11.81,11.81,1025,56,3.71,156,100,0.0,Clouds,overcast clouds,9
Máriapócs,47.852778,22.019167,2026-03-10 10:08:36.790008,12.86,11.22,12.86,12.86,1027,39,3.09,133,20,0.0,Clouds,few clouds,9
Máriaudvar,47.751944,19.165,2026-03-10 10:08:38.029410,12.16,10.92,12.16,12.16,1025,57,3.9,145,100,0.0,Clouds,overcast clouds,9
Nagyberki,46.353333,18.004167,2026-03-10 10:08:39.267842,12.52,11.39,12.52,12.52,1024,60,2.85,184,99,0.0,Clouds,overcast clouds,9
Badacsonytomaj,46.804722,17.518056,2026-03-10 10:08:40.504833,12.77,11.7,12.77,12.77,1024,61,3.75,166,90,0.0,Clouds,overcast clouds,9
Badacsony,46.788611,17.506389,2026-03-10 10:08:41.743542,12.86,11.79,12.86,12.86,1024,61,3.74,168,92,0.0,Clouds,overcast clouds,9
Badacsonylábdihegy,46.793889,17.470833,2026-03-10 10:08:42.980970,12.86,11.79,12.86,12.86,1024,61,3.74,168,92,0.0,Clouds,overcast clouds,9
Badacsonytördemic-Szigliget,46.809722,17.469167,2026-03-10 10:08:44.214416,12.84,11.75,12.84,12.84,1024,60,3.85,166,89,0.0,Clouds,overcast clouds,9
Nemesgulács-Kisapáti,46.836944,17.476389,2026-03-10 10:08:45.451185,12.85,11.76,12.85,12.85,1024,60,4.0,163,86,0.0,Clouds,overcast clouds,9
Tapolca,46.877778,17.428611,2026-03-10 10:08:46.690660,12.87,11.78,12.87,12.87,1024,60,4.5,162,78,0.0,Clouds,broken clouds,9
Uzsabánya alsó,46.898333,17.345278,2026-03-10 10:08:47.934596,11.85,10.63,11.85,11.85,1024,59,4.9,162,71,0.0,Clouds,broken clouds,9
Uzsa,46.920278,17.331667,2026-03-10 10:08:49.167868,12.62,11.48,12.62,12.62,1024,59,5.12,162,67,0.0,Clouds,broken clouds,9
Sümegi Bazaltbánya,46.9525,17.2925,2026-03-10 10:08:50.407839,12.65,11.51,12.65,12.65,1024,59,5.38,162,62,0.0,Clouds,broken clouds,9
Sümeg,46.981111,17.270833,2026-03-10 10:08:51.642328,12.83,11.68,12.83,12.83,1023,58,5.61,164,55,0.0,Clouds,broken clouds,9
Gógánfa,47.021111,17.207778,2026-03-10 10:08:52.883568,12.82,11.67,12.82,12.82,1023,58,5.87,166,46,0.0,Clouds,scattered clouds,9
Ukk,47.041944,17.195833,2026-03-10 10:08:54.115229,12.87,11.73,12.87,12.87,1023,58,5.92,168,41,0.0,Clouds,scattered clouds,9
Nemeskeresztúr,47.093611,17.183611,2026-03-10 10:08:55.355766,12.77,11.59,12.77,12.77,1023,57,6.08,170,35,0.0,Clouds,scattered clouds,9
Jánosháza,47.115833,17.171667,2026-03-10 10:08:56.588405,12.83,11.66,12.83,12.83,1023,57,6.13,171,32,0.0,Clouds,scattered clouds,9
Keszthely,46.758333,17.248056,2026-03-10 10:08:57.829725,13.08,12.01,13.08,13.08,1024,60,4.41,173,89,0.0,Clouds,overcast clouds,9
Alsógyenes,46.765844,17.276435,2026-03-10 10:08:59.066270,13.08,12.01,13.08,13.08,1024,60,4.18,173,90,0.0,Clouds,overcast clouds,9
Gyenesdiás,46.763333,17.292778,2026-03-10 10:09:00.298261,13.08,12.01,13.08,13.08,1024,60,4.18,173,90,0.0,Clouds,overcast clouds,9
Vonyarcvashegy,46.755278,17.318333,2026-03-10 10:09:01.538470,12.48,11.35,12.48,12.48,1024,60,4.08,172,91,0.0,Clouds,overcast clouds,9
Balatongyörök,46.751944,17.354444,2026-03-10 10:09:02.794714,13.01,11.93,13.01,13.01,1024,60,3.98,172,91,0.0,Clouds,overcast clouds,9
Becehegy,46.776111,17.372778,2026-03-10 10:09:04.042514,11.85,10.66,11.85,11.85,1024,60,4.08,169,88,0.0,Clouds,overcast clouds,9
Balatonederics,46.8025,17.385,2026-03-10 10:09:05.274115,11.77,10.57,11.77,11.77,1024,60,4.21,167,85,0.0,Clouds,overcast clouds,9
Dabronc,47.025766,17.167006,2026-03-10 10:09:06.513091,12.87,11.73,12.87,12.87,1023,58,5.84,167,45,0.0,Clouds,scattered clouds,9
Türje,46.994444,17.093611,2026-03-10 10:09:07.753241,12.91,11.77,12.91,12.91,1023,58,5.64,169,46,0.0,Clouds,scattered clouds,9
Zalabér-Batyk,46.983056,17.040833,2026-03-10 10:09:08.994723,13.07,11.95,13.07,13.07,1023,58,5.36,174,45,0.0,Clouds,scattered clouds,9
Pakod,46.959167,16.996667,2026-03-10 10:09:10.238227,12.99,11.86,12.99,12.99,1023,58,5.27,176,42,0.0,Clouds,scattered clouds,9
Pókaszepetk,46.924444,16.972222,2026-03-10 10:09:11.476814,13.13,12.04,13.13,13.13,1023,59,5.12,176,52,0.0,Clouds,broken clouds,9
Kemendollár,46.905833,16.946667,2026-03-10 10:09:12.713095,12.86,11.74,12.86,12.86,1023,59,5.03,178,49,0.0,Clouds,scattered clouds,9
Zalaegerszeg,46.833056,16.848333,2026-03-10 10:09:13.945961,13.05,11.95,13.05,13.05,1023,59,4.34,188,58,0.0,Clouds,broken clouds,9
Bocfölde,46.780278,16.853611,2026-03-10 10:09:15.189989,13.15,12.06,13.15,13.15,1023,59,4.26,185,72,0.0,Clouds,broken clouds,9
Sárhida,46.755833,16.851389,2026-03-10 10:09:16.436912,12.4,11.24,12.4,12.4,1023,59,4.03,188,75,0.0,Clouds,broken clouds,9
Bak,46.7325,16.849167,2026-03-10 10:09:17.672442,12.83,11.71,12.83,12.83,1023,59,3.92,187,79,0.0,Clouds,broken clouds,9
Tófej,46.670833,16.801944,2026-03-10 10:09:18.911830,12.73,11.6,12.73,12.73,1023,59,3.54,189,84,0.0,Clouds,broken clouds,9
Gutorfölde,46.646944,16.739722,2026-03-10 10:09:20.146501,13.03,11.93,13.03,13.03,1023,59,3.26,191,83,0.0,Clouds,broken clouds,9
Csömödér-Páka,46.608056,16.641111,2026-03-10 10:09:21.378082,13.33,12.26,13.33,13.33,1023,59,3.36,195,79,0.0,Clouds,broken clouds,9
Iklódbördőce,46.603056,16.604722,2026-03-10 10:09:22.631840,13.17,12.08,13.17,13.17,1023,59,3.76,198,75,0.0,Clouds,broken clouds,9
Lenti,46.621389,16.528611,2026-03-10 10:09:23.870727,13.36,12.29,13.36,13.36,1023,59,4.23,201,71,0.0,Clouds,broken clouds,9
Rédics,46.618056,16.471111,2026-03-10 10:09:25.105622,13.38,12.31,13.38,13.38,1022,59,4.44,203,71,0.0,Clouds,broken clouds,9
Zalalövő,46.845556,16.576389,2026-03-10 10:09:26.338850,13.01,11.91,13.01,13.01,1022,59,4.57,201,49,0.0,Clouds,scattered clouds,9
Zalaegerszeg-Ola,46.849167,16.844722,2026-03-10 10:09:27.591160,13.05,11.95,13.05,13.05,1023,59,4.34,188,58,0.0,Clouds,broken clouds,9
Andráshida,46.863116,16.7792,2026-03-10 10:09:28.829310,13.01,11.91,13.01,13.01,1023,59,4.39,190,49,0.0,Clouds,scattered clouds,9
Bagod,46.875,16.746111,2026-03-10 10:09:30.061446,13.13,12.04,13.13,13.13,1023,59,4.35,194,46,0.0,Clouds,scattered clouds,9
Zalaszentgyörgy,46.872222,16.7125,2026-03-10 10:09:31.300818,13.09,12.0,13.09,13.09,1023,59,4.38,196,45,0.0,Clouds,scattered clouds,9
Zalacséb-Salomvár,46.858056,16.662222,2026-03-10 10:09:32.541120,12.87,11.75,12.87,12.87,1023,59,4.43,197,44,0.0,Clouds,scattered clouds,9
Kópháza,47.631389,16.6375,2026-03-10 10:09:33.773978,12.57,11.4,12.57,12.57,1021,58,5.61,177,18,0.0,Clouds,few clouds,9
Nagycenk,47.601111,16.690278,2026-03-10 10:09:35.010947,12.73,11.57,12.73,12.73,1021,58,5.76,178,16,0.0,Clouds,few clouds,9
Sopronkövesd,47.548333,16.748056,2026-03-10 10:09:36.256607,12.55,11.38,12.55,12.55,1022,58,6.04,182,10,0.0,Clear,clear sky,9
Lövő,47.509444,16.7775,2026-03-10 10:09:37.506745,12.5,11.32,12.5,12.5,1022,58,6.25,182,9,0.0,Clear,clear sky,9
Újkér,47.457778,16.786667,2026-03-10 10:09:38.756714,12.6,11.43,12.6,12.6,1022,58,6.18,185,7,0.0,Clear,clear sky,9
Bük,47.388611,16.752222,2026-03-10 10:09:39.988684,12.72,11.56,12.72,12.72,1022,58,5.74,190,6,0.0,Clear,clear sky,9
Acsád,47.308333,16.734722,2026-03-10 10:09:41.228897,12.49,11.31,12.49,12.49,1022,58,5.39,193,8,0.0,Clear,clear sky,9
Salköveskút-Vassurány,47.291389,16.704167,2026-03-10 10:09:42.465078,12.55,11.38,12.55,12.55,1022,58,5.35,194,8,0.0,Clear,clear sky,9
Zalaszentiván,46.8875,16.909444,2026-03-10 10:09:43.698075,13.07,11.97,13.07,13.07,1023,59,4.75,183,50,0.0,Clouds,scattered clouds,9
Alsónemesapáti,46.854167,16.936389,2026-03-10 10:09:44.943022,13.15,12.06,13.15,13.15,1023,59,4.89,178,61,0.0,Clouds,broken clouds,9
Józsa,47.600833,21.584444,2026-03-10 10:09:46.177554,12.98,11.3,12.98,12.98,1027,37,2.56,158,18,0.0,Clouds,few clouds,9
Hajdúszentgyörgy,47.608056,21.578333,2026-03-10 10:09:47.416976,12.98,11.3,12.98,12.98,1027,37,2.56,158,18,0.0,Clouds,few clouds,9
Zelemér,47.627778,21.578333,2026-03-10 10:09:48.657814,12.9,11.21,12.9,12.9,1027,37,2.58,158,19,0.0,Clouds,few clouds,9
Hajdúböszörmény,47.668056,21.524167,2026-03-10 10:09:49.895961,12.84,11.2,12.84,12.84,1027,39,2.64,162,20,0.0,Clouds,few clouds,9
Hajdúvid,47.749444,21.508056,2026-03-10 10:09:51.135831,12.77,11.17,12.77,12.77,1027,41,2.57,162,22,0.0,Clouds,few clouds,9
Hajdúdorog,47.805556,21.493056,2026-03-10 10:09:52.376900,12.66,11.08,12.66,12.66,1027,42,2.48,160,21,0.0,Clouds,few clouds,9
Hajdúnánás,47.831944,21.426667,2026-03-10 10:09:53.615556,12.61,11.08,12.61,12.61,1027,44,2.38,160,21,0.0,Clouds,few clouds,9
Hajdúnánás-Vásártér,47.843056,21.407222,2026-03-10 10:09:54.852648,12.61,11.08,12.61,12.61,1027,44,2.38,160,21,0.0,Clouds,few clouds,9
Tedej,47.903611,21.404444,2026-03-10 10:09:56.091003,12.49,11.0,12.49,12.49,1026,46,2.17,154,19,0.0,Clouds,few clouds,9
Tiszavasvári,47.945278,21.374722,2026-03-10 10:09:57.322621,12.39,10.91,12.39,12.39,1026,47,2.1,151,18,0.0,Clouds,few clouds,9
Egyházerdő,47.9725,21.365,2026-03-10 10:09:58.559271,12.38,10.9,12.38,12.38,1026,47,2.06,148,17,0.0,Clouds,few clouds,9
Tiszalök,48.013056,21.369167,2026-03-10 10:09:59.792237,12.29,10.83,12.29,12.29,1026,48,2.01,145,17,0.0,Clouds,few clouds,9
Hajnalos,47.998889,21.414167,2026-03-10 10:10:01.025719,12.39,10.91,12.39,12.39,1026,47,2.03,148,17,0.0,Clouds,few clouds,9
Kisfástanya,47.989167,21.47,2026-03-10 10:10:02.290967,12.4,10.92,12.4,12.4,1026,47,2.04,149,17,0.0,Clouds,few clouds,9
Tiszaeszlár,48.010556,21.491944,2026-03-10 10:10:03.526969,12.44,10.97,12.44,12.44,1026,47,2.04,150,17,0.0,Clouds,few clouds,9
Bashalom,48.026111,21.514722,2026-03-10 10:10:04.767671,12.44,10.99,12.44,12.44,1026,48,2.02,149,17,0.0,Clouds,few clouds,9
Sáránd,47.415556,21.625,2026-03-10 10:10:05.998819,13.52,11.84,13.52,13.52,1027,35,2.25,161,17,0.0,Clouds,few clouds,9
Derecske,47.365,21.584167,2026-03-10 10:10:07.230402,13.58,11.88,13.58,13.58,1027,34,2.28,165,17,0.0,Clouds,few clouds,9
Derecske-Vásártér,47.352222,21.58,2026-03-10 10:10:08.468738,13.58,11.88,13.58,13.58,1027,34,2.28,165,17,0.0,Clouds,few clouds,9
Konyár,47.323611,21.666111,2026-03-10 10:10:09.708119,13.76,12.05,13.76,13.76,1027,33,2.1,169,17,0.0,Clouds,few clouds,9
Konyári Sóstófürdő,47.324167,21.744444,2026-03-10 10:10:10.962105,13.84,12.14,13.84,13.84,1027,33,1.78,173,16,0.0,Clouds,few clouds,9
Pocsaj-Esztár,47.288333,21.793056,2026-03-10 10:10:12.194754,13.95,12.24,13.95,13.95,1027,32,1.58,184,16,0.0,Clouds,few clouds,9
Kismarja,47.243889,21.813889,2026-03-10 10:10:13.436751,14.05,12.35,14.05,14.05,1027,32,1.7,194,16,0.0,Clouds,few clouds,9
Nagykereki,47.191667,21.8,2026-03-10 10:10:14.671301,14.11,12.36,14.11,14.11,1027,30,1.84,201,16,0.0,Clouds,few clouds,9
Debrecen-Szabadságtelep,47.527778,21.658611,2026-03-10 10:10:15.911485,13.28,11.58,13.28,13.28,1027,35,2.35,153,18,0.0,Clouds,few clouds,9
Kondoroskert,47.525556,21.713889,2026-03-10 10:10:17.146582,13.34,11.64,13.34,13.34,1027,35,2.18,143,19,0.0,Clouds,few clouds,9
Nagycsere,47.523889,21.763056,2026-03-10 10:10:18.387685,13.36,11.67,13.36,13.36,1027,35,2.13,139,19,0.0,Clouds,few clouds,9
Haláp,47.521667,21.818333,2026-03-10 10:10:19.625173,13.35,11.65,13.35,13.35,1027,35,2.09,134,18,0.0,Clouds,few clouds,9
Vámospércs,47.518056,21.893889,2026-03-10 10:10:20.862171,13.37,11.68,13.37,13.37,1027,35,2.09,120,15,0.0,Clouds,few clouds,9
Szentannapuszta,47.52,21.965833,2026-03-10 10:10:22.109281,13.45,11.76,13.45,13.45,1027,35,2.15,112,14,0.0,Clouds,few clouds,9
Nyírábrány,47.523889,22.016944,2026-03-10 10:10:23.347007,13.47,11.79,13.47,13.47,1027,35,2.19,109,13,0.0,Clouds,few clouds,9
Dombostanya,47.602778,21.706389,2026-03-10 10:10:24.577413,13.11,11.44,13.11,13.11,1027,37,2.47,148,20,0.0,Clouds,few clouds,9
Hajdúsámson,47.608056,21.755278,2026-03-10 10:10:25.811888,13.16,11.47,13.16,13.16,1027,36,2.43,136,19,0.0,Clouds,few clouds,9
Tamásipuszta,47.632778,21.796111,2026-03-10 10:10:27.053946,13.08,11.41,13.08,13.08,1027,37,2.55,132,19,0.0,Clouds,few clouds,9
Aradványpuszta,47.662778,21.8425,2026-03-10 10:10:28.291792,13.07,11.4,13.07,13.07,1027,37,2.69,129,18,0.0,Clouds,few clouds,9
Nyíradony,47.699444,21.903333,2026-03-10 10:10:29.529736,12.97,11.31,12.97,12.97,1027,38,3.08,124,18,0.0,Clouds,few clouds,9
Nyírmihálydi,47.7375,21.958889,2026-03-10 10:10:30.767319,12.95,11.29,12.95,12.95,1027,38,3.18,125,18,0.0,Clouds,few clouds,9
Nyírgelse,47.750833,21.987778,2026-03-10 10:10:31.997014,12.88,11.22,12.88,12.88,1027,38,3.25,126,19,0.0,Clouds,few clouds,9
Nyírbogát,47.793056,22.066389,2026-03-10 10:10:33.235048,12.92,11.26,12.92,12.92,1027,38,3.28,126,18,0.0,Clouds,few clouds,9
Nagykálló,47.871111,21.825833,2026-03-10 10:10:34.468229,12.81,11.22,12.81,12.81,1027,41,2.82,146,17,0.0,Clouds,few clouds,9
Kállósemjén,47.854722,21.935,2026-03-10 10:10:35.710368,12.85,11.24,12.85,12.85,1027,40,3.01,139,20,0.0,Clouds,few clouds,9
Nyírbátor,47.8425,22.131111,2026-03-10 10:10:36.948418,12.87,11.2,12.87,12.87,1027,38,3.23,127,18,0.0,Clouds,few clouds,9
Nyírcsászári,47.865556,22.179167,2026-03-10 10:10:38.190064,12.94,11.28,12.94,12.94,1027,38,3.18,126,17,0.0,Clouds,few clouds,9
Hodász,47.896111,22.213611,2026-03-10 10:10:39.430168,12.9,11.24,12.9,12.9,1027,38,3.15,126,16,0.0,Clouds,few clouds,9
Nyírmeggyes,47.9225,22.256667,2026-03-10 10:10:40.662990,12.93,11.27,12.93,12.93,1027,38,3.09,128,17,0.0,Clouds,few clouds,9
Mátészalka,47.951389,22.313333,2026-03-10 10:10:41.901251,12.98,11.33,12.98,12.98,1027,38,3.17,130,17,0.0,Clouds,few clouds,9
Kocsord,47.941944,22.375833,2026-03-10 10:10:43.148701,13.19,11.5,13.19,13.19,1027,36,3.59,133,17,0.0,Clouds,few clouds,9
Kocsord alsó,47.946389,22.400556,2026-03-10 10:10:44.389748,13.19,11.5,13.19,13.19,1027,36,3.59,133,17,0.0,Clouds,few clouds,9
Győrtelek,47.936667,22.424722,2026-03-10 10:10:45.635000,13.23,11.55,13.23,13.23,1027,36,3.76,135,17,0.0,Clouds,few clouds,9
Győrtelek alsó,47.921111,22.443333,2026-03-10 10:10:46.873476,13.28,11.58,13.28,13.28,1027,35,3.84,136,19,0.0,Clouds,few clouds,9
Ököritófülpös,47.911389,22.495,2026-03-10 10:10:48.116488,13.31,11.61,13.31,13.31,1027,35,3.99,137,20,0.0,Clouds,few clouds,9
Porcsalma-Tyukod,47.868056,22.568333,2026-03-10 10:10:49.352690,13.43,11.69,13.43,13.43,1027,33,4.15,139,25,0.0,Clouds,scattered clouds,9
Csenger,47.826111,22.666389,2026-03-10 10:10:50.597700,13.48,11.72,13.48,13.48,1027,32,4.29,140,28,0.0,Clouds,scattered clouds,9
Kisfái,46.888303,19.807366,2026-03-10 10:10:51.838863,12.42,10.94,12.42,12.42,1026,47,6.4,172,81,0.0,Clouds,broken clouds,9
Nyárlőrinci szőlők,46.8775,19.828333,2026-03-10 10:10:53.087885,12.47,11.0,12.47,12.47,1026,47,6.5,172,80,0.0,Clouds,broken clouds,9
Nyárlőrinc alsó,46.863889,19.878889,2026-03-10 10:10:54.334386,12.46,10.96,12.46,12.46,1026,46,6.55,173,78,0.0,Clouds,broken clouds,9
Tiszaug-Tiszahídfő,46.866106,20.052098,2026-03-10 10:10:55.571228,12.73,11.23,12.73,12.73,1026,45,6.78,173,64,0.0,Clouds,broken clouds,9
Csongrádi úti tanyák,46.690278,19.921667,2026-03-10 10:10:56.803634,12.76,11.27,12.76,12.76,1026,45,6.93,173,58,0.0,Clouds,broken clouds,9
Kettőshalom,46.689167,20.0225,2026-03-10 10:10:58.044246,12.9,11.37,12.9,12.9,1025,43,7.07,173,45,0.0,Clouds,scattered clouds,9
Csongrád alsó,46.711389,20.126389,2026-03-10 10:10:59.279064,12.96,11.38,12.96,12.96,1025,41,7.11,173,33,0.0,Clouds,scattered clouds,9
Dónát,46.66988,20.368168,2026-03-10 10:11:00.517909,13.22,11.72,13.22,13.22,1026,43,6.95,171,12,0.0,Clouds,few clouds,9
Pusztatemplom,46.676667,20.407222,2026-03-10 10:11:01.749279,13.24,11.74,13.24,13.24,1026,43,6.79,171,12,0.0,Clouds,few clouds,9
Előhát,47.364722,20.653611,2026-03-10 10:11:02.985358,12.6,11.06,12.6,12.6,1026,44,5.36,173,16,0.0,Clouds,few clouds,9
Polgárdi-Tekerespuszta,47.017778,18.297778,2026-03-10 10:11:04.242646,12.23,11.08,12.23,12.23,1024,60,3.21,158,96,0.0,Clouds,overcast clouds,9
Szatina-Kishajmás,46.202778,18.083611,2026-03-10 10:11:05.489011,12.16,11.02,12.16,12.16,1025,61,2.36,172,100,0.0,Clouds,overcast clouds,9
Márok,45.886944,18.499167,2026-03-10 10:11:06.730261,12.59,11.55,12.59,12.59,1025,63,2.43,160,84,0.0,Clouds,broken clouds,9
Nagynyárád,45.953333,18.564722,2026-03-10 10:11:07.970565,12.54,11.47,12.54,12.54,1025,62,2.59,163,92,0.0,Clouds,overcast clouds,9
Szászvár,46.2875,18.369722222222222,2026-03-10 10:11:09.206583,11.99,10.84,11.99,11.99,1025,61,2.39,169,100,0.0,Clouds,overcast clouds,9
Cikó,46.263514,18.557605,2026-03-10 10:11:10.453392,12.24,11.09,12.24,12.24,1025,60,3.35,169,100,0.0,Clouds,overcast clouds,9
