station_name,station_lat,station_lon,observation_time,temp,feels_like,temp_min,temp_max,pressure,humidity,wind_speed,wind_deg,clouds,precipitation_1h,weather_main,weather_description,collection_hour
Búcsúszentlászló,46.793056,16.932778,2026-03-10 13:15:30.494857,16.84,15.73,16.84,16.84,1021,44,5.52,197,37,0.0,Clouds,scattered clouds,13
Angyalföld,47.549722,19.09,2026-03-10 13:15:31.762600,15.79,14.63,14.82,16.62,1022,46,4.12,110,0,0.0,Clear,clear sky,13
Felsőjánosfa,46.841389,16.544167,2026-03-10 13:15:33.042257,16.67,15.57,16.67,16.67,1021,45,5.88,196,27,0.0,Clouds,scattered clouds,13
Pankasz,46.835833,16.496111,2026-03-10 13:15:34.296236,16.4,15.27,16.4,16.4,1021,45,6.2,198,31,0.0,Clouds,scattered clouds,13
Nagyrákos,46.827222,16.455556,2026-03-10 13:15:35.596864,16.37,15.24,16.37,16.37,1021,45,6.34,198,33,0.0,Clouds,scattered clouds,13
Őriszentpéter,46.828889,16.415278,2026-03-10 13:15:36.862426,16.49,15.37,16.49,16.49,1021,45,6.53,201,36,0.0,Clouds,scattered clouds,13
Törökbálint,47.45,18.908611,2026-03-10 13:15:38.127963,15.47,14.3,14.6,16.39,1022,47,0.89,126,33,0.0,Clouds,scattered clouds,13
Bicske alsó,47.486389,18.642778,2026-03-10 13:15:39.403942,14.49,13.22,14.49,15.23,1023,47,4.8,150,17,0.0,Clouds,few clouds,13
Bajánsenye,46.818056,16.358056,2026-03-10 13:15:40.665257,16.61,15.5,16.61,16.61,1021,45,6.63,203,39,0.0,Clouds,scattered clouds,13
Aquincum,47.566218,19.048273,2026-03-10 13:15:41.930576,15.69,14.54,14.85,16.64,1022,47,2.24,43,27,0.0,Clouds,scattered clouds,13
Piliscsév,47.673889,18.791389,2026-03-10 13:15:43.205863,14.54,13.33,14.43,16.23,1023,49,3.82,148,9,0.0,Clear,clear sky,13
Tát,47.741201,18.64783,2026-03-10 13:15:44.470884,14.84,13.61,14.84,14.84,1023,47,4.28,147,15,0.0,Clouds,few clouds,13
Süttő felső,47.756667,18.437222,2026-03-10 13:15:45.738020,15.95,14.85,15.95,15.95,1023,48,5.06,149,14,0.0,Clouds,few clouds,13
Budatétény,47.405,19.016389,2026-03-10 13:15:46.971314,16.18,15.05,14.89,16.68,1022,46,4.12,110,0,0.0,Clear,clear sky,13
Seregélyes-Szőlőhegy,47.119444,18.612222,2026-03-10 13:15:48.235710,15.72,14.57,15.72,15.72,1023,47,3.91,164,70,0.0,Clouds,broken clouds,13
Gödöllő-Állami telepek,47.564444,19.375556,2026-03-10 13:15:49.503628,14.91,13.61,14.74,16.13,1023,44,4.12,110,0,0.0,Clear,clear sky,13
Dunakeszi alsó,47.607778,19.128889,2026-03-10 13:15:50.767686,15.68,14.5,14.82,16.61,1022,46,2.24,43,62,0.0,Clouds,broken clouds,13
Vác-Alsóváros,47.773056,19.149722,2026-03-10 13:15:52.034300,15.51,14.34,14.8,15.51,1023,47,4.0,155,36,0.0,Clouds,scattered clouds,13
Szob alsó,47.816667,18.8725,2026-03-10 13:15:53.265405,14.83,13.6,14.83,14.83,1023,47,3.24,148,13,0.0,Clouds,few clouds,13
Zalaszentmihály-Pacsa,46.7225,16.951944,2026-03-10 13:15:54.534124,16.75,15.66,16.75,16.75,1022,45,4.63,180,0,0.0,Clear,clear sky,13
Pötréte,46.682778,16.9575,2026-03-10 13:15:55.801979,16.75,15.66,16.75,16.75,1022,45,4.63,180,0,0.0,Clear,clear sky,13
Felsőrajk,46.667222,16.982778,2026-03-10 13:15:57.069545,16.81,15.72,16.81,16.81,1022,45,4.63,180,0,0.0,Clear,clear sky,13
Gelse,46.600556,16.982778,2026-03-10 13:15:58.328761,16.81,15.72,16.81,16.81,1022,45,4.63,180,0,0.0,Clear,clear sky,13
Őrtilos,46.297778,16.887778,2026-03-10 13:15:59.585057,17.0,15.93,17.0,17.0,1022,45,4.73,209,81,0.0,Clouds,broken clouds,13
Zákány,46.251944,16.9425,2026-03-10 13:16:00.858447,16.74,15.67,16.74,16.74,1022,46,4.69,211,84,0.0,Clouds,broken clouds,13
Berzence,46.201389,17.143611,2026-03-10 13:16:02.127086,17.0,15.9,17.0,17.0,1022,44,4.04,212,84,0.0,Clouds,broken clouds,13
Somogyudvarhely,46.163333,17.179722,2026-03-10 13:16:03.398399,16.97,15.87,16.97,16.97,1022,44,3.79,211,85,0.0,Clouds,overcast clouds,13
Bélavár,46.122778,17.207778,2026-03-10 13:16:04.665434,17.03,15.91,17.03,17.03,1022,43,3.4,208,87,0.0,Clouds,overcast clouds,13
Vízvár,46.101389,17.239444,2026-03-10 13:16:05.923939,16.94,15.81,16.94,16.94,1022,43,3.2,205,88,0.0,Clouds,overcast clouds,13
Babócsa,46.028359,17.342276,2026-03-10 13:16:07.189032,16.94,15.81,16.94,16.94,1022,43,2.73,199,93,0.0,Clouds,overcast clouds,13
Péterhida-Komlósd,46.006667,17.358056,2026-03-10 13:16:08.420169,17.0,15.85,17.0,17.0,1022,42,2.46,197,95,0.0,Clouds,overcast clouds,13
Barcs,45.951944,17.446944,2026-03-10 13:16:09.689459,17.0,15.88,17.0,17.0,1022,43,1.48,185,99,0.0,Clouds,overcast clouds,13
Barcs felső,45.958333,17.486389,2026-03-10 13:16:10.946596,16.87,15.74,16.87,16.87,1022,43,1.36,175,99,0.0,Clouds,overcast clouds,13
Középrigóc,45.970556,17.525,2026-03-10 13:16:12.215958,16.74,15.59,16.74,16.74,1022,43,1.31,165,100,0.0,Clouds,overcast clouds,13
Darány,45.992222,17.598611,2026-03-10 13:16:13.479426,16.49,15.4,16.49,16.49,1023,46,1.7,148,100,0.0,Clouds,overcast clouds,13
Kisdobsza,46.012222,17.668056,2026-03-10 13:16:14.735697,16.33,15.27,16.33,16.33,1023,48,1.98,148,100,0.0,Clouds,overcast clouds,13
Nemeske,46.023333,17.705278,2026-03-10 13:16:16.004835,16.27,15.21,16.27,16.27,1023,48,2.01,145,100,0.0,Clouds,overcast clouds,13
Molvány,46.035278,17.748611,2026-03-10 13:16:17.261387,16.11,15.08,16.11,16.11,1023,50,2.12,150,100,0.0,Clouds,overcast clouds,13
Szigetvár,46.043333,17.801944,2026-03-10 13:16:18.529889,16.04,15.01,16.04,16.04,1023,50,2.11,150,100,0.0,Clouds,overcast clouds,13
Nagypeterd,46.039444,17.871667,2026-03-10 13:16:19.800776,16.53,15.54,16.53,16.53,1023,50,2.08,150,98,0.0,Clouds,overcast clouds,13
Szentdénes,46.036667,17.926944,2026-03-10 13:16:21.061080,16.48,15.49,16.48,16.48,1023,50,2.07,151,97,0.0,Clouds,overcast clouds,13
Háros,47.412222,19.035,2026-03-10 13:16:22.330929,16.65,15.55,14.85,17.1,1022,45,4.12,110,0,0.0,Clear,clear sky,13
Nagytétény-Diósd,47.398333,18.974444,2026-03-10 13:16:23.587083,16.69,15.59,14.88,17.13,1023,45,2.24,156,56,0.0,Clouds,broken clouds,13
Érdliget,47.390278,18.937778,2026-03-10 13:16:24.856602,16.5,15.38,14.8,17.05,1023,45,2.24,156,51,0.0,Clouds,broken clouds,13
Érd felső,47.381111,18.922222,2026-03-10 13:16:26.124453,16.44,15.31,14.76,17.01,1023,45,2.24,156,46,0.0,Clouds,scattered clouds,13
Érd,47.369722,18.900833,2026-03-10 13:16:27.382935,16.37,15.24,14.73,16.98,1023,45,3.8,156,54,0.0,Clouds,broken clouds,13
Százhalombatta,47.322222,18.899167,2026-03-10 13:16:28.648115,16.53,15.36,14.71,16.96,1023,43,3.82,158,68,0.0,Clouds,broken clouds,13
Dunai Finomító,47.294444,18.878889,2026-03-10 13:16:29.904463,16.78,15.64,15.29,16.8,1023,43,3.91,158,65,0.0,Clouds,broken clouds,13
Ercsi,47.247222,18.875278,2026-03-10 13:16:31.173027,17.02,15.98,15.52,17.03,1023,46,3.89,159,70,0.0,Clouds,broken clouds,13
Iváncsa,47.177778,18.811944,2026-03-10 13:16:32.427275,15.53,14.34,15.53,15.53,1023,46,3.85,163,75,0.0,Clouds,broken clouds,13
Pusztaszabolcs,47.139722,18.761667,2026-03-10 13:16:33.682532,15.63,14.45,15.63,15.63,1023,46,3.83,165,80,0.0,Clouds,broken clouds,13
Szabadegyháza,47.082778,18.704167,2026-03-10 13:16:34.952024,15.63,14.48,15.63,15.63,1023,47,3.86,167,88,0.0,Clouds,overcast clouds,13
Sárosd,47.039722,18.660278,2026-03-10 13:16:36.216100,15.72,14.57,15.72,15.72,1023,47,3.9,167,94,0.0,Clouds,overcast clouds,13
Nagylók,46.979444,18.635833,2026-03-10 13:16:37.482204,15.57,14.41,15.57,15.57,1023,47,3.87,167,100,0.0,Clouds,overcast clouds,13
Sárbogárd,46.896944,18.611944,2026-03-10 13:16:38.739262,15.79,14.68,15.79,15.79,1023,48,3.78,167,100,0.0,Clouds,overcast clouds,13
Rétszilas,46.814167,18.601389,2026-03-10 13:16:39.996564,15.83,14.72,15.83,15.83,1023,48,3.65,166,100,0.0,Clouds,overcast clouds,13
Nagyatád,46.228611,17.354167,2026-03-10 13:16:41.262486,16.84,15.68,16.84,16.84,1022,42,3.39,202,89,0.0,Clouds,overcast clouds,13
Budapest-Keleti,47.500278,19.084167,2026-03-10 13:16:42.519134,16.19,15.04,14.8,17.05,1023,45,4.12,110,0,0.0,Clear,clear sky,13
Ferencváros,47.468611,19.088056,2026-03-10 13:16:43.777629,16.33,15.19,14.82,17.07,1023,45,4.12,110,0,0.0,Clear,clear sky,13
Budapest-Nyugati,47.510833,19.0575,2026-03-10 13:16:45.009224,16.09,14.93,14.81,17.06,1023,45,4.12,110,0,0.0,Clear,clear sky,13
Kőbánya felső,47.491944,19.133889,2026-03-10 13:16:46.241102,16.02,14.85,14.74,16.99,1023,45,4.12,110,0,0.0,Clear,clear sky,13
Rákos,47.488889,19.174722,2026-03-10 13:16:47.471006,15.82,14.63,14.7,16.95,1023,45,4.12,110,0,0.0,Clear,clear sky,13
Rákosrendező,47.525556,19.089444,2026-03-10 13:16:48.726132,16.02,14.85,14.84,17.09,1023,45,4.12,110,0,0.0,Clear,clear sky,13
Zugló,47.511389,19.101389,2026-03-10 13:16:49.980731,16.09,14.93,14.8,17.05,1023,45,4.12,110,0,0.0,Clear,clear sky,13
Mezőtárkány,47.725,20.480278,2026-03-10 13:16:51.214728,17.68,16.57,17.68,17.68,1024,41,4.89,182,100,0.0,Clouds,overcast clouds,13
Istvántelek,47.550278,19.106389,2026-03-10 13:16:52.449380,15.83,14.67,14.83,17.08,1022,46,4.12,110,0,0.0,Clear,clear sky,13
Rákospalota-Újpest,47.565833,19.111944,2026-03-10 13:16:53.681547,15.77,14.6,14.82,17.07,1022,46,4.12,110,0,0.0,Clear,clear sky,13
Kőbánya alsó,47.483056,19.127222,2026-03-10 13:16:54.938124,16.08,14.92,14.75,17.0,1023,45,4.12,110,0,0.0,Clear,clear sky,13
Kőbánya-Kispest,47.463889,19.149444,2026-03-10 13:16:56.203402,16.0,14.83,14.75,17.0,1023,45,4.12,110,0,0.0,Clear,clear sky,13
Pestszentlőrinc,47.454722,19.182778,2026-03-10 13:16:57.428070,15.74,14.52,14.63,16.88,1023,44,4.12,110,0,0.0,Clear,clear sky,13
Kispest,47.448135,19.157552,2026-03-10 13:16:58.662068,15.98,14.78,14.76,17.01,1023,44,4.12,110,0,0.0,Clear,clear sky,13
Újpest,47.558889,19.079722,2026-03-10 13:16:59.891601,15.78,14.61,14.83,17.08,1022,46,4.12,110,0,0.0,Clear,clear sky,13
Pestszentimre felső,47.413611,19.173333,2026-03-10 13:17:01.156787,15.96,14.76,14.78,17.03,1023,44,4.12,110,0,0.0,Clear,clear sky,13
Dunakeszi,47.626111,19.136111,2026-03-10 13:17:02.411651,15.56,14.37,14.73,16.98,1023,46,2.24,43,59,0.0,Clouds,broken clouds,13
Dunakeszi-Gyártelep,47.643611,19.135,2026-03-10 13:17:03.648680,15.57,14.38,14.77,17.02,1023,46,3.38,159,55,0.0,Clouds,broken clouds,13
Alsógöd,47.676944,19.134444,2026-03-10 13:17:04.881930,15.51,14.32,14.76,17.01,1023,46,3.5,158,51,0.0,Clouds,broken clouds,13
Göd,47.687778,19.1375,2026-03-10 13:17:06.137596,15.52,14.33,14.78,17.03,1023,46,3.5,158,51,0.0,Clouds,broken clouds,13
Felsőgöd,47.705556,19.143333,2026-03-10 13:17:07.403919,15.52,14.33,14.83,16.62,1023,46,3.62,157,47,0.0,Clouds,scattered clouds,13
Sződ-Sződliget,47.728056,19.154722,2026-03-10 13:17:08.661103,15.5,14.31,14.82,16.62,1023,46,3.75,156,44,0.0,Clouds,scattered clouds,13
Vác,47.782778,19.133056,2026-03-10 13:17:09.891413,15.51,14.34,14.8,15.51,1023,47,4.0,155,36,0.0,Clouds,scattered clouds,13
Verőce,47.823889,19.029444,2026-03-10 13:17:11.126405,15.35,14.17,14.63,15.35,1023,47,3.64,152,17,0.0,Clouds,few clouds,13
Kismaros,47.8275,19.010278,2026-03-10 13:17:12.381397,14.76,13.52,14.76,14.76,1023,47,3.52,151,16,0.0,Clouds,few clouds,13
Nagymaros-Visegrád,47.791389,18.959167,2026-03-10 13:17:13.653440,14.78,13.54,14.78,15.5,1023,47,3.21,152,14,0.0,Clouds,few clouds,13
Nagymaros,47.780278,18.952222,2026-03-10 13:17:14.923058,14.86,13.63,14.86,15.57,1023,47,3.21,152,14,0.0,Clouds,few clouds,13
Zebegény,47.801389,18.908889,2026-03-10 13:17:16.162339,14.83,13.6,14.83,15.55,1023,47,3.24,150,14,0.0,Clouds,few clouds,13
Szob,47.821111,18.861944,2026-03-10 13:17:17.405343,14.79,13.55,14.79,14.79,1023,47,3.25,148,14,0.0,Clouds,few clouds,13
Alagimajor,47.601944,19.153889,2026-03-10 13:17:18.666964,15.66,14.48,14.77,17.02,1022,46,4.12,110,0,0.0,Clear,clear sky,13
Fót,47.611389,19.181667,2026-03-10 13:17:19.936117,15.55,14.36,14.67,16.92,1023,46,3.43,160,69,0.0,Clouds,broken clouds,13
Fótújfalu,47.615,19.192778,2026-03-10 13:17:21.193067,15.45,14.25,14.56,16.81,1023,46,3.43,160,69,0.0,Clouds,broken clouds,13
Csomád,47.635556,19.222778,2026-03-10 13:17:22.429381,15.15,13.92,14.29,16.54,1023,46,3.58,160,78,0.0,Clouds,broken clouds,13
Veresegyház,47.649167,19.288611,2026-03-10 13:17:23.661339,15.18,13.95,14.84,16.24,1023,46,4.13,159,92,0.0,Clouds,overcast clouds,13
Erdőkertes,47.662222,19.295833,2026-03-10 13:17:24.923766,15.13,13.9,14.8,16.19,1023,46,4.13,159,92,0.0,Clouds,overcast clouds,13
Őrbottyán,47.685833,19.283611,2026-03-10 13:17:26.187058,15.03,13.79,14.71,16.11,1023,46,4.27,158,87,0.0,Clouds,overcast clouds,13
Váchartyán,47.725833,19.248889,2026-03-10 13:17:27.442555,15.39,14.19,15.39,15.39,1023,46,4.39,156,71,0.0,Clouds,broken clouds,13
Magyarkút-Verőce,47.826111,19.044444,2026-03-10 13:17:28.679228,15.51,14.34,15.51,15.51,1023,47,3.64,152,17,0.0,Clouds,few clouds,13
Szokolya,47.871111,19.030556,2026-03-10 13:17:29.910548,14.09,12.78,14.09,14.09,1023,47,3.94,151,16,0.0,Clouds,few clouds,13
Berkenye,47.885278,19.071944,2026-03-10 13:17:31.175587,14.79,13.55,14.79,14.79,1023,47,4.09,151,16,0.0,Clouds,few clouds,13
Nógrád,47.901944,19.0475,2026-03-10 13:17:32.443178,14.45,13.18,14.45,14.45,1023,47,4.08,150,16,0.0,Clouds,few clouds,13
Diósjenő,47.94,19.049444,2026-03-10 13:17:33.701329,14.08,12.77,14.08,14.08,1023,47,4.24,149,15,0.0,Clouds,few clouds,13
Borsosberény,47.971389,19.093056,2026-03-10 13:17:34.967412,14.76,13.52,14.76,14.76,1023,47,4.68,149,8,0.0,Clear,clear sky,13
Nagyoroszi,47.993611,19.101111,2026-03-10 13:17:36.234580,14.62,13.36,14.62,14.62,1023,47,4.77,148,5,0.0,Clear,clear sky,13
Drégelyvár,48.001944,19.079444,2026-03-10 13:17:37.494177,14.89,13.66,14.89,14.89,1023,47,4.76,146,8,0.0,Clear,clear sky,13
Drégely,48.042222,19.056111,2026-03-10 13:17:38.765238,15.27,14.08,15.27,15.27,1023,47,4.87,145,6,0.0,Clear,clear sky,13
Drégelypalánk,48.055,19.046111,2026-03-10 13:17:40.023352,15.44,14.27,15.44,15.44,1023,47,4.88,143,7,0.0,Clear,clear sky,13
Ipolyvece,48.056944,19.106389,2026-03-10 13:17:41.279577,15.38,14.2,15.38,15.38,1023,47,4.99,145,0,0.0,Clear,clear sky,13
Dejtár,48.045556,19.196389,2026-03-10 13:17:42.505827,15.26,14.07,15.26,15.26,1023,47,4.87,147,0,0.0,Clear,clear sky,13
Ipolyszög,48.054444,19.221944,2026-03-10 13:17:43.773793,15.27,14.08,15.27,15.27,1023,47,4.82,147,0,0.0,Clear,clear sky,13
Iklad-Domony,47.658056,19.444444,2026-03-10 13:17:45.052727,15.1,13.87,15.1,15.1,1023,46,4.47,159,100,0.0,Clouds,overcast clouds,13
Iklad-Domony felső,47.667778,19.428056,2026-03-10 13:17:46.314426,15.09,13.86,15.09,15.4,1023,46,4.51,158,98,0.0,Clouds,overcast clouds,13
Galgamácsa,47.693889,19.3925,2026-03-10 13:17:47.587756,15.39,14.19,15.39,15.39,1023,46,4.54,157,90,0.0,Clouds,overcast clouds,13
Vácrátót,47.732778,19.217778,2026-03-10 13:17:48.821201,15.31,14.1,15.31,15.31,1023,46,4.1,156,58,0.0,Clouds,broken clouds,13
Csörög,47.735833,19.196389,2026-03-10 13:17:50.085896,15.31,14.1,14.6,16.39,1023,46,3.92,156,51,0.0,Clouds,broken clouds,13
Galgagyörk,47.735278,19.372222,2026-03-10 13:17:51.355636,15.29,14.08,15.29,15.29,1023,46,4.63,156,86,0.0,Clouds,overcast clouds,13
Püspökhatvan,47.768611,19.366944,2026-03-10 13:17:52.622268,15.01,13.77,15.01,15.01,1023,46,4.75,154,77,0.0,Clouds,broken clouds,13
Acsa-Erdőkürt,47.801111,19.386111,2026-03-10 13:17:53.884977,14.85,13.59,14.85,14.85,1023,46,4.79,154,73,0.0,Clouds,broken clouds,13
Galgaguta,47.848611,19.385556,2026-03-10 13:17:55.110045,14.56,13.27,14.56,14.56,1023,46,4.79,153,62,0.0,Clouds,broken clouds,13
Nógrádkövesd,47.879444,19.371111,2026-03-10 13:17:56.365882,14.73,13.46,14.73,14.73,1023,46,4.75,153,57,0.0,Clouds,broken clouds,13
Magyarnándor,47.970833,19.356667,2026-03-10 13:17:57.631351,14.63,13.38,14.63,14.63,1023,47,4.64,152,32,0.0,Clouds,scattered clouds,13
Mohora,47.995556,19.347778,2026-03-10 13:17:58.899966,14.75,13.51,14.75,14.75,1023,47,4.58,151,27,0.0,Clouds,scattered clouds,13
Szügy,48.036389,19.333056,2026-03-10 13:18:00.158053,15.0,13.78,15.0,15.0,1023,47,4.49,151,19,0.0,Clouds,few clouds,13
Balassagyarmat,48.071111,19.293611,2026-03-10 13:18:01.423048,15.13,13.93,15.13,15.13,1023,47,4.54,150,8,0.0,Clear,clear sky,13
Őrhalom,48.078773,19.403936,2026-03-10 13:18:02.683503,14.83,13.6,14.83,14.83,1024,47,3.99,154,42,0.0,Clouds,scattered clouds,13
Hugyag,48.083056,19.421111,2026-03-10 13:18:03.947247,14.83,13.6,14.83,14.83,1024,47,3.99,154,42,0.0,Clouds,scattered clouds,13
Szécsény,48.093056,19.521111,2026-03-10 13:18:05.213685,15.0,13.76,15.0,15.0,1024,46,3.56,159,70,0.0,Clouds,broken clouds,13
Ludányhalászi,48.1325,19.529444,2026-03-10 13:18:06.482472,15.0,13.76,15.0,15.0,1024,46,3.33,159,62,0.0,Clouds,broken clouds,13
Nógrádszakál,48.178333,19.521667,2026-03-10 13:18:07.748877,14.97,13.72,14.97,14.97,1024,46,3.23,159,58,0.0,Clouds,broken clouds,13
Ráróspuszta,48.207222,19.541389,2026-03-10 13:18:09.005583,14.45,13.15,14.45,14.45,1024,46,3.05,158,52,0.0,Clouds,broken clouds,13
Litke,48.215833,19.598611,2026-03-10 13:18:10.268371,14.93,13.68,14.93,14.93,1024,46,2.64,163,76,0.0,Clouds,broken clouds,13
Nyíregyháza külső,47.943056,21.740278,2026-03-10 13:18:11.543378,15.43,13.86,15.43,15.43,1025,32,4.33,197,8,0.0,Clear,clear sky,13
Oros,47.945833,21.806389,2026-03-10 13:18:12.803398,15.53,13.95,15.53,15.53,1025,31,4.22,195,7,0.0,Clear,clear sky,13
Napkor,47.948889,21.873056,2026-03-10 13:18:14.068948,15.61,14.01,15.61,15.61,1025,30,3.98,188,6,0.0,Clear,clear sky,13
Apagy,47.953775,21.939044,2026-03-10 13:18:15.327654,15.66,14.06,15.66,15.66,1025,30,3.93,185,6,0.0,Clear,clear sky,13
Levelek-Magy,47.948056,21.993611,2026-03-10 13:18:16.598308,15.71,14.09,15.71,15.71,1025,29,3.83,181,5,0.0,Clear,clear sky,13
Ófehértó,47.940556,22.041389,2026-03-10 13:18:17.872425,15.71,14.09,15.71,15.71,1025,29,3.76,181,5,0.0,Clear,clear sky,13
Ligettanya,47.951667,22.071389,2026-03-10 13:18:19.136078,15.69,14.07,15.69,15.69,1025,29,3.72,176,6,0.0,Clear,clear sky,13
Baktalórántháza,47.988611,22.083333,2026-03-10 13:18:20.400436,15.67,14.05,15.67,15.67,1025,29,3.75,174,6,0.0,Clear,clear sky,13
Vaja-Rohod,48.006389,22.164167,2026-03-10 13:18:21.656630,15.76,14.15,15.76,15.76,1025,29,3.72,172,6,0.0,Clear,clear sky,13
Rákóczitanya,48.022222,22.178333,2026-03-10 13:18:22.921739,15.79,14.18,15.79,15.79,1025,29,3.71,171,6,0.0,Clear,clear sky,13
Nyírmada,48.059167,22.203056,2026-03-10 13:18:24.199748,15.75,14.16,15.75,15.75,1025,30,3.71,170,6,0.0,Clear,clear sky,13
Tunyogmatolcs,47.960244,22.442247,2026-03-10 13:18:25.548995,16.43,14.78,16.43,16.43,1025,25,3.67,161,8,0.0,Clear,clear sky,13
Tunyogmatolcs alsó,47.966025,22.464713,2026-03-10 13:18:26.823785,16.46,14.79,16.46,16.46,1025,24,3.71,160,9,0.0,Clear,clear sky,13
Fehérgyarmat,47.979167,22.524444,2026-03-10 13:18:28.088021,16.52,14.85,16.52,16.52,1025,24,3.92,156,11,0.0,Clouds,few clouds,13
Penyige,47.995278,22.566944,2026-03-10 13:18:29.351659,16.57,14.91,16.57,16.57,1025,24,3.99,155,11,0.0,Clouds,few clouds,13
Nagyszekeres,47.976111,22.6125,2026-03-10 13:18:30.620078,16.61,14.93,16.61,16.61,1025,23,4.06,154,12,0.0,Clouds,few clouds,13
Kisszekeres,47.965833,22.629444,2026-03-10 13:18:31.898578,16.64,14.96,16.64,16.64,1025,23,4.01,154,12,0.0,Clouds,few clouds,13
Jánkmajtis,47.941944,22.657222,2026-03-10 13:18:33.173179,16.7,15.0,16.7,16.7,1025,22,4.03,153,12,0.0,Clouds,few clouds,13
Gacsály,47.926111,22.745,2026-03-10 13:18:34.438943,17.82,16.23,17.82,18.03,1025,22,4.27,151,15,0.0,Clouds,few clouds,13
Zajta,47.9025,22.796111,2026-03-10 13:18:35.716029,17.81,16.19,17.81,18.03,1025,21,4.35,149,16,0.0,Clouds,few clouds,13
Eperjeske alsó,48.360556,22.19,2026-03-10 13:18:36.986751,15.71,14.2,15.71,15.71,1025,33,3.8,175,0,0.0,Clear,clear sky,13
Mándok,48.326944,22.196389,2026-03-10 13:18:38.248902,15.71,14.17,15.71,15.71,1025,32,3.69,174,0,0.0,Clear,clear sky,13
Tornyospálca,48.268333,22.201944,2026-03-10 13:18:39.505143,15.76,14.23,15.76,15.76,1025,32,3.63,173,4,0.0,Clear,clear sky,13
Aranyosapáti,48.211303,22.253534,2026-03-10 13:18:40.768201,15.93,14.36,15.93,15.93,1025,30,3.72,171,8,0.0,Clear,clear sky,13
Gyüre,48.171389,22.269167,2026-03-10 13:18:42.037574,15.96,14.37,15.96,15.96,1025,29,3.71,170,8,0.0,Clear,clear sky,13
Varsány,48.151722,22.290047,2026-03-10 13:18:43.307908,16.03,14.45,16.03,16.03,1025,29,3.74,169,8,0.0,Clear,clear sky,13
Vásárosnamény,48.126667,22.306111,2026-03-10 13:18:44.574118,16.07,14.46,16.07,16.07,1025,28,3.73,168,7,0.0,Clear,clear sky,13
Vitka,48.095556,22.308056,2026-03-10 13:18:45.833933,16.09,14.49,16.09,16.09,1025,28,3.71,168,7,0.0,Clear,clear sky,13
Nagydobos,48.054167,22.311111,2026-03-10 13:18:47.094269,16.05,14.42,16.05,16.05,1025,27,3.71,168,6,0.0,Clear,clear sky,13
Ópályi,47.997778,22.318333,2026-03-10 13:18:48.360749,16.13,14.48,16.13,16.13,1025,26,3.64,167,7,0.0,Clear,clear sky,13
Nyírcsaholy,47.908056,22.348333,2026-03-10 13:18:49.630579,16.34,14.68,16.34,16.34,1025,25,3.47,166,8,0.0,Clear,clear sky,13
Nagyecsed,47.864722,22.385556,2026-03-10 13:18:50.890532,16.48,14.81,16.48,16.48,1025,24,3.31,164,9,0.0,Clear,clear sky,13
Tiborszállás,47.815278,22.402778,2026-03-10 13:18:52.150795,16.54,14.88,16.54,16.54,1025,24,3.08,167,10,0.0,Clear,clear sky,13
Kiskunhalas,46.434444,19.493611,2026-03-10 13:18:53.407065,15.88,14.62,15.88,15.88,1024,42,4.82,172,99,0.0,Clouds,overcast clouds,13
Kecskemét alsó,46.895833,19.692222,2026-03-10 13:18:54.670357,15.99,14.66,15.99,17.66,1023,39,4.63,140,0,0.0,Clear,clear sky,13
Putnok,48.286667,20.4375,2026-03-10 13:18:55.938341,14.83,13.47,14.83,14.83,1024,42,3.57,183,100,0.0,Clouds,overcast clouds,13
Bánréve,48.299722,20.351944,2026-03-10 13:18:57.166034,14.93,13.6,14.93,14.93,1024,43,3.59,184,100,0.0,Clouds,overcast clouds,13
Ipolytarnóc,48.236667,19.629167,2026-03-10 13:18:58.403813,15.03,13.79,15.03,15.03,1024,46,2.45,164,82,0.0,Clouds,broken clouds,13
Rákosliget,47.486111,19.257778,2026-03-10 13:18:59.665777,15.52,14.28,14.62,16.87,1023,44,4.12,110,0,0.0,Clear,clear sky,13
Ikrény,47.657778,17.524167,2026-03-10 13:19:00.923701,17.08,16.07,17.08,17.08,1021,47,6.53,182,13,0.0,Clouds,few clouds,13
Rábapatona,47.648889,17.461944,2026-03-10 13:19:02.160800,17.1,16.09,17.1,17.1,1021,47,6.69,181,13,0.0,Clouds,few clouds,13
Enese,47.644167,17.425278,2026-03-10 13:19:03.387768,17.1,16.09,17.1,17.1,1021,47,6.77,180,12,0.0,Clouds,few clouds,13
Kóny,47.632222,17.357222,2026-03-10 13:19:04.626765,16.78,15.74,16.78,16.78,1021,47,6.78,180,12,0.0,Clouds,few clouds,13
Farád,47.595278,17.195833,2026-03-10 13:19:05.883055,17.23,16.21,17.23,17.23,1021,46,6.8,182,10,0.0,Clear,clear sky,13
Rábatamási,47.592778,17.161389,2026-03-10 13:19:07.120130,17.23,16.21,17.23,17.23,1021,46,6.8,182,10,0.0,Clear,clear sky,13
Szárföld,47.589167,17.123889,2026-03-10 13:19:08.379721,17.21,16.19,17.21,17.21,1021,46,6.82,183,10,0.0,Clear,clear sky,13
Veszkény,47.586944,17.101389,2026-03-10 13:19:09.608208,17.22,16.07,17.22,17.22,1021,41,6.83,184,10,0.0,Clear,clear sky,13
Kapuvár,47.581944,17.046944,2026-03-10 13:19:10.843083,17.2,16.05,17.2,17.2,1021,41,6.83,187,10,0.0,Clear,clear sky,13
Vitnyéd-Csermajor,47.5825,16.987222,2026-03-10 13:19:12.109806,17.21,16.06,17.21,17.21,1020,41,6.86,190,10,0.0,Clear,clear sky,13
Petőháza,47.595278,16.893056,2026-03-10 13:19:13.353935,17.16,16.0,17.16,17.16,1020,41,6.87,192,9,0.0,Clear,clear sky,13
Fertőszentmiklós,47.6,16.858889,2026-03-10 13:19:14.588118,17.16,16.0,17.16,17.27,1020,41,6.84,192,10,0.0,Clear,clear sky,13
Pinnye,47.600278,16.768611,2026-03-10 13:19:15.851547,17.04,15.87,17.04,17.15,1020,41,6.58,194,10,0.0,Clear,clear sky,13
Fertőboz,47.625,16.691667,2026-03-10 13:19:17.081280,16.88,15.69,16.88,16.99,1020,41,6.38,193,10,0.0,Clear,clear sky,13
Sopron,47.677778,16.587222,2026-03-10 13:19:18.344646,16.58,15.49,16.58,16.69,1020,46,6.11,188,10,0.0,Clear,clear sky,13
Fertőszéplak-Fertőd,47.618889,16.850833,2026-03-10 13:19:19.582061,17.18,16.02,17.18,17.29,1020,41,6.77,192,9,0.0,Clear,clear sky,13
Nyúl,47.587778,17.698056,2026-03-10 13:19:20.820413,17.02,15.87,17.02,17.14,1022,42,7.72,140,0,0.0,Clear,clear sky,13
Pannonhalma,47.547778,17.740833,2026-03-10 13:19:22.053434,16.96,15.81,16.96,17.08,1022,42,7.72,140,0,0.0,Clear,clear sky,13
Tarjánpuszta,47.504722,17.789167,2026-03-10 13:19:23.282422,16.73,15.56,16.73,16.84,1022,42,7.72,140,0,0.0,Clear,clear sky,13
Győrasszonyfa,47.4925,17.799167,2026-03-10 13:19:24.539984,16.66,15.48,16.66,16.77,1022,42,7.72,140,0,0.0,Clear,clear sky,13
Veszprémvarsány,47.443333,17.818333,2026-03-10 13:19:25.801663,16.71,15.66,16.71,16.83,1022,47,5.69,175,11,0.0,Clouds,few clouds,13
Bakonyszentlászló,47.395556,17.8175,2026-03-10 13:19:27.036823,16.58,15.52,16.47,16.58,1022,47,5.7,176,12,0.0,Clouds,few clouds,13
Porva-Csesznek,47.326944,17.841111,2026-03-10 13:19:28.273192,15.59,14.46,15.59,15.59,1022,48,5.64,176,15,0.0,Clouds,few clouds,13
Zirc,47.266667,17.878056,2026-03-10 13:19:29.497938,15.9,14.83,15.9,15.9,1022,49,5.46,175,26,0.0,Clouds,scattered clouds,13
Eplény,47.192778,17.921667,2026-03-10 13:19:30.733403,16.03,14.97,16.03,16.03,1022,49,5.04,176,41,0.0,Clouds,scattered clouds,13
Marcaltő,47.4275,17.348889,2026-03-10 13:19:31.990337,17.17,15.96,17.17,17.17,1021,39,7.72,190,0,0.0,Clear,clear sky,13
Szany-Rábaszentandrás,47.460833,17.315278,2026-03-10 13:19:33.252272,17.17,15.96,17.17,17.17,1021,39,7.72,190,0,0.0,Clear,clear sky,13
Egyed-Rábacsanak,47.521944,17.316389,2026-03-10 13:19:34.508353,17.18,16.15,17.18,17.18,1021,46,6.73,180,13,0.0,Clouds,few clouds,13
Rábapordány,47.557222,17.315,2026-03-10 13:19:35.772609,17.18,16.18,17.18,17.18,1021,47,6.74,180,13,0.0,Clouds,few clouds,13
Albertfalva,47.440784,19.033965,2026-03-10 13:19:37.010408,16.64,15.53,14.87,17.12,1022,45,4.12,110,0,0.0,Clear,clear sky,13
Budafok,47.425833,19.041389,2026-03-10 13:19:38.283262,16.66,15.56,14.88,17.13,1022,45,4.12,110,0,0.0,Clear,clear sky,13
Tétényliget,47.384722,18.955278,2026-03-10 13:19:39.541020,16.69,15.59,14.9,17.15,1022,45,2.24,156,51,0.0,Clouds,broken clouds,13
Érd alsó,47.379722,18.923056,2026-03-10 13:19:40.790366,16.44,15.31,14.76,17.01,1023,45,2.24,156,46,0.0,Clouds,scattered clouds,13
Tárnok,47.365556,18.873889,2026-03-10 13:19:42.059240,16.4,15.27,14.83,17.08,1022,45,4.01,155,45,0.0,Clouds,scattered clouds,13
Martonvásár,47.321389,18.781667,2026-03-10 13:19:43.293043,16.69,15.62,14.76,17.01,1022,46,4.05,157,49,0.0,Clouds,scattered clouds,13
Baracska,47.297222,18.753333,2026-03-10 13:19:44.562813,17.11,16.08,15.6,17.11,1022,46,4.02,158,50,0.0,Clouds,scattered clouds,13
Pettend,47.26,18.708889,2026-03-10 13:19:45.819973,15.72,14.55,15.72,15.72,1022,46,4.0,159,45,0.0,Clouds,scattered clouds,13
Kápolnásnyék,47.245556,18.692222,2026-03-10 13:19:47.075208,15.81,14.65,15.81,15.81,1022,46,3.96,160,45,0.0,Clouds,scattered clouds,13
Velence,47.226944,18.663889,2026-03-10 13:19:48.349278,15.91,14.76,15.91,15.91,1022,46,3.99,160,40,0.0,Clouds,scattered clouds,13
Velencefürdő,47.218611,18.648056,2026-03-10 13:19:49.619549,15.9,14.75,15.9,15.9,1023,46,3.95,161,47,0.0,Clouds,scattered clouds,13
Gárdony,47.205833,18.624722,2026-03-10 13:19:50.883293,15.96,14.81,15.96,15.96,1022,46,3.98,161,43,0.0,Clouds,scattered clouds,13
Agárd,47.197666,18.604907,2026-03-10 13:19:52.148009,15.96,14.81,15.96,15.96,1022,46,3.98,161,43,0.0,Clouds,scattered clouds,13
Dinnyés,47.179722,18.560833,2026-03-10 13:19:53.403715,15.98,14.86,15.98,15.98,1023,47,4.01,162,46,0.0,Clouds,scattered clouds,13
Székesfehérvár,47.183611,18.424722,2026-03-10 13:19:54.662341,16.1,14.99,16.1,16.1,1023,47,4.11,164,37,0.0,Clouds,scattered clouds,13
Szabadbattyán,47.105278,18.388333,2026-03-10 13:19:55.925314,16.08,14.97,16.08,16.08,1023,47,4.04,166,49,0.0,Clouds,scattered clouds,13
Kiscséripuszta,47.048056,18.355,2026-03-10 13:19:57.150844,15.79,14.68,15.79,15.79,1023,48,3.99,167,53,0.0,Clouds,broken clouds,13
Lepsény,46.9875,18.248056,2026-03-10 13:19:58.414092,16.01,15.21,13.23,16.01,1022,59,3.91,168,51,0.0,Clouds,broken clouds,13
Balatonaliga,46.984444,18.171389,2026-03-10 13:19:59.678702,15.82,15.0,13.04,15.82,1022,59,3.9,173,44,0.0,Clouds,scattered clouds,13
Balatonvilágos,46.964167,18.157222,2026-03-10 13:20:00.938663,15.86,15.04,13.08,15.86,1022,59,3.85,175,47,0.0,Clouds,scattered clouds,13
Szabadifürdő,46.926111,18.103333,2026-03-10 13:20:02.207916,16.03,15.23,13.25,16.03,1022,59,3.77,177,55,0.0,Clouds,broken clouds,13
Ózd alsó,48.227778,20.306111,2026-03-10 13:20:03.470732,14.8,13.48,14.8,14.8,1024,44,3.81,182,100,0.0,Clouds,overcast clouds,13
Ózd,48.2225,20.294722,2026-03-10 13:20:04.723803,14.8,13.48,14.8,14.8,1024,44,3.81,182,100,0.0,Clouds,overcast clouds,13
Alsóboldva,48.212778,20.792222,2026-03-10 13:20:05.984823,15.12,13.78,15.12,15.12,1024,42,4.82,180,100,0.0,Clouds,overcast clouds,13
Boldva,48.223333,20.790278,2026-03-10 13:20:07.250845,15.12,13.78,15.12,15.12,1024,42,4.82,180,100,0.0,Clouds,overcast clouds,13
Borsodszirák,48.259167,20.770556,2026-03-10 13:20:08.510780,14.63,13.22,14.63,14.63,1024,41,4.65,179,100,0.0,Clouds,overcast clouds,13
Edelény alsó,48.279167,20.760833,2026-03-10 13:20:09.783987,14.63,13.22,14.63,14.63,1024,41,4.65,179,100,0.0,Clouds,overcast clouds,13
Edelény,48.299722,20.749444,2026-03-10 13:20:11.039693,14.62,13.21,14.62,14.62,1024,41,4.63,179,100,0.0,Clouds,overcast clouds,13
Szendrőlád,48.334444,20.731944,2026-03-10 13:20:12.279972,13.64,12.1,13.64,13.64,1024,40,4.47,178,100,0.0,Clouds,overcast clouds,13
Szendrő,48.400725,20.721346,2026-03-10 13:20:13.542700,14.59,13.15,14.59,14.59,1024,40,4.46,178,100,0.0,Clouds,overcast clouds,13
Szendrő felső,48.409907,20.720148,2026-03-10 13:20:14.805042,14.59,13.15,14.59,14.59,1024,40,4.46,178,100,0.0,Clouds,overcast clouds,13
Szalonna,48.449444,20.722222,2026-03-10 13:20:16.062480,14.68,13.22,14.68,14.68,1024,39,4.43,179,100,0.0,Clouds,overcast clouds,13
Perkupa,48.471389,20.691111,2026-03-10 13:20:17.328740,14.0,12.5,14.0,14.0,1024,40,4.1,179,100,0.0,Clouds,overcast clouds,13
Szemeretelep,47.443056,19.214167,2026-03-10 13:20:18.578867,15.67,14.44,14.69,16.94,1023,44,4.12,110,0,0.0,Clear,clear sky,13
Jósvafő-Aggtelek,48.489722,20.693889,2026-03-10 13:20:19.846901,14.34,12.87,14.34,14.34,1024,40,4.07,180,100,0.0,Clouds,overcast clouds,13
Bódvaszilas,48.5375,20.738056,2026-03-10 13:20:21.103741,13.94,12.41,13.94,13.94,1024,39,4.31,181,100,0.0,Clouds,overcast clouds,13
Komjáti,48.5475,20.759722,2026-03-10 13:20:22.362465,13.49,11.91,13.49,13.49,1024,39,4.35,181,100,0.0,Clouds,overcast clouds,13
Tornanádaska,48.558333,20.787222,2026-03-10 13:20:23.614891,14.64,13.15,14.64,14.64,1024,38,4.45,182,100,0.0,Clouds,overcast clouds,13
Onga,48.121111,20.906667,2026-03-10 13:20:24.851341,15.18,13.85,15.18,15.18,1024,42,4.99,185,100,0.0,Clouds,overcast clouds,13
Szikszó-Vásártér,48.193056,20.934722,2026-03-10 13:20:26.121380,15.14,13.78,15.14,15.14,1024,41,4.95,183,100,0.0,Clouds,overcast clouds,13
Szikszó,48.201667,20.941667,2026-03-10 13:20:27.382130,14.6,13.19,14.6,14.6,1024,41,4.92,184,100,0.0,Clouds,overcast clouds,13
Aszaló,48.219867,20.961466,2026-03-10 13:20:28.605551,14.48,13.05,14.48,14.48,1024,41,4.93,184,100,0.0,Clouds,overcast clouds,13
Halmaj,48.246667,20.991667,2026-03-10 13:20:29.860873,14.64,13.2,14.64,14.64,1024,40,4.91,184,100,0.0,Clouds,overcast clouds,13
Csobád,48.277222,21.033889,2026-03-10 13:20:31.119749,14.69,13.23,14.69,14.69,1024,39,4.9,185,99,0.0,Clouds,overcast clouds,13
Ináncs,48.291111,21.057778,2026-03-10 13:20:32.388741,14.66,13.2,14.66,14.66,1024,39,4.82,186,98,0.0,Clouds,overcast clouds,13
Forró-Encs,48.3275,21.117778,2026-03-10 13:20:33.645456,14.63,13.14,14.63,14.63,1024,38,4.79,186,97,0.0,Clouds,overcast clouds,13
Méra,48.363056,21.140278,2026-03-10 13:20:34.909125,14.45,12.92,14.45,14.45,1024,37,4.77,188,98,0.0,Clouds,overcast clouds,13
Novajidrány,48.404444,21.170556,2026-03-10 13:20:36.172980,15.5,14.07,15.5,15.5,1024,37,4.73,189,98,0.0,Clouds,overcast clouds,13
Hernádszurdok,48.487222,21.213889,2026-03-10 13:20:37.433299,15.42,13.96,15.42,15.42,1024,36,4.63,180,0,0.0,Clear,clear sky,13
Hidasnémeti,48.508333,21.229722,2026-03-10 13:20:38.693694,15.43,13.97,15.43,15.43,1024,36,4.63,180,0,0.0,Clear,clear sky,13
Mád,48.19,21.268889,2026-03-10 13:20:39.953778,15.62,14.23,15.62,15.62,1024,38,4.39,189,59,0.0,Clouds,broken clouds,13
Rátka,48.215,21.230278,2026-03-10 13:20:41.186052,15.78,14.41,15.78,15.78,1024,38,4.44,188,70,0.0,Clouds,broken clouds,13
Tállya,48.226944,21.225278,2026-03-10 13:20:42.451130,15.73,14.35,15.73,15.73,1024,38,4.44,188,70,0.0,Clouds,broken clouds,13
Golop,48.242778,21.204167,2026-03-10 13:20:43.710074,15.85,14.48,15.85,15.85,1024,38,4.59,186,84,0.0,Clouds,broken clouds,13
Abaújszántó,48.286944,21.181667,2026-03-10 13:20:44.968559,15.76,14.38,15.76,15.76,1024,38,4.63,187,90,0.0,Clouds,overcast clouds,13
Abaújszántói fürdő,48.268333,21.179722,2026-03-10 13:20:46.235879,15.82,14.45,15.82,15.82,1024,38,4.61,186,88,0.0,Clouds,overcast clouds,13
Abaújkér,48.309444,21.198333,2026-03-10 13:20:47.512449,15.72,14.34,15.72,15.72,1024,38,4.65,187,93,0.0,Clouds,overcast clouds,13
Boldogkőváralja,48.345,21.208889,2026-03-10 13:20:48.749302,15.52,14.09,15.52,15.52,1024,37,4.52,188,89,0.0,Clouds,overcast clouds,13
Korlát-Vizsoly,48.365,21.219167,2026-03-10 13:20:50.063692,15.43,13.99,15.43,15.43,1024,37,4.54,189,91,0.0,Clouds,overcast clouds,13
Fony,48.411389,21.242778,2026-03-10 13:20:51.329980,15.3,13.83,13.05,15.3,1024,36,4.61,190,96,0.0,Clouds,overcast clouds,13
Hejce-Vilmány,48.419444,21.245556,2026-03-10 13:20:52.597043,15.27,13.79,13.01,15.27,1024,36,4.61,190,96,0.0,Clouds,overcast clouds,13
Göncruszka,48.445,21.246944,2026-03-10 13:20:53.821367,15.36,13.89,13.1,15.36,1024,36,4.66,191,98,0.0,Clouds,overcast clouds,13
Gönc,48.470556,21.261389,2026-03-10 13:20:55.175375,15.26,13.78,13.01,15.26,1024,36,4.63,192,98,0.0,Clouds,overcast clouds,13
Zsujta,48.4925,21.265,2026-03-10 13:20:56.434307,15.28,13.8,13.03,15.28,1024,36,4.63,180,0,0.0,Clear,clear sky,13
Bodrogkeresztúr,48.175556,21.354167,2026-03-10 13:20:57.698972,15.89,14.53,15.89,15.89,1025,38,4.34,193,41,0.0,Clouds,scattered clouds,13
Szegi,48.201944,21.387778,2026-03-10 13:20:58.974686,15.93,14.54,13.54,15.93,1025,37,4.32,196,32,0.0,Clouds,scattered clouds,13
Erdőbénye,48.218056,21.401944,2026-03-10 13:21:00.237442,15.9,14.51,13.51,15.9,1025,37,4.31,197,29,0.0,Clouds,scattered clouds,13
Olaszliszka-Tolcsva,48.258333,21.448056,2026-03-10 13:21:01.468228,15.93,14.54,13.54,15.93,1025,37,4.28,198,31,0.0,Clouds,scattered clouds,13
Bodrogolaszi,48.286944,21.512778,2026-03-10 13:21:02.737917,13.48,11.98,13.48,15.87,1025,42,4.24,198,31,0.0,Clouds,scattered clouds,13
Sárospatak,48.325833,21.566111,2026-03-10 13:21:04.003291,13.43,11.93,13.43,15.82,1025,42,4.26,196,23,0.0,Clouds,few clouds,13
Sátoraljaújhely,48.385833,21.657778,2026-03-10 13:21:05.264643,13.51,12.01,13.51,13.51,1025,42,4.28,191,26,0.0,Clouds,scattered clouds,13
Vecsés,47.40855,19.25652,2026-03-10 13:21:06.529725,15.31,14.02,15.13,16.98,1023,43,4.12,110,0,0.0,Clear,clear sky,13
Vecsés-Kertekalja,47.403333,19.271389,2026-03-10 13:21:07.793823,15.34,14.05,15.17,17.01,1023,43,4.12,110,0,0.0,Clear,clear sky,13
Üllő,47.390833,19.348889,2026-03-10 13:21:09.049625,15.28,14.01,15.12,16.97,1023,44,4.12,110,0,0.0,Clear,clear sky,13
Monor,47.34545,19.43701,2026-03-10 13:21:10.311750,15.07,13.78,15.07,15.07,1023,44,4.12,110,0,0.0,Clear,clear sky,13
Pilis,47.279722,19.536389,2026-03-10 13:21:11.585069,15.31,14.07,15.03,15.31,1023,45,4.58,171,100,0.0,Clouds,overcast clouds,13
Albertirsa,47.240278,19.606389,2026-03-10 13:21:12.853102,15.4,14.12,15.4,15.4,1023,43,4.81,172,100,0.0,Clouds,overcast clouds,13
Ceglédbercel-Cserő,47.210278,19.686944,2026-03-10 13:21:14.121339,15.47,14.2,15.47,15.47,1023,43,4.94,173,100,0.0,Clouds,overcast clouds,13
Cegléd,47.182778,19.806111,2026-03-10 13:21:15.390401,15.62,14.36,15.57,16.57,1023,43,5.13,175,100,0.0,Clouds,overcast clouds,13
Abony,47.173056,20.016389,2026-03-10 13:21:16.651671,16.55,15.38,15.64,16.63,1024,43,5.14,160,0,0.0,Clear,clear sky,13
Szolnok,47.179167,20.175833,2026-03-10 13:21:17.919714,16.29,15.07,15.66,16.65,1024,42,5.14,160,0,0.0,Clear,clear sky,13
Szajol,47.170556,20.295278,2026-03-10 13:21:19.185095,16.01,14.68,16.01,16.66,1024,39,5.14,160,0,0.0,Clear,clear sky,13
Törökszentmiklós,47.170278,20.413611,2026-03-10 13:21:20.448578,16.0,14.67,16.0,16.66,1024,39,5.14,160,0,0.0,Clear,clear sky,13
Rákoscsaba-Újtelep,47.4875,19.271944,2026-03-10 13:21:21.738121,15.5,14.25,14.62,16.87,1023,44,4.12,110,0,0.0,Clear,clear sky,13
Rákoscsaba,47.492222,19.284722,2026-03-10 13:21:22.998776,15.17,13.89,15.02,16.86,1023,44,4.12,110,0,0.0,Clear,clear sky,13
Pécel,47.493889,19.338889,2026-03-10 13:21:24.371897,15.02,13.73,14.9,16.74,1023,44,4.12,110,0,0.0,Clear,clear sky,13
Isaszeg,47.537719,19.388955,2026-03-10 13:21:25.771293,14.81,13.5,14.81,16.2,1023,44,4.12,110,0,0.0,Clear,clear sky,13
Gödöllő,47.592222,19.358611,2026-03-10 13:21:27.076101,14.79,13.47,14.58,15.98,1023,44,4.12,110,0,0.0,Clear,clear sky,13
Máriabesnyő,47.595556,19.389722,2026-03-10 13:21:28.441749,14.78,13.49,14.73,16.12,1023,45,4.12,162,100,0.0,Clouds,overcast clouds,13
Bag,47.641111,19.471667,2026-03-10 13:21:30.092059,15.08,13.82,15.08,15.08,1023,45,4.47,159,100,0.0,Clouds,overcast clouds,13
Aszód,47.647467,19.492882,2026-03-10 13:21:31.314975,15.16,13.91,15.16,15.16,1023,45,4.48,160,100,0.0,Clouds,overcast clouds,13
Hévízgyörk,47.638611,19.526667,2026-03-10 13:21:32.576005,15.13,13.87,15.13,15.13,1023,45,4.48,160,99,0.0,Clouds,overcast clouds,13
Galgahévíz,47.6325,19.558333,2026-03-10 13:21:33.840714,15.32,14.08,15.32,15.32,1023,45,4.46,161,99,0.0,Clouds,overcast clouds,13
Tura,47.626389,19.5975,2026-03-10 13:21:35.078402,15.24,13.99,15.24,15.24,1023,45,4.44,162,99,0.0,Clouds,overcast clouds,13
Hatvan,47.663611,19.671389,2026-03-10 13:21:36.334341,15.29,14.05,15.29,15.29,1023,45,4.35,160,100,0.0,Clouds,overcast clouds,13
Vámosgyörk,47.686111,19.927778,2026-03-10 13:21:37.616322,15.22,13.92,15.22,15.22,1024,43,4.0,170,100,0.0,Clouds,overcast clouds,13
Adács,47.696389,19.975278,2026-03-10 13:21:38.890502,15.23,13.91,15.23,15.23,1024,42,3.92,173,100,0.0,Clouds,overcast clouds,13
Karácsond,47.718056,20.048611,2026-03-10 13:21:40.146232,15.1,13.76,15.1,15.1,1024,42,3.88,173,100,0.0,Clouds,overcast clouds,13
Ludas,47.723889,20.095556,2026-03-10 13:21:41.422579,15.28,13.96,15.28,15.28,1024,42,4.06,177,100,0.0,Clouds,overcast clouds,13
Nagyút,47.72666666666667,20.161388888888887,2026-03-10 13:21:42.657574,15.24,13.92,15.24,15.24,1024,42,4.14,177,100,0.0,Clouds,overcast clouds,13
Kál-Kápolna,47.734167,20.254167,2026-03-10 13:21:43.924022,15.21,13.86,15.21,15.21,1024,41,4.49,179,100,0.0,Clouds,overcast clouds,13
Füzesabony,47.751389,20.415278,2026-03-10 13:21:45.186445,15.15,13.79,15.15,15.15,1024,41,4.8,181,100,0.0,Clouds,overcast clouds,13
Szihalom,47.766944,20.491944,2026-03-10 13:21:46.445240,15.17,13.84,15.17,15.17,1024,42,4.88,182,100,0.0,Clouds,overcast clouds,13
Mezőkövesd,47.797222,20.5675,2026-03-10 13:21:47.701172,15.18,13.85,15.18,15.18,1024,42,5.0,184,98,0.0,Clouds,overcast clouds,13
Mezőkövesd felső,47.807222,20.591389,2026-03-10 13:21:48.960892,15.16,13.83,15.16,15.16,1024,42,5.0,184,98,0.0,Clouds,overcast clouds,13
Mezőkeresztes-Mezőnyárád,47.845556,20.670278,2026-03-10 13:21:50.223677,15.16,13.78,15.16,15.16,1024,40,5.16,187,97,0.0,Clouds,overcast clouds,13
Csincse,47.890833,20.764167,2026-03-10 13:21:51.456332,15.18,13.8,15.18,15.18,1024,40,1.34,244,100,0.0,Clouds,overcast clouds,13
Emőd,47.930556,20.822778,2026-03-10 13:21:52.719647,15.2,13.82,15.2,15.2,1024,40,1.34,244,100,0.0,Clouds,overcast clouds,13
Nyékládháza,47.9925,20.840556,2026-03-10 13:21:53.976666,15.23,13.85,15.23,15.23,1024,40,1.34,244,100,0.0,Clouds,overcast clouds,13
Miskolc-Tiszai,48.098611,20.811389,2026-03-10 13:21:55.239724,15.15,13.77,15.15,15.15,1024,40,5.13,184,100,0.0,Clouds,overcast clouds,13
Felsőzsolca,48.083611,20.866111,2026-03-10 13:21:56.501560,15.18,13.8,15.18,15.18,1024,40,5.11,185,100,0.0,Clouds,overcast clouds,13
Hernádnémeti-Bőcs,48.051389,20.985,2026-03-10 13:21:57.757805,15.18,13.82,15.18,15.18,1024,41,4.88,188,100,0.0,Clouds,overcast clouds,13
Tiszalúc,48.039722,21.0575,2026-03-10 13:21:59.021712,15.22,13.84,15.22,15.92,1024,40,4.68,189,83,0.0,Clouds,broken clouds,13
Taktaharkány,48.091667,21.128611,2026-03-10 13:22:00.274093,15.97,14.67,15.97,15.97,1024,40,4.61,187,78,0.0,Clouds,broken clouds,13
Taktaszada,48.1125,21.149444,2026-03-10 13:22:01.546786,15.98,14.65,15.98,15.98,1024,39,4.56,187,73,0.0,Clouds,broken clouds,13
Szerencs,48.155556,21.214444,2026-03-10 13:22:02.787920,15.97,14.64,15.97,15.97,1024,39,4.42,188,60,0.0,Clouds,broken clouds,13
Mezőzombor,48.156944,21.267778,2026-03-10 13:22:04.046701,15.97,14.61,15.97,15.97,1024,38,4.38,189,54,0.0,Clouds,broken clouds,13
Tarcal,48.125,21.34,2026-03-10 13:22:05.309024,15.99,14.64,15.99,15.99,1025,38,4.34,193,32,0.0,Clouds,scattered clouds,13
Tokaj,48.112778,21.406667,2026-03-10 13:22:06.547982,15.95,14.57,15.95,15.95,1025,37,4.34,197,20,0.0,Clouds,few clouds,13
Rakamaz,48.12,21.475,2026-03-10 13:22:07.794053,15.95,14.54,15.95,15.95,1025,36,4.35,198,17,0.0,Clouds,few clouds,13
Görögszállás,48.04,21.555,2026-03-10 13:22:09.070309,15.91,14.47,15.91,15.91,1025,35,4.39,198,15,0.0,Clouds,few clouds,13
Nyírtelek,48.005,21.615556,2026-03-10 13:22:10.317370,15.95,14.49,15.95,15.95,1025,34,4.37,198,12,0.0,Clouds,few clouds,13
Rákoshegy,47.468611,19.245556,2026-03-10 13:22:11.544156,15.48,14.26,14.57,16.82,1023,45,4.12,110,0,0.0,Clear,clear sky,13
Ecser,47.439444,19.318056,2026-03-10 13:22:12.806207,15.14,13.86,15.02,16.86,1023,44,4.12,110,0,0.0,Clear,clear sky,13
Maglód,47.438889,19.340833,2026-03-10 13:22:14.055234,15.08,13.79,14.96,16.81,1023,44,4.12,110,0,0.0,Clear,clear sky,13
Maglódi nyaraló,47.434167,19.363611,2026-03-10 13:22:15.320051,14.99,13.69,14.86,16.71,1023,44,4.12,110,0,0.0,Clear,clear sky,13
Gyömrő,47.429722,19.393333,2026-03-10 13:22:16.577835,14.85,13.54,14.82,16.67,1023,44,4.12,110,0,0.0,Clear,clear sky,13
Mende,47.426944,19.439722,2026-03-10 13:22:17.842199,14.79,13.47,14.79,16.18,1023,44,4.12,110,0,0.0,Clear,clear sky,13
Szőlősnyaraló,47.450278,19.561111,2026-03-10 13:22:19.102856,15.02,13.75,15.02,15.3,1023,45,4.48,171,98,0.0,Clouds,overcast clouds,13
Sülysáp,47.451944,19.5275,2026-03-10 13:22:20.367796,15.0,13.73,15.0,15.28,1023,45,4.38,170,99,0.0,Clouds,overcast clouds,13
Tápiószecső,47.443056,19.614722,2026-03-10 13:22:21.589656,15.38,14.15,15.1,15.38,1023,45,4.52,171,98,0.0,Clouds,overcast clouds,13
Szentmártonkáta,47.431944,19.680556,2026-03-10 13:22:22.858488,15.41,14.13,15.41,15.41,1023,43,4.56,171,99,0.0,Clouds,overcast clouds,13
Nagykáta,47.409722,19.737778,2026-03-10 13:22:24.125232,15.48,14.21,15.48,15.48,1023,43,4.63,172,100,0.0,Clouds,overcast clouds,13
Farmos,47.355278,19.8375,2026-03-10 13:22:25.379396,15.59,14.33,15.59,15.59,1023,43,0.89,135,100,0.0,Clouds,overcast clouds,13
Tápiószele,47.346313,19.873504,2026-03-10 13:22:26.654670,15.57,14.31,15.57,15.57,1023,43,0.89,135,99,0.0,Clouds,overcast clouds,13
Tápiógyörgye,47.325,19.95,2026-03-10 13:22:27.921775,15.63,14.37,15.63,16.62,1023,43,0.89,135,99,0.0,Clouds,overcast clouds,13
Újszász,47.285833,20.066944,2026-03-10 13:22:29.196757,15.69,14.44,15.67,16.66,1024,43,5.37,180,100,0.0,Clouds,overcast clouds,13
Szurdokpüspöki,47.851944,19.690278,2026-03-10 13:22:30.451990,15.12,13.86,15.12,15.12,1023,45,4.02,158,100,0.0,Clouds,overcast clouds,13
Lőrinci,47.739444,19.673611,2026-03-10 13:22:31.715950,15.22,13.97,15.22,15.22,1023,45,4.3,158,100,0.0,Clouds,overcast clouds,13
Selyp,47.759167,19.670833,2026-03-10 13:22:32.978002,15.2,13.95,15.2,15.2,1023,45,4.27,157,100,0.0,Clouds,overcast clouds,13
Apc-Zagyvaszántó,47.791328,19.66822,2026-03-10 13:22:34.241966,15.2,13.95,15.2,15.2,1023,45,4.23,157,100,0.0,Clouds,overcast clouds,13
Pásztó,47.918889,19.688889,2026-03-10 13:22:35.501220,14.99,13.72,14.99,14.99,1023,45,3.82,159,100,0.0,Clouds,overcast clouds,13
Mátraszőlős-Hasznos,47.938506,19.706122,2026-03-10 13:22:36.733860,14.98,13.71,14.98,14.98,1024,45,3.64,162,100,0.0,Clouds,overcast clouds,13
Tar,47.956111,19.746389,2026-03-10 13:22:37.988029,14.55,13.24,14.55,14.55,1024,45,3.42,166,99,0.0,Clouds,overcast clouds,13
Mátraverebély,47.968333,19.778611,2026-03-10 13:22:39.243918,14.55,13.24,14.55,14.55,1024,45,3.42,166,99,0.0,Clouds,overcast clouds,13
Nagybátony,47.981111,19.82,2026-03-10 13:22:40.528805,14.71,13.41,14.71,14.71,1024,45,3.29,169,100,0.0,Clouds,overcast clouds,13
Kisterenye,48.009444,19.831944,2026-03-10 13:22:41.789786,14.79,13.5,14.79,14.79,1024,45,3.21,171,100,0.0,Clouds,overcast clouds,13
Kisterenye-Bányatelep,48.021389,19.831944,2026-03-10 13:22:43.027968,14.79,13.5,14.79,14.79,1024,45,3.21,171,100,0.0,Clouds,overcast clouds,13
Salgótarján külső,48.089444,19.790833,2026-03-10 13:22:44.280871,14.29,12.98,14.29,14.29,1024,46,2.91,173,100,0.0,Clouds,overcast clouds,13
Balatonfenyves GV,46.7125,17.479167,2026-03-10 13:22:45.537611,17.08,16.04,17.08,17.08,1022,46,4.42,194,54,0.0,Clouds,broken clouds,13
Várhegyalja,47.737778,18.366667,2026-03-10 13:22:46.793940,16.13,15.03,16.13,16.13,1022,47,5.28,151,14,0.0,Clouds,few clouds,13
Imremajor,46.680556,17.499722,2026-03-10 13:22:48.057199,17.11,16.08,17.11,17.11,1022,46,4.39,195,55,0.0,Clouds,broken clouds,13
Rákospalota-Kertváros,47.578333,19.122778,2026-03-10 13:22:49.294483,15.73,14.56,14.82,17.07,1022,46,4.12,110,0,0.0,Clear,clear sky,13
Vicziántelep,47.675833,19.286111,2026-03-10 13:22:50.563788,15.03,13.79,14.69,16.08,1023,46,4.27,158,87,0.0,Clouds,overcast clouds,13
Pálmajor,46.662831,17.457526,2026-03-10 13:22:51.820744,17.1,16.04,17.1,17.1,1022,45,4.42,196,56,0.0,Clouds,broken clouds,13
Somogyszentpál felső,46.649758,17.471404,2026-03-10 13:22:53.081085,17.07,16.01,17.07,17.07,1022,45,4.33,195,55,0.0,Clouds,broken clouds,13
Somogyszentpál,46.638611,17.478611,2026-03-10 13:22:54.341542,17.06,16.0,17.06,17.06,1022,45,4.27,195,56,0.0,Clouds,broken clouds,13
Rudnaykert,47.7175,19.257778,2026-03-10 13:22:55.584633,15.35,14.14,15.35,16.42,1023,46,4.39,156,71,0.0,Clouds,broken clouds,13
Maroshegy,47.158333,18.406667,2026-03-10 13:22:56.847462,16.08,14.97,16.08,16.08,1023,47,4.07,164,42,0.0,Clouds,scattered clouds,13
Bánhida,47.573703,18.371737,2026-03-10 13:22:58.112090,15.85,14.72,15.85,15.85,1022,47,5.22,154,18,0.0,Clouds,few clouds,13
Magyarkút,47.850278,19.045,2026-03-10 13:22:59.373880,14.92,13.69,14.92,14.92,1023,47,3.79,151,17,0.0,Clouds,few clouds,13
Becske alsó,47.897222,19.364722,2026-03-10 13:23:00.641564,14.35,13.04,14.35,14.35,1023,46,4.7,153,52,0.0,Clouds,broken clouds,13
Hosszúberek-Péteri,47.370556,19.389722,2026-03-10 13:23:01.899586,15.1,13.81,15.1,16.95,1023,44,4.12,110,0,0.0,Clear,clear sky,13
Monorierdő,47.308889,19.499167,2026-03-10 13:23:03.162018,15.01,13.74,15.01,15.29,1023,45,4.49,171,100,0.0,Clouds,overcast clouds,13
Ceglédbercel,47.215833,19.658611,2026-03-10 13:23:04.395333,15.46,14.18,15.46,15.46,1023,43,4.88,172,100,0.0,Clouds,overcast clouds,13
Budai út,47.208333,19.731389,2026-03-10 13:23:05.622182,15.5,14.23,15.5,15.5,1023,43,4.99,173,100,0.0,Clouds,overcast clouds,13
Büdöskútpuszta,48.373056,20.726111,2026-03-10 13:23:06.879927,14.71,13.28,14.71,14.71,1024,40,4.46,178,100,0.0,Clouds,overcast clouds,13
Bánrévei Vízmű,48.282778,20.368333,2026-03-10 13:23:08.137146,14.88,13.52,14.88,14.88,1024,42,3.58,184,100,0.0,Clouds,overcast clouds,13
Rákoskert,47.456389,19.296111,2026-03-10 13:23:09.405367,15.01,13.69,14.89,16.73,1023,43,4.12,110,0,0.0,Clear,clear sky,13
Szirmabesenyő,48.146944,20.783056,2026-03-10 13:23:10.636013,15.08,13.79,15.08,15.08,1024,44,4.95,182,100,0.0,Clouds,overcast clouds,13
Kitérőgyár,47.766944,19.935278,2026-03-10 13:23:11.865317,14.95,13.6,14.95,14.95,1024,42,3.7,169,100,0.0,Clouds,overcast clouds,13
Tápiószentmárton,47.373333,19.797778,2026-03-10 13:23:13.120938,15.53,14.26,15.53,15.53,1023,43,0.89,135,100,0.0,Clouds,overcast clouds,13
Zagyvarékas,47.244229,20.097435,2026-03-10 13:23:14.375692,16.39,15.18,15.68,16.67,1024,42,5.14,160,0,0.0,Clear,clear sky,13
Abonyi út,47.206401,20.125204,2026-03-10 13:23:15.634872,16.35,15.14,15.68,16.67,1024,42,5.14,160,0,0.0,Clear,clear sky,13
Jászkisér felső,47.438056,20.202222,2026-03-10 13:23:16.865315,17.78,16.68,17.78,17.78,1024,41,5.16,179,100,0.0,Clouds,overcast clouds,13
Szellőhát,47.425556,20.188889,2026-03-10 13:23:18.095841,15.67,14.36,15.67,15.67,1024,41,5.22,179,100,0.0,Clouds,overcast clouds,13
Szilvásvárad-Szalajkavölgy,48.0956,20.38272,2026-03-10 13:23:19.351553,13.89,12.48,13.89,13.89,1024,44,4.31,179,100,0.0,Clouds,overcast clouds,13
Vásárosnamény külső,48.084444,22.255556,2026-03-10 13:23:20.618018,15.94,14.32,15.94,15.94,1025,28,3.7,169,7,0.0,Clear,clear sky,13
Újváros,46.660556,20.536111,2026-03-10 13:23:21.887570,16.64,15.46,15.55,16.64,1025,42,6.62,183,5,0.0,Clear,clear sky,13
Városi park,46.697778,19.864722,2026-03-10 13:23:23.118646,17.77,16.62,16.1,17.77,1024,39,5.83,175,79,0.0,Clouds,broken clouds,13
Belsőkamaráspuszta,46.341944,20.848889,2026-03-10 13:23:24.343458,16.7,15.05,16.7,16.7,1024,24,6.75,183,5,0.0,Clear,clear sky,13
Sajószöged,47.945278,20.981667,2026-03-10 13:23:25.598709,15.27,13.9,15.27,15.27,1024,40,4.96,191,100,0.0,Clouds,overcast clouds,13
Kazincbarcika alsó,48.255278,20.649167,2026-03-10 13:23:26.869386,14.5,13.1,14.5,14.5,1024,42,4.23,180,99,0.0,Clouds,overcast clouds,13
Nyárjas,46.857778,19.923611,2026-03-10 13:23:28.139651,16.05,14.73,16.05,17.73,1024,39,4.63,140,0,0.0,Clear,clear sky,13
Pogonyipuszta,48.296389,20.381667,2026-03-10 13:23:29.377900,14.88,13.52,14.88,14.88,1024,42,3.58,184,100,0.0,Clouds,overcast clouds,13
Sióvölgy,46.911103,18.076964,2026-03-10 13:23:30.605302,16.08,15.28,13.3,16.08,1022,59,3.82,181,56,0.0,Clouds,broken clouds,13
Répáspuszta,46.430278,17.847222,2026-03-10 13:23:31.860503,16.05,14.99,16.05,16.05,1023,49,3.65,187,83,0.0,Clouds,broken clouds,13
Virányos,48.066667,21.527222,2026-03-10 13:23:33.139951,15.94,14.5,15.94,15.94,1025,35,4.38,199,14,0.0,Clouds,few clouds,13
Füzesbokor,47.988611,21.6475,2026-03-10 13:23:34.418124,15.94,14.45,15.94,15.94,1025,33,4.38,198,11,0.0,Clouds,few clouds,13
Kunfehértó,46.355833,19.417222,2026-03-10 13:23:35.654917,15.9,14.67,15.9,15.9,1024,43,4.59,172,99,0.0,Clouds,overcast clouds,13
Erdőszél,46.329444,19.395,2026-03-10 13:23:36.879894,15.79,14.55,15.79,15.79,1024,43,4.33,172,99,0.0,Clouds,overcast clouds,13
Jánoshalma,46.293056,19.330278,2026-03-10 13:23:38.138997,15.95,14.72,15.95,15.95,1023,43,4.19,171,98,0.0,Clouds,overcast clouds,13
Mélykút,46.213056,19.370556,2026-03-10 13:23:39.402359,16.07,14.83,16.07,16.07,1024,42,4.28,169,89,0.0,Clouds,overcast clouds,13
Bácsalmás,46.118056,19.346389,2026-03-10 13:23:40.676004,16.21,14.98,16.21,16.21,1023,42,4.09,167,87,0.0,Clouds,overcast clouds,13
Almás,46.116216,19.328803,2026-03-10 13:23:41.931758,16.21,14.98,16.21,16.21,1023,42,4.09,167,87,0.0,Clouds,overcast clouds,13
Bácsbokod-Bácsborsód,46.115833,19.16,2026-03-10 13:23:43.169895,16.13,14.95,16.13,16.13,1023,44,3.61,171,100,0.0,Clouds,overcast clouds,13
Baja,46.187014,18.957602,2026-03-10 13:23:44.432584,16.16,15.03,16.16,16.16,1023,46,3.33,174,98,0.0,Clouds,overcast clouds,13
Harkakötöny,46.458333,19.601944,2026-03-10 13:23:45.699689,13.73,12.23,13.73,13.73,1024,41,5.31,171,86,0.0,Clouds,overcast clouds,13
Tajó,46.473056,19.650556,2026-03-10 13:23:46.976258,13.77,12.27,13.77,13.77,1024,41,5.44,171,81,0.0,Clouds,broken clouds,13
Kiskunmajsa,46.501667,19.728056,2026-03-10 13:23:48.229778,17.72,16.62,17.72,17.72,1024,41,5.66,171,74,0.0,Clouds,broken clouds,13
Jászszentlászló,46.565833,19.753611,2026-03-10 13:23:49.498909,17.74,16.59,17.74,17.74,1024,39,5.76,172,78,0.0,Clouds,broken clouds,13
Galambos,46.625,19.801111,2026-03-10 13:23:50.756501,17.77,16.62,17.77,17.77,1024,39,5.78,173,81,0.0,Clouds,broken clouds,13
Pestszentimre,47.402222,19.188611,2026-03-10 13:23:52.013907,15.9,14.72,14.78,17.03,1023,45,4.12,110,0,0.0,Clear,clear sky,13
Gyál felső,47.390278,19.204722,2026-03-10 13:23:53.290226,15.64,14.38,15.19,17.03,1023,43,4.12,110,0,0.0,Clear,clear sky,13
Gyál,47.376667,19.219444,2026-03-10 13:23:54.520566,15.64,14.38,15.21,17.06,1023,43,4.12,110,0,0.0,Clear,clear sky,13
Ócsa,47.301389,19.232222,2026-03-10 13:23:55.787932,15.71,14.49,15.23,17.07,1023,44,4.12,110,0,0.0,Clear,clear sky,13
Inárcs-Kakucs,47.247222,19.317778,2026-03-10 13:23:57.043888,15.23,13.98,15.23,15.23,1023,45,4.17,169,100,0.0,Clouds,overcast clouds,13
Dabas,47.194722,19.328889,2026-03-10 13:23:58.304089,15.24,13.99,15.24,15.24,1023,45,4.35,169,99,0.0,Clouds,overcast clouds,13
Gyón,47.178333,19.355556,2026-03-10 13:23:59.571967,15.21,13.96,15.21,15.21,1023,45,4.39,169,98,0.0,Clouds,overcast clouds,13
Hernád,47.161389,19.4025,2026-03-10 13:24:00.804077,15.4,14.17,15.4,15.4,1023,45,4.59,170,99,0.0,Clouds,overcast clouds,13
Bakonygyirót,47.416389,17.811944,2026-03-10 13:24:02.071828,16.59,15.53,16.59,16.71,1022,47,5.65,177,11,0.0,Clouds,few clouds,13
Vinye,47.360317,17.819635,2026-03-10 13:24:03.329126,16.03,14.94,15.91,16.03,1022,48,5.68,176,13,0.0,Clouds,few clouds,13
Nemesgörzsöny,47.402924,17.376385,2026-03-10 13:24:04.585090,17.16,15.95,17.16,17.16,1021,39,7.72,190,0,0.0,Clear,clear sky,13
Rábahíd,47.438618,17.337525,2026-03-10 13:24:05.851190,17.15,15.94,17.15,17.15,1021,39,7.72,190,0,0.0,Clear,clear sky,13
Öskü,47.162222,18.076389,2026-03-10 13:24:07.083585,15.75,14.66,15.75,15.75,1022,49,4.78,174,44,0.0,Clouds,scattered clouds,13
Márkó,47.1275,17.813889,2026-03-10 13:24:08.349065,16.5,15.33,12.08,16.5,1022,43,4.69,178,48,0.0,Clouds,scattered clouds,13
Nemeskocs,47.203333,17.188889,2026-03-10 13:24:09.610997,17.11,16.05,17.11,17.11,1021,45,6.34,187,16,0.0,Clouds,few clouds,13
Zalagyömörő,47.011111,17.220833,2026-03-10 13:24:10.878998,16.81,15.7,16.81,16.81,1021,44,6.07,189,24,0.0,Clouds,few clouds,13
Rigács,47.061667,17.199167,2026-03-10 13:24:12.145309,16.76,15.67,16.76,16.76,1021,45,6.12,189,23,0.0,Clouds,few clouds,13
Kemenespálfa,47.139722,17.183056,2026-03-10 13:24:13.376300,16.83,15.74,16.83,16.83,1021,45,6.23,188,17,0.0,Clouds,few clouds,13
Lentiszombathely,46.611389,16.5725,2026-03-10 13:24:14.633211,13.46,11.98,13.46,18.84,1021,43,4.82,201,47,0.0,Clouds,scattered clouds,13
Ortaháza,46.626667,16.685833,2026-03-10 13:24:15.897457,16.87,15.74,16.87,16.87,1021,43,4.22,200,47,0.0,Clouds,scattered clouds,13
Rádiháza,46.654722,16.765833,2026-03-10 13:24:17.155132,16.78,15.66,16.78,16.78,1021,44,4.2,200,43,0.0,Clouds,scattered clouds,13
Baktüttös,46.690833,16.826389,2026-03-10 13:24:18.419170,16.6,15.46,16.6,16.6,1021,44,4.54,200,44,0.0,Clouds,scattered clouds,13
Budafa,46.851667,16.624722,2026-03-10 13:24:19.653415,16.87,15.79,16.87,16.87,1021,45,5.43,196,20,0.0,Clouds,few clouds,13
Zalapatakalja,46.845556,16.603889,2026-03-10 13:24:20.922538,16.88,15.77,16.88,16.88,1021,44,5.72,196,24,0.0,Clouds,few clouds,13
Tormásliget,47.430556,16.781667,2026-03-10 13:24:22.194875,16.97,15.95,16.97,16.97,1020,47,6.75,196,14,0.0,Clouds,few clouds,13
Belecska,46.64,18.411389,2026-03-10 13:24:23.467935,16.1,15.02,16.1,16.1,1023,48,3.21,161,98,0.0,Clouds,overcast clouds,13
Almár,47.956111,20.356944,2026-03-10 13:24:24.726156,14.7,13.37,14.7,14.7,1024,44,4.61,178,100,0.0,Clouds,overcast clouds,13
Vasútmúzeum,47.543889,19.099444,2026-03-10 13:24:25.990404,15.86,14.7,14.82,17.07,1022,46,4.12,110,0,0.0,Clear,clear sky,13
Abda,47.690833,17.540556,2026-03-10 13:24:27.250590,17.09,16.08,17.09,17.09,1021,47,6.56,182,11,0.0,Clouds,few clouds,13
Vadaspark,47.526111,18.949167,2026-03-10 13:24:28.506186,13.95,12.63,13.02,15.27,1022,47,1.34,145,22,0.0,Clouds,few clouds,13
Barosstelep,47.398889,18.989167,2026-03-10 13:24:29.736996,16.74,15.64,14.88,17.13,1022,45,2.24,156,56,0.0,Clouds,broken clouds,13
Fegyvernek-Örményes,47.194444,20.5575,2026-03-10 13:24:30.998303,16.02,14.59,16.02,16.02,1024,35,5.75,180,72,0.0,Clouds,broken clouds,13
Zagyvapálfalva,48.068889,19.785,2026-03-10 13:24:32.264126,14.5,13.21,14.5,14.5,1024,46,3.02,172,100,0.0,Clouds,overcast clouds,13
Salgótarján,48.105556,19.807222,2026-03-10 13:24:33.521540,13.86,12.5,13.86,13.86,1024,46,2.8,173,100,0.0,Clouds,overcast clouds,13
Szabadisóstó,46.933889,18.118056,2026-03-10 13:24:34.788353,16.06,15.26,13.28,16.06,1022,59,3.82,177,51,0.0,Clouds,broken clouds,13
Siófok,46.907778,18.053889,2026-03-10 13:24:36.061298,16.06,15.26,13.28,16.06,1022,59,3.82,181,56,0.0,Clouds,broken clouds,13
Balatonszéplak felső,46.898056,18.018056,2026-03-10 13:24:37.330634,16.06,15.26,13.28,16.06,1022,59,3.83,183,59,0.0,Clouds,broken clouds,13
Balatonszéplak alsó,46.891944,17.993333,2026-03-10 13:24:38.564298,16.06,15.26,13.28,16.06,1022,59,1.34,90,59,0.0,Clouds,broken clouds,13
Zamárdi felső,46.886111,17.969444,2026-03-10 13:24:39.834849,16.07,15.27,16.07,17.71,1022,59,3.89,184,60,0.0,Clouds,broken clouds,13
Zamárdi,46.88,17.944722,2026-03-10 13:24:41.103664,16.01,15.21,16.01,17.64,1022,59,3.89,184,60,0.0,Clouds,broken clouds,13
Szántód,46.861944,17.899167,2026-03-10 13:24:42.346010,16.08,15.28,16.08,17.72,1022,59,3.99,186,62,0.0,Clouds,broken clouds,13
Szőny-Déli,47.735278,18.141944,2026-03-10 13:24:43.600894,17.12,16.11,16.73,17.12,1022,47,5.9,155,12,0.0,Clouds,few clouds,13
Várpalota,47.194444,18.149167,2026-03-10 13:24:44.870466,15.68,14.56,15.68,15.68,1022,48,4.8,171,40,0.0,Clouds,scattered clouds,13
Pétfürdő,47.1675,18.121389,2026-03-10 13:24:46.135121,15.88,14.8,15.88,15.88,1022,49,4.78,172,41,0.0,Clouds,scattered clouds,13
Hajmáskér,47.141111,18.009444,2026-03-10 13:24:47.392093,15.66,14.56,15.66,17.29,1022,49,4.83,175,45,0.0,Clouds,scattered clouds,13
Veszprém,47.118889,17.91,2026-03-10 13:24:48.657240,17.09,15.98,15.45,17.09,1022,43,4.67,178,50,0.0,Clouds,scattered clouds,13
Herend,47.136944,17.760278,2026-03-10 13:24:49.913130,16.27,15.08,11.86,16.27,1022,43,4.73,178,47,0.0,Clouds,scattered clouds,13
Városlőd,47.144167,17.652778,2026-03-10 13:24:51.173461,16.44,15.26,15.98,16.44,1022,43,5.21,179,34,0.0,Clouds,scattered clouds,13
Városlőd-Kislőd,47.133889,17.631111,2026-03-10 13:24:52.431653,16.55,15.38,16.09,16.55,1022,43,5.07,179,40,0.0,Clouds,scattered clouds,13
Ajka,47.105902,17.572938,2026-03-10 13:24:53.678364,16.85,15.71,16.39,16.85,1022,43,5.34,180,39,0.0,Clouds,scattered clouds,13
Ajka-Gyártelep,47.096806,17.555219,2026-03-10 13:24:54.934324,16.9,15.77,16.44,16.9,1022,43,5.34,180,39,0.0,Clouds,scattered clouds,13
Devecser,47.1125,17.435278,2026-03-10 13:24:56.191395,17.31,16.22,16.84,17.31,1022,43,5.7,181,33,0.0,Clouds,scattered clouds,13
Somlóvásárhely,47.124444,17.369167,2026-03-10 13:24:57.450805,17.42,16.42,16.95,17.42,1022,46,6.09,183,25,0.0,Clouds,scattered clouds,13
Tüskevár,47.128611,17.331389,2026-03-10 13:24:58.706907,17.45,16.43,16.99,17.45,1021,45,6.14,184,24,0.0,Clouds,few clouds,13
Karakószörcsök,47.133611,17.287778,2026-03-10 13:25:00.024622,16.75,15.66,16.75,16.75,1021,45,6.19,184,23,0.0,Clouds,few clouds,13
Kerta,47.151944,17.237222,2026-03-10 13:25:01.286919,16.86,15.78,16.86,16.86,1021,45,6.27,186,18,0.0,Clouds,few clouds,13
Boba,47.183333,17.191389,2026-03-10 13:25:02.541925,16.82,15.73,16.82,16.82,1021,45,6.31,187,16,0.0,Clouds,few clouds,13
Börgönd,47.140278,18.515,2026-03-10 13:25:03.787019,15.87,14.74,15.87,15.87,1023,47,3.98,164,63,0.0,Clouds,broken clouds,13
Belsőbáránd,47.102778,18.499722,2026-03-10 13:25:05.046637,15.85,14.72,15.85,15.85,1023,47,4.0,164,69,0.0,Clouds,broken clouds,13
Zichyújfalu,47.124444,18.6725,2026-03-10 13:25:06.285708,15.74,14.57,15.74,15.74,1023,46,3.87,165,74,0.0,Clouds,broken clouds,13
Seregélyes,47.121111,18.580556,2026-03-10 13:25:07.543632,15.97,14.85,15.97,15.97,1023,47,3.97,164,65,0.0,Clouds,broken clouds,13
Polgárdi-Ipartelepek,47.079167,18.314444,2026-03-10 13:25:08.807735,15.69,14.57,15.69,15.69,1022,48,4.03,167,44,0.0,Clouds,scattered clouds,13
Polgárdi,47.07,18.284167,2026-03-10 13:25:10.094423,15.69,14.57,15.69,15.69,1022,48,4.03,167,44,0.0,Clouds,scattered clouds,13
Füle,47.05,18.255278,2026-03-10 13:25:11.349164,15.66,14.53,15.66,15.66,1022,48,3.99,168,43,0.0,Clouds,scattered clouds,13
Zánka-Erzsébettábor,46.8775,17.709167,2026-03-10 13:25:12.612729,17.65,16.7,16.01,17.65,1022,47,4.2,186,67,0.0,Clouds,broken clouds,13
Csajág,47.033889,18.186389,2026-03-10 13:25:13.845357,15.9,15.09,13.12,15.9,1022,59,3.96,173,41,0.0,Clouds,scattered clouds,13
Balatonakarattya,47.017222,18.167778,2026-03-10 13:25:15.107393,15.75,14.92,12.97,15.75,1022,59,3.96,173,41,0.0,Clouds,scattered clouds,13
Csittényhegy,47.025278,18.1375,2026-03-10 13:25:16.373131,15.97,15.16,13.19,15.97,1022,59,3.98,174,42,0.0,Clouds,scattered clouds,13
Balatonkenese,47.0325,18.105556,2026-03-10 13:25:17.611787,16.05,15.25,13.27,16.05,1022,59,4.0,176,44,0.0,Clouds,scattered clouds,13
Balatonfűzfő,47.060278,18.0425,2026-03-10 13:25:18.865593,16.08,15.28,16.08,17.71,1022,59,4.17,179,52,0.0,Clouds,broken clouds,13
Balatonalmádi,47.028333,18.015,2026-03-10 13:25:20.120917,16.05,15.25,16.05,17.69,1022,59,4.05,179,53,0.0,Clouds,broken clouds,13
Káptalanfüred,47.008889,18.003889,2026-03-10 13:25:21.358002,16.08,15.28,16.08,17.71,1022,59,3.97,181,57,0.0,Clouds,broken clouds,13
Alsóörs,46.985278,17.974722,2026-03-10 13:25:22.614181,16.09,15.3,16.09,17.73,1022,59,3.97,181,57,0.0,Clouds,broken clouds,13
Csopak,46.974722,17.931111,2026-03-10 13:25:23.876139,15.96,15.15,15.96,17.6,1022,59,3.97,183,65,0.0,Clouds,broken clouds,13
Balatonarács,46.9625,17.8975,2026-03-10 13:25:25.113690,15.86,15.04,15.86,17.5,1022,59,3.97,183,65,0.0,Clouds,broken clouds,13
Balatonfüred,46.955833,17.883056,2026-03-10 13:25:26.381100,15.93,15.12,15.93,17.57,1022,59,3.98,184,66,0.0,Clouds,broken clouds,13
Aszófő,46.925556,17.8325,2026-03-10 13:25:27.622624,16.03,15.23,16.03,17.66,1022,59,4.03,185,67,0.0,Clouds,broken clouds,13
Örvényes,46.9125,17.818056,2026-03-10 13:25:28.856472,16.05,15.25,16.05,17.68,1022,59,4.03,185,67,0.0,Clouds,broken clouds,13
Balatonudvari,46.904722,17.808056,2026-03-10 13:25:30.112925,17.72,16.67,16.08,17.72,1022,43,4.07,185,68,0.0,Clouds,broken clouds,13
Fövenyes,46.893611,17.789444,2026-03-10 13:25:31.343905,17.73,16.79,16.1,17.73,1022,47,4.08,185,67,0.0,Clouds,broken clouds,13
Balatonakali-Dörgicse,46.88,17.747778,2026-03-10 13:25:32.601778,17.73,16.79,16.09,17.73,1022,47,4.12,185,68,0.0,Clouds,broken clouds,13
Zánka-Köveskál,46.872778,17.687778,2026-03-10 13:25:33.861184,17.72,16.77,16.08,17.72,1022,47,4.24,186,66,0.0,Clouds,broken clouds,13
Balatonszepezd,46.851111,17.663056,2026-03-10 13:25:35.131004,13.3,11.76,13.3,17.72,1022,41,4.25,186,64,0.0,Clouds,broken clouds,13
Szepezdfürdő,46.839722,17.649444,2026-03-10 13:25:36.362760,13.27,11.88,13.27,17.69,1022,47,4.28,187,63,0.0,Clouds,broken clouds,13
Révfülöp,46.829167,17.632222,2026-03-10 13:25:37.632767,13.28,11.89,13.28,17.7,1022,47,4.28,187,63,0.0,Clouds,broken clouds,13
Balatonrendes,46.824722,17.582778,2026-03-10 13:25:38.890403,13.28,11.89,13.28,17.7,1022,47,4.42,189,58,0.0,Clouds,broken clouds,13
Ábrahámhegy,46.815,17.572222,2026-03-10 13:25:40.148355,13.25,11.86,13.25,17.66,1022,47,4.42,189,58,0.0,Clouds,broken clouds,13
Badacsonyörs,46.805556,17.531667,2026-03-10 13:25:41.421100,17.72,16.77,17.72,17.72,1022,47,4.49,190,57,0.0,Clouds,broken clouds,13
Kisújszállás,47.223889,20.751111,2026-03-10 13:25:42.662139,15.77,14.29,15.77,15.77,1025,34,5.48,181,78,0.0,Clouds,broken clouds,13
Karcag,47.303333,20.928056,2026-03-10 13:25:43.926892,15.7,14.21,15.7,15.7,1025,34,5.4,186,57,0.0,Clouds,broken clouds,13
Püspökladány,47.3275,21.128889,2026-03-10 13:25:45.156694,15.83,14.3,15.83,15.83,1025,32,5.49,192,24,0.0,Clouds,few clouds,13
Kaba,47.368889,21.259444,2026-03-10 13:25:46.412423,16.1,14.58,16.1,16.1,1025,31,5.37,196,5,0.0,Clear,clear sky,13
Hajdúszoboszló,47.429444,21.406944,2026-03-10 13:25:47.682961,16.09,14.56,16.09,16.09,1025,31,4.63,190,0,0.0,Clear,clear sky,13
Ebes,47.462778,21.488889,2026-03-10 13:25:48.958035,16.04,14.51,16.04,16.04,1025,31,4.63,190,0,0.0,Clear,clear sky,13
Debrecen,47.520278,21.628611,2026-03-10 13:25:50.226569,15.92,14.38,15.92,15.92,1025,31,4.63,190,0,0.0,Clear,clear sky,13
Debrecen-Csapókert,47.540556,21.648056,2026-03-10 13:25:51.484790,15.87,14.32,15.87,15.87,1025,31,4.63,190,0,0.0,Clear,clear sky,13
Apafa,47.584045,21.655858,2026-03-10 13:25:52.742603,15.83,14.28,15.83,15.83,1025,31,4.63,190,0,0.0,Clear,clear sky,13
Bocskaikert,47.6425,21.666389,2026-03-10 13:25:54.006747,15.76,14.2,15.76,15.76,1025,31,4.63,190,0,0.0,Clear,clear sky,13
Hajdúhadház,47.686944,21.679167,2026-03-10 13:25:55.275400,15.73,14.12,15.73,15.73,1025,29,4.61,202,6,0.0,Clear,clear sky,13
Téglás,47.714722,21.684722,2026-03-10 13:25:56.542864,15.8,14.22,15.8,15.8,1025,30,4.62,202,7,0.0,Clear,clear sky,13
Újfehértó,47.814444,21.706389,2026-03-10 13:25:57.821199,15.56,13.98,15.56,15.56,1025,31,4.61,201,9,0.0,Clear,clear sky,13
Nyíregyháza,47.946667,21.705556,2026-03-10 13:25:59.087977,15.47,13.91,15.47,15.47,1025,32,4.42,198,10,0.0,Clear,clear sky,13
Sóstó,47.998051,21.729047,2026-03-10 13:26:00.355760,15.92,14.4,15.92,15.92,1025,32,4.26,195,8,0.0,Clear,clear sky,13
Sóstóhegy,48.012222,21.742778,2026-03-10 13:26:01.623967,15.92,14.4,15.92,15.92,1025,32,4.22,194,7,0.0,Clear,clear sky,13
Kemecse,48.065556,21.801667,2026-03-10 13:26:02.888053,15.58,14.03,15.58,15.58,1025,32,4.09,189,7,0.0,Clear,clear sky,13
Nyírbogdány,48.082222,21.855278,2026-03-10 13:26:04.159269,15.58,14.03,15.58,15.58,1025,32,4.03,186,8,0.0,Clear,clear sky,13
Kék,48.093333,21.883889,2026-03-10 13:26:05.428776,15.66,14.09,15.66,15.66,1025,31,3.93,182,8,0.0,Clear,clear sky,13
Demecser,48.111667,21.926667,2026-03-10 13:26:06.689245,15.69,14.12,15.69,15.69,1025,31,3.89,179,8,0.0,Clear,clear sky,13
Gégény,48.128333,21.951944,2026-03-10 13:26:07.924721,15.69,14.12,15.69,15.69,1025,31,3.85,177,8,0.0,Clear,clear sky,13
Pátroha,48.158611,21.996667,2026-03-10 13:26:09.188549,15.73,14.19,15.73,15.73,1025,32,3.8,176,8,0.0,Clear,clear sky,13
Ajak,48.1865,22.048972,2026-03-10 13:26:10.446789,15.75,14.22,15.75,15.75,1025,32,3.75,175,8,0.0,Clear,clear sky,13
Kisvárda,48.208333,22.078333,2026-03-10 13:26:11.701893,15.77,14.24,15.77,15.77,1025,32,3.65,173,7,0.0,Clear,clear sky,13
Kisvárda-Hármasút,48.228333,22.091944,2026-03-10 13:26:12.959567,15.77,14.24,15.77,15.77,1025,32,3.65,173,7,0.0,Clear,clear sky,13
Fényeslitke,48.267222,22.107222,2026-03-10 13:26:14.195610,15.72,14.18,15.72,15.72,1025,32,3.61,174,4,0.0,Clear,clear sky,13
Komoró,48.305278,22.118056,2026-03-10 13:26:15.467344,15.73,14.22,15.73,15.73,1025,33,3.62,174,2,0.0,Clear,clear sky,13
Tuzsér,48.342222,22.131667,2026-03-10 13:26:16.689193,15.65,14.13,15.65,15.65,1025,33,3.66,175,0,0.0,Clear,clear sky,13
Tiszabezdéd,48.371389,22.145,2026-03-10 13:26:17.944756,15.69,14.18,15.69,15.69,1025,33,3.75,175,0,0.0,Clear,clear sky,13
Záhony,48.402222,22.183611,2026-03-10 13:26:19.200607,15.7,14.19,15.7,15.7,1025,33,3.87,175,0,0.0,Clear,clear sky,13
Karcag-Vásártér,47.3225,20.9075,2026-03-10 13:26:20.471212,17.78,16.5,17.78,17.78,1025,34,5.4,186,57,0.0,Clouds,broken clouds,13
Berekfürdő,47.374722,20.827222,2026-03-10 13:26:21.735180,17.77,16.52,17.77,17.77,1025,35,5.35,184,82,0.0,Clouds,broken clouds,13
Kunmadaras,47.415278,20.793056,2026-03-10 13:26:23.001595,17.76,16.56,17.76,17.76,1025,37,5.31,183,91,0.0,Clouds,overcast clouds,13
Tiszaszentimre,47.490833,20.733056,2026-03-10 13:26:24.262921,17.77,16.57,17.77,17.77,1025,37,5.22,183,98,0.0,Clouds,overcast clouds,13
Tiszaszőlős,47.555556,20.728056,2026-03-10 13:26:25.525915,17.77,16.57,17.77,17.77,1025,37,5.19,184,99,0.0,Clouds,overcast clouds,13
Hosszúhát,47.235556,21.101944,2026-03-10 13:26:26.760978,15.98,14.44,15.98,15.98,1025,31,5.42,191,14,0.0,Clouds,few clouds,13
Szerep,47.234444,21.145833,2026-03-10 13:26:28.018459,16.02,14.49,16.02,16.02,1025,31,5.42,192,11,0.0,Clouds,few clouds,13
Sárrétudvari,47.231667,21.180833,2026-03-10 13:26:29.281435,16.05,14.49,16.05,16.05,1025,30,5.41,193,9,0.0,Clear,clear sky,13
Biharnagybajom,47.208889,21.221944,2026-03-10 13:26:30.538092,16.11,14.56,16.11,16.11,1025,30,5.36,194,5,0.0,Clear,clear sky,13
Füzesgyarmat,47.113056,21.194444,2026-03-10 13:26:31.806268,16.21,14.64,16.21,16.21,1025,29,5.29,191,3,0.0,Clear,clear sky,13
Füzesgyarmatfürdő,47.093787,21.201582,2026-03-10 13:26:33.052756,16.21,14.64,16.21,16.21,1025,29,5.29,191,3,0.0,Clear,clear sky,13
Báránd,47.299722,21.235278,2026-03-10 13:26:34.322596,15.99,14.43,15.99,15.99,1025,30,5.41,195,7,0.0,Clear,clear sky,13
Sáp,47.259722,21.360556,2026-03-10 13:26:35.577928,16.16,14.59,16.16,16.16,1025,29,5.26,197,2,0.0,Clear,clear sky,13
Berettyóújfalu,47.211944,21.535556,2026-03-10 13:26:36.843750,16.39,14.79,16.39,16.39,1025,27,4.72,200,1,0.0,Clear,clear sky,13
Mezőpeterd,47.176111,21.625278,2026-03-10 13:26:38.112814,17.5,15.98,17.28,17.5,1025,26,4.4,202,2,0.0,Clear,clear sky,13
Biharkeresztes,47.135556,21.721389,2026-03-10 13:26:39.369615,17.47,15.93,17.25,17.47,1025,25,5.14,240,0,0.0,Clear,clear sky,13
Tócóvölgy,47.529444,21.588889,2026-03-10 13:26:40.634281,15.97,14.43,15.97,15.97,1025,31,4.63,190,0,0.0,Clear,clear sky,13
Sáregres,46.7825,18.588889,2026-03-10 13:26:41.893013,15.91,14.81,15.91,15.91,1023,48,3.61,166,100,0.0,Clouds,overcast clouds,13
Simontornya,46.756582,18.540674,2026-03-10 13:26:43.146924,15.9,14.8,15.9,15.9,1023,48,3.55,162,100,0.0,Clouds,overcast clouds,13
Tolnanémedi,46.727778,18.475833,2026-03-10 13:26:44.391144,16.0,14.91,16.0,16.0,1023,48,3.5,161,99,0.0,Clouds,overcast clouds,13
Pincehely,46.681389,18.43,2026-03-10 13:26:45.649165,15.95,14.85,15.95,15.95,1023,48,3.32,162,100,0.0,Clouds,overcast clouds,13
Keszőhidegkút-Gyönk,46.597778,18.426111,2026-03-10 13:26:46.914043,16.02,14.93,16.02,16.02,1023,48,3.16,162,97,0.0,Clouds,overcast clouds,13
Szárazd,46.575556,18.420833,2026-03-10 13:26:48.183792,16.06,14.97,16.06,16.06,1023,48,3.12,162,95,0.0,Clouds,overcast clouds,13
Regöly,46.568889,18.396111,2026-03-10 13:26:49.425125,16.06,14.97,16.06,16.06,1023,48,3.12,162,95,0.0,Clouds,overcast clouds,13
Szakály-Hőgyész,46.523611,18.389444,2026-03-10 13:26:50.679079,16.02,14.93,16.02,16.02,1023,48,2.96,164,93,0.0,Clouds,overcast clouds,13
Dúzs,46.493889,18.377222,2026-03-10 13:26:51.928328,16.06,14.97,16.06,16.06,1023,48,2.92,165,92,0.0,Clouds,overcast clouds,13
Csibrák,46.466667,18.336389,2026-03-10 13:26:53.186546,16.15,15.07,16.15,16.15,1023,48,2.83,167,91,0.0,Clouds,overcast clouds,13
Kurd,46.449167,18.319167,2026-03-10 13:26:54.458726,15.79,14.68,15.79,15.79,1023,48,2.8,168,92,0.0,Clouds,overcast clouds,13
Döbrököz,46.418889,18.255,2026-03-10 13:26:55.699678,16.13,15.05,16.13,16.13,1023,48,2.67,172,94,0.0,Clouds,overcast clouds,13
Dombóvár,46.37,18.149722,2026-03-10 13:26:56.954485,16.14,15.06,16.14,16.14,1023,48,2.63,182,100,0.0,Clouds,overcast clouds,13
Dombóvár alsó,46.363889,18.134167,2026-03-10 13:26:58.219868,16.14,15.06,16.14,16.14,1023,48,2.63,182,100,0.0,Clouds,overcast clouds,13
Somoskőújfalu,48.154722,19.815556,2026-03-10 13:26:59.479033,12.77,11.3,12.77,12.77,1024,46,2.59,174,100,0.0,Clouds,overcast clouds,13
Jászfényszaru,47.593056,19.754444,2026-03-10 13:27:00.739982,15.3,14.03,15.3,15.3,1023,44,4.31,167,100,0.0,Clouds,overcast clouds,13
Pusztamonostor,47.564444,19.794167,2026-03-10 13:27:01.964740,15.5,14.25,15.5,15.5,1023,44,4.35,169,100,0.0,Clouds,overcast clouds,13
Jászberény,47.494444,19.893333,2026-03-10 13:27:03.203431,15.6,14.36,15.6,15.6,1023,44,4.6,174,100,0.0,Clouds,overcast clouds,13
Meggyespele,47.441944,19.938889,2026-03-10 13:27:04.466985,15.62,14.36,15.62,15.62,1023,43,4.92,177,100,0.0,Clouds,overcast clouds,13
Portelek,47.418056,19.958889,2026-03-10 13:27:05.726431,15.64,14.38,15.64,15.64,1023,43,4.99,177,100,0.0,Clouds,overcast clouds,13
Jászboldogháza-Jánoshida,47.366944,20.001389,2026-03-10 13:27:06.983593,15.63,14.37,15.63,15.63,1023,43,5.14,178,99,0.0,Clouds,overcast clouds,13
Jászárokszállás,47.635556,19.971111,2026-03-10 13:27:08.207452,15.36,14.07,15.36,15.36,1024,43,4.24,173,100,0.0,Clouds,overcast clouds,13
Jászdózsa,47.563056,20.028056,2026-03-10 13:27:09.461253,15.4,14.09,15.4,15.4,1024,42,4.54,176,100,0.0,Clouds,overcast clouds,13
Jászapáti,47.513611,20.155,2026-03-10 13:27:10.726588,15.4,14.07,15.4,15.4,1024,41,4.91,178,100,0.0,Clouds,overcast clouds,13
Jászkisér,47.456111,20.203333,2026-03-10 13:27:11.984950,17.79,16.7,17.79,17.79,1024,41,5.1,178,100,0.0,Clouds,overcast clouds,13
Jászladány,47.373333,20.159167,2026-03-10 13:27:13.253889,15.68,14.37,15.68,16.01,1024,41,5.31,180,100,0.0,Clouds,overcast clouds,13
Szászberek,47.320556,20.090833,2026-03-10 13:27:14.513077,15.67,14.42,15.67,16.66,1024,43,5.37,180,100,0.0,Clouds,overcast clouds,13
Gyöngyöshalász,47.743056,19.932222,2026-03-10 13:27:15.735858,15.13,13.82,15.13,15.13,1024,43,3.76,169,100,0.0,Clouds,overcast clouds,13
Gyöngyös,47.783056,19.937222,2026-03-10 13:27:16.998444,14.77,13.4,14.77,14.77,1024,42,3.7,170,100,0.0,Clouds,overcast clouds,13
Erdőtelek,47.683333,20.3025,2026-03-10 13:27:18.261967,15.21,13.86,15.21,15.21,1024,41,4.63,179,100,0.0,Clouds,overcast clouds,13
Heves,47.609444,20.306111,2026-03-10 13:27:19.524361,17.72,16.62,17.72,17.72,1024,41,4.82,178,100,0.0,Clouds,overcast clouds,13
Hevesvezekény,47.562222,20.365833,2026-03-10 13:27:20.791020,17.76,16.56,17.76,17.76,1024,37,4.93,178,100,0.0,Clouds,overcast clouds,13
Tarnaszentmiklós,47.546944,20.390833,2026-03-10 13:27:22.023859,17.77,16.57,17.77,17.77,1024,37,4.98,178,100,0.0,Clouds,overcast clouds,13
Kisköre,47.495556,20.481667,2026-03-10 13:27:23.283412,17.79,16.59,17.79,17.79,1024,37,1.79,148,99,0.0,Clouds,overcast clouds,13
Abádszalók,47.455278,20.553056,2026-03-10 13:27:24.547117,17.77,16.57,17.77,17.77,1024,37,1.79,148,97,0.0,Clouds,overcast clouds,13
Kunhegyes,47.376667,20.641111,2026-03-10 13:27:25.813311,17.77,16.57,17.77,17.77,1025,37,5.29,180,91,0.0,Clouds,overcast clouds,13
Kenderes,47.254444,20.686111,2026-03-10 13:27:27.070344,17.8,16.55,17.8,17.8,1025,35,5.53,179,81,0.0,Clouds,broken clouds,13
Maklár,47.808056,20.404722,2026-03-10 13:27:28.300821,15.06,13.72,15.06,15.06,1024,42,4.79,181,99,0.0,Clouds,overcast clouds,13
Andornaktálya,47.852203,20.402295,2026-03-10 13:27:29.559261,14.98,13.66,14.98,14.98,1024,43,4.77,181,99,0.0,Clouds,overcast clouds,13
Eger,47.891667,20.381667,2026-03-10 13:27:30.811978,14.89,13.56,14.89,14.89,1024,43,4.68,179,100,0.0,Clouds,overcast clouds,13
Egervár,47.908056,20.380556,2026-03-10 13:27:32.073205,14.71,13.36,14.71,14.71,1024,43,4.67,179,100,0.0,Clouds,overcast clouds,13
Eger-Felnémet,47.936667,20.370556,2026-03-10 13:27:33.311078,14.76,13.44,14.76,14.76,1024,44,4.65,179,100,0.0,Clouds,overcast clouds,13
Szarvaskő,47.988611,20.3325,2026-03-10 13:27:34.574658,14.37,13.01,14.37,14.37,1024,44,4.58,178,100,0.0,Clouds,overcast clouds,13
Mónosbél,48.031944,20.33,2026-03-10 13:27:35.847448,14.51,13.19,14.51,14.51,1024,45,4.47,178,100,0.0,Clouds,overcast clouds,13
Bélapátfalva,48.055556,20.340556,2026-03-10 13:27:37.117361,14.24,12.89,14.24,14.24,1024,45,4.4,178,100,0.0,Clouds,overcast clouds,13
Bélapátfalvi Cementgyár,48.058056,20.355,2026-03-10 13:27:38.378820,14.24,12.89,14.24,14.24,1024,45,4.4,178,100,0.0,Clouds,overcast clouds,13
Szilvásvárad,48.11345,20.37919,2026-03-10 13:27:39.633823,13.88,12.47,13.88,13.88,1024,44,4.21,180,100,0.0,Clouds,overcast clouds,13
Hejőkeresztúr,47.960278,20.869444,2026-03-10 13:27:40.896999,15.24,13.86,15.24,15.24,1024,40,1.34,244,100,0.0,Clouds,overcast clouds,13
Tiszaújváros,47.926111,21.030556,2026-03-10 13:27:42.171706,15.29,13.92,15.29,15.29,1024,40,4.9,191,98,0.0,Clouds,overcast clouds,13
Miskolc-Gömöri,48.106667,20.800278,2026-03-10 13:27:43.436258,15.14,13.75,15.14,15.14,1024,40,5.07,183,100,0.0,Clouds,overcast clouds,13
Sajókeresztúr,48.168008,20.774014,2026-03-10 13:27:44.670316,15.08,13.77,15.08,15.08,1024,43,4.88,181,100,0.0,Clouds,overcast clouds,13
Sajóecseg,48.186111,20.766667,2026-03-10 13:27:45.926869,15.12,13.81,15.12,15.12,1024,43,4.8,181,100,0.0,Clouds,overcast clouds,13
Sajószentpéter,48.222222,20.708056,2026-03-10 13:27:47.190910,15.03,13.69,15.03,15.03,1024,42,4.65,180,100,0.0,Clouds,overcast clouds,13
Kazincbarcika,48.264444,20.6275,2026-03-10 13:27:48.466995,14.75,13.38,14.75,14.75,1024,42,4.03,180,100,0.0,Clouds,overcast clouds,13
Sajókaza,48.272778,20.581944,2026-03-10 13:27:49.691230,14.8,13.43,14.8,14.8,1024,42,3.9,180,100,0.0,Clouds,overcast clouds,13
Vadna,48.276389,20.555278,2026-03-10 13:27:50.961996,14.8,13.43,14.8,14.8,1024,42,3.9,180,100,0.0,Clouds,overcast clouds,13
Dubicsány,48.280833,20.504722,2026-03-10 13:27:52.210312,14.37,12.96,14.37,14.37,1024,42,3.6,182,100,0.0,Clouds,overcast clouds,13
Raposka,46.851389,17.412778,2026-03-10 13:27:53.475224,17.06,16.02,17.06,17.06,1022,46,4.96,191,51,0.0,Clouds,broken clouds,13
Ivacs,47.641944,19.273889,2026-03-10 13:27:54.709952,15.26,14.07,14.45,16.24,1022,47,4.0,159,87,0.0,Clouds,overcast clouds,13
Kisköre-Tiszahíd,47.480835,20.507698,2026-03-10 13:27:55.981977,17.77,16.57,17.77,17.77,1024,37,1.79,148,97,0.0,Clouds,overcast clouds,13
Rozsály,47.912778,22.7825,2026-03-10 13:27:57.250126,17.81,16.22,17.81,18.03,1025,22,4.28,150,15,0.0,Clouds,few clouds,13
Pusztakettős,47.453611,20.749722,2026-03-10 13:27:58.518708,17.77,16.57,17.77,17.77,1025,37,5.28,183,95,0.0,Clouds,overcast clouds,13
Kisvác,47.795278,19.113611,2026-03-10 13:27:59.784849,15.5,14.31,14.78,15.5,1022,46,3.96,154,27,0.0,Clouds,scattered clouds,13
Tiszafüred-Gyártelep,47.6075,20.736111,2026-03-10 13:28:01.018933,17.74,16.54,17.74,17.74,1025,37,5.14,186,100,0.0,Clouds,overcast clouds,13
Újkenéz,48.251111,22.221667,2026-03-10 13:28:02.252297,15.81,14.26,15.81,15.81,1025,31,3.69,172,6,0.0,Clear,clear sky,13
Püspökladány-Vásártér,47.319167,21.096111,2026-03-10 13:28:03.510030,15.87,14.35,15.87,15.87,1025,32,5.47,192,21,0.0,Clouds,few clouds,13
Végegyháza alsó,46.3675,20.866944,2026-03-10 13:28:04.777407,16.72,15.07,16.72,16.72,1024,24,6.62,183,5,0.0,Clear,clear sky,13
Orosháza felső,46.553611,20.655278,2026-03-10 13:28:06.040759,16.62,15.07,16.62,16.62,1025,28,6.86,184,0,0.0,Clear,clear sky,13
Ambrózfalva,46.353056,20.740556,2026-03-10 13:28:07.304077,16.46,14.81,16.46,16.46,1024,25,6.89,183,2,0.0,Clear,clear sky,13
Alsónyék,46.199444,18.738056,2026-03-10 13:28:08.536563,16.0,14.91,16.0,16.0,1023,48,2.91,173,100,0.0,Clouds,overcast clouds,13
Tompapuszta,46.321389,20.966389,2026-03-10 13:28:09.774577,16.71,17.05,16.71,17.28,1024,100,6.3,181,8,0.0,Clear,clear sky,13
Halászlak,46.911879,20.56228,2026-03-10 13:28:11.046355,16.65,15.23,16.65,16.65,1024,33,6.36,184,44,0.0,Clouds,scattered clouds,13
Sirató,46.840556,20.61,2026-03-10 13:28:12.306295,16.66,15.19,16.66,16.66,1025,31,6.48,184,26,0.0,Clouds,scattered clouds,13
Csabacsűd felső,46.829167,20.649167,2026-03-10 13:28:13.571500,16.65,15.18,16.65,16.65,1025,31,6.48,184,25,0.0,Clouds,scattered clouds,13
Orosháza-Üveggyár,46.579979,20.683644,2026-03-10 13:28:14.828630,16.61,15.03,16.61,16.61,1025,27,6.82,185,0,0.0,Clear,clear sky,13
Gyulai városerdő,46.69482,21.32281,2026-03-10 13:28:16.060255,16.58,15.0,16.58,16.58,1025,27,4.86,187,7,0.0,Clear,clear sky,13
Kórógyszentgyörgy,46.564377,20.224998,2026-03-10 13:28:17.328250,15.61,14.35,15.57,18.35,1024,43,6.53,176,20,0.0,Clouds,few clouds,13
Kunszállás,46.784444,19.767222,2026-03-10 13:28:18.563036,17.72,16.54,17.72,18.19,1024,38,5.47,174,100,0.0,Clouds,overcast clouds,13
Selymes,46.655321,19.8534,2026-03-10 13:28:19.833617,17.78,16.61,17.78,18.25,1024,38,5.82,174,78,0.0,Clouds,broken clouds,13
Petőfiszállási tanyák,46.587805,19.874509,2026-03-10 13:28:21.097527,17.82,16.68,17.82,18.29,1024,39,5.99,174,63,0.0,Clouds,broken clouds,13
Kisteleki szőlők,46.514199,19.92868,2026-03-10 13:28:22.328277,17.81,16.64,17.81,18.28,1024,38,6.24,174,38,0.0,Clouds,scattered clouds,13
Kapitányság,46.435336,19.987564,2026-03-10 13:28:23.583097,13.91,12.45,13.91,13.91,1024,42,6.45,174,23,0.0,Clouds,few clouds,13
Őszeszék,46.39025,20.016017,2026-03-10 13:28:24.854798,13.94,12.49,13.94,13.94,1024,42,6.54,173,18,0.0,Clouds,few clouds,13
Vilmaszállás,46.366389,20.030833,2026-03-10 13:28:26.087250,13.92,12.46,13.92,13.92,1024,42,6.71,172,17,0.0,Clouds,few clouds,13
Jánosszállás,46.334359,20.051199,2026-03-10 13:28:27.352221,13.95,12.5,13.95,13.95,1024,42,6.6,172,15,0.0,Clouds,few clouds,13
Felsőpakony,47.343056,19.230556,2026-03-10 13:28:28.610637,15.74,14.52,15.25,17.09,1023,44,4.12,110,0,0.0,Clear,clear sky,13
Felsőméntelek,46.987074,19.557745,2026-03-10 13:28:29.870942,15.88,14.54,15.88,15.88,1023,39,4.63,140,0,0.0,Clear,clear sky,13
Alsóméntelek,46.961558,19.579121,2026-03-10 13:28:31.103874,15.91,14.57,15.91,15.91,1023,39,4.63,140,0,0.0,Clear,clear sky,13
Nagynyír,46.943319,19.585447,2026-03-10 13:28:32.349426,15.9,14.56,15.9,15.9,1023,39,4.63,140,0,0.0,Clear,clear sky,13
Úrihegy,46.917778,19.621389,2026-03-10 13:28:33.586442,15.93,14.6,15.93,17.6,1023,39,4.63,140,0,0.0,Clear,clear sky,13
Miklóstelep,46.913412,19.630913,2026-03-10 13:28:34.849831,15.94,14.61,15.94,17.62,1023,39,4.63,140,0,0.0,Clear,clear sky,13
Tiszajenő alsó,47.016944,20.134444,2026-03-10 13:28:36.111360,16.68,15.58,16.02,16.68,1024,45,5.14,160,0,0.0,Clear,clear sky,13
Óbög,46.987222,20.111111,2026-03-10 13:28:37.367317,16.46,15.28,16.01,16.66,1024,43,5.14,160,0,0.0,Clear,clear sky,13
Árpádszállás,46.866456,19.989163,2026-03-10 13:28:38.634979,17.42,16.16,16.1,18.25,1024,36,4.63,140,0,0.0,Clear,clear sky,13
Tőserdő,46.851111,19.980278,2026-03-10 13:28:39.897039,17.53,16.28,16.12,18.27,1024,36,4.63,140,0,0.0,Clear,clear sky,13
Tiszaalpár felső,46.836256,19.976753,2026-03-10 13:28:41.135780,17.91,16.7,16.14,18.29,1024,36,4.63,140,0,0.0,Clear,clear sky,13
Borsihalom,46.773056,19.92,2026-03-10 13:28:42.392254,17.83,16.63,16.13,18.28,1024,37,5.86,176,75,0.0,Clouds,broken clouds,13
Petőfiváros,46.725556,19.848611,2026-03-10 13:28:43.669018,17.77,16.59,17.77,18.25,1024,38,5.71,174,88,0.0,Clouds,overcast clouds,13
Csorna,47.601944,17.248889,2026-03-10 13:28:44.912803,17.78,16.84,17.78,17.78,1021,47,6.78,180,11,0.0,Clouds,few clouds,13
Szorgalmatos,47.986667,21.366389,2026-03-10 13:28:46.170086,15.97,14.59,15.97,15.97,1025,37,4.44,194,18,0.0,Clouds,few clouds,13
Fótfürdő,47.6225,19.200556,2026-03-10 13:28:47.423164,15.38,14.12,14.5,16.75,1022,44,3.43,160,69,0.0,Clouds,broken clouds,13
Fenyveshegy,47.818333,19.068056,2026-03-10 13:28:48.687452,15.57,14.38,15.57,15.57,1022,46,3.64,153,20,0.0,Clouds,few clouds,13
Hűvösvölgy,47.541202,18.96351,2026-03-10 13:28:49.945086,14.87,13.64,13.99,16.24,1022,47,1.79,105,18,0.0,Clouds,few clouds,13
Hárshegy,47.535318,18.961433,2026-03-10 13:28:51.169214,14.87,13.64,13.99,16.24,1022,47,1.79,105,18,0.0,Clouds,few clouds,13
Szépjuhászné,47.528277,18.955246,2026-03-10 13:28:52.405849,14.03,12.72,13.1,15.35,1022,47,1.79,105,22,0.0,Clouds,few clouds,13
Jánoshegy,47.51433,18.95047,2026-03-10 13:28:53.666394,14.0,12.68,13.01,15.26,1022,47,1.79,105,22,0.0,Clouds,few clouds,13
Virágvölgy,47.505965,18.95876,2026-03-10 13:28:54.924908,13.74,12.4,12.69,14.94,1022,47,2.24,148,26,0.0,Clouds,scattered clouds,13
Csillebérc,47.498196,18.961694,2026-03-10 13:28:56.188807,13.56,12.2,12.46,14.71,1022,47,2.24,148,26,0.0,Clouds,scattered clouds,13
Normafa,47.5,18.970558,2026-03-10 13:28:57.448779,13.62,12.26,12.51,14.76,1022,47,2.24,148,26,0.0,Clouds,scattered clouds,13
Széchenyihegy,47.49413,18.977049,2026-03-10 13:28:58.715380,13.68,12.3,12.53,14.78,1022,46,2.24,148,32,0.0,Clouds,scattered clouds,13
Balatonfőkajár felső,47.031389,18.215278,2026-03-10 13:28:59.947895,15.73,14.9,12.95,15.73,1022,59,3.95,171,41,0.0,Clouds,scattered clouds,13
Piroska,47.148333,20.129722,2026-03-10 13:29:01.206454,16.39,15.18,15.68,16.68,1024,42,5.14,160,0,0.0,Clear,clear sky,13
Somodor,46.4725,17.836667,2026-03-10 13:29:02.439197,16.16,15.08,16.16,16.16,1023,48,3.75,187,80,0.0,Clouds,broken clouds,13
Középmező,45.995833,18.668889,2026-03-10 13:29:03.704033,16.73,15.71,16.73,16.73,1023,48,2.63,165,100,0.0,Clouds,overcast clouds,13
Jobbágyi,47.828889,19.6875,2026-03-10 13:29:04.970292,15.12,13.86,15.12,15.12,1023,45,4.1,157,100,0.0,Clouds,overcast clouds,13
Ferihegy,47.437222,19.223889,2026-03-10 13:29:06.194622,15.63,14.42,14.68,16.93,1023,45,4.12,110,0,0.0,Clear,clear sky,13
Máriapócs,47.852778,22.019167,2026-03-10 13:29:07.460152,15.83,14.17,15.83,15.83,1025,27,3.66,188,3,0.0,Clear,clear sky,13
Máriaudvar,47.751944,19.165,2026-03-10 13:29:08.721006,15.53,14.34,14.81,15.53,1022,46,3.87,156,40,0.0,Clouds,scattered clouds,13
Nagyberki,46.353333,18.004167,2026-03-10 13:29:09.984793,16.01,14.95,16.01,16.01,1023,49,2.98,188,100,0.0,Clouds,overcast clouds,13
Badacsonytomaj,46.804722,17.518056,2026-03-10 13:29:11.220148,16.63,15.58,16.63,16.63,1022,47,4.49,190,57,0.0,Clouds,broken clouds,13
Badacsony,46.788611,17.506389,2026-03-10 13:29:12.444249,17.11,16.1,17.11,17.11,1022,47,4.52,192,56,0.0,Clouds,broken clouds,13
Badacsonylábdihegy,46.793889,17.470833,2026-03-10 13:29:13.699124,17.08,16.07,17.08,17.08,1022,47,4.52,192,56,0.0,Clouds,broken clouds,13
Badacsonytördemic-Szigliget,46.809722,17.469167,2026-03-10 13:29:14.973752,17.03,16.02,17.03,17.03,1022,47,4.57,190,56,0.0,Clouds,broken clouds,13
Nemesgulács-Kisapáti,46.836944,17.476389,2026-03-10 13:29:16.229822,17.7,16.75,17.07,17.7,1022,47,4.62,189,56,0.0,Clouds,broken clouds,13
Tapolca,46.877778,17.428611,2026-03-10 13:29:17.499813,17.61,16.63,16.99,17.61,1022,46,5.05,190,50,0.0,Clouds,scattered clouds,13
Uzsabánya alsó,46.898333,17.345278,2026-03-10 13:29:18.763404,16.79,15.7,16.79,16.79,1022,45,5.41,190,44,0.0,Clouds,scattered clouds,13
Uzsa,46.920278,17.331667,2026-03-10 13:29:19.986917,16.75,15.66,16.75,16.75,1022,45,5.51,189,42,0.0,Clouds,scattered clouds,13
Sümegi Bazaltbánya,46.9525,17.2925,2026-03-10 13:29:21.258963,16.63,15.52,16.63,16.63,1022,45,5.71,189,38,0.0,Clouds,scattered clouds,13
Sümeg,46.981111,17.270833,2026-03-10 13:29:22.518232,16.82,15.71,16.82,16.82,1022,44,5.93,190,31,0.0,Clouds,scattered clouds,13
Gógánfa,47.021111,17.207778,2026-03-10 13:29:23.782291,16.81,15.7,16.81,16.81,1021,44,6.07,189,24,0.0,Clouds,few clouds,13
Ukk,47.041944,17.195833,2026-03-10 13:29:25.053665,16.86,15.75,16.86,16.86,1021,44,6.12,189,20,0.0,Clouds,few clouds,13
Nemeskeresztúr,47.093611,17.183611,2026-03-10 13:29:26.277664,16.77,15.68,16.77,16.77,1021,45,6.2,188,18,0.0,Clouds,few clouds,13
Jánosháza,47.115833,17.171667,2026-03-10 13:29:27.535133,16.83,15.74,16.83,16.83,1021,45,6.23,188,17,0.0,Clouds,few clouds,13
Keszthely,46.758333,17.248056,2026-03-10 13:29:28.815985,17.08,16.02,17.08,17.08,1022,45,4.63,180,0,0.0,Clear,clear sky,13
Alsógyenes,46.765844,17.276435,2026-03-10 13:29:30.095028,17.08,16.02,17.08,17.08,1022,45,4.63,180,0,0.0,Clear,clear sky,13
Gyenesdiás,46.763333,17.292778,2026-03-10 13:29:31.361331,17.08,16.02,17.08,17.08,1022,45,4.63,180,0,0.0,Clear,clear sky,13
Vonyarcvashegy,46.755278,17.318333,2026-03-10 13:29:32.634382,17.09,16.03,17.09,17.09,1022,45,4.63,180,0,0.0,Clear,clear sky,13
Balatongyörök,46.751944,17.354444,2026-03-10 13:29:33.858764,17.11,16.05,17.11,17.11,1022,45,4.63,180,0,0.0,Clear,clear sky,13
Becehegy,46.776111,17.372778,2026-03-10 13:29:35.135861,17.08,16.02,17.08,17.08,1022,45,4.63,180,0,0.0,Clear,clear sky,13
Balatonederics,46.8025,17.385,2026-03-10 13:29:36.391704,17.03,15.96,17.03,17.03,1022,45,5.02,193,49,0.0,Clouds,scattered clouds,13
Dabronc,47.025766,17.167006,2026-03-10 13:29:37.654778,16.86,15.75,16.86,16.86,1021,44,6.08,190,21,0.0,Clouds,few clouds,13
Türje,46.994444,17.093611,2026-03-10 13:29:38.936288,16.88,15.77,16.88,16.88,1021,44,6.06,192,17,0.0,Clouds,few clouds,13
Zalabér-Batyk,46.983056,17.040833,2026-03-10 13:29:40.201247,17.02,15.93,17.02,17.02,1021,44,6.0,194,12,0.0,Clouds,few clouds,13
Pakod,46.959167,16.996667,2026-03-10 13:29:41.472070,16.92,15.82,16.92,16.92,1021,44,5.98,195,12,0.0,Clouds,few clouds,13
Pókaszepetk,46.924444,16.972222,2026-03-10 13:29:42.740660,17.05,15.96,17.05,17.05,1021,44,5.89,195,17,0.0,Clouds,few clouds,13
Kemendollár,46.905833,16.946667,2026-03-10 13:29:43.966711,16.91,15.81,16.91,16.91,1021,44,5.85,196,15,0.0,Clouds,few clouds,13
Zalaegerszeg,46.833056,16.848333,2026-03-10 13:29:45.234047,16.73,15.61,16.73,16.73,1021,44,5.26,198,19,0.0,Clouds,few clouds,13
Bocfölde,46.780278,16.853611,2026-03-10 13:29:46.504294,16.79,15.67,16.79,16.79,1021,44,5.09,198,28,0.0,Clouds,scattered clouds,13
Sárhida,46.755833,16.851389,2026-03-10 13:29:47.780813,16.75,15.63,16.75,16.75,1021,44,4.86,199,29,0.0,Clouds,scattered clouds,13
Bak,46.7325,16.849167,2026-03-10 13:29:49.029805,16.71,15.59,16.71,16.71,1021,44,4.75,199,33,0.0,Clouds,scattered clouds,13
Tófej,46.670833,16.801944,2026-03-10 13:29:50.288922,16.56,15.42,16.56,16.56,1021,44,4.42,200,41,0.0,Clouds,scattered clouds,13
Gutorfölde,46.646944,16.739722,2026-03-10 13:29:51.554759,16.78,15.66,16.78,16.78,1021,44,4.2,200,43,0.0,Clouds,scattered clouds,13
Csömödér-Páka,46.608056,16.641111,2026-03-10 13:29:52.814908,13.51,12.04,13.51,18.89,1021,43,4.27,200,50,0.0,Clouds,scattered clouds,13
Iklódbördőce,46.603056,16.604722,2026-03-10 13:29:54.081818,13.51,12.04,13.51,18.89,1021,43,4.61,200,48,0.0,Clouds,scattered clouds,13
Lenti,46.621389,16.528611,2026-03-10 13:29:55.358018,13.45,12.0,13.45,18.84,1021,44,5.17,201,44,0.0,Clouds,scattered clouds,13
Rédics,46.618056,16.471111,2026-03-10 13:29:56.616883,13.45,12.0,13.45,18.83,1021,44,5.39,201,43,0.0,Clouds,scattered clouds,13
Zalalövő,46.845556,16.576389,2026-03-10 13:29:57.894977,16.85,15.74,16.85,16.85,1021,44,5.88,196,27,0.0,Clouds,scattered clouds,13
Zalaegerszeg-Ola,46.849167,16.844722,2026-03-10 13:29:59.152113,16.9,15.79,16.9,16.9,1021,44,5.26,198,19,0.0,Clouds,few clouds,13
Andráshida,46.863116,16.7792,2026-03-10 13:30:00.417421,16.96,15.86,16.96,16.96,1021,44,5.11,196,19,0.0,Clouds,few clouds,13
Bagod,46.875,16.746111,2026-03-10 13:30:01.707693,17.07,15.98,17.07,17.07,1021,44,5.08,196,19,0.0,Clouds,few clouds,13
Zalaszentgyörgy,46.872222,16.7125,2026-03-10 13:30:02.975701,17.04,15.95,17.04,17.04,1021,44,5.1,195,19,0.0,Clouds,few clouds,13
Zalacséb-Salomvár,46.858056,16.662222,2026-03-10 13:30:04.225403,16.46,15.34,16.46,16.46,1021,45,5.61,196,19,0.0,Clouds,few clouds,13
Kópháza,47.631389,16.6375,2026-03-10 13:30:05.643950,17.33,16.29,16.88,17.33,1020,45,5.96,194,13,0.0,Clouds,few clouds,13
Nagycenk,47.601111,16.690278,2026-03-10 13:30:06.904153,17.44,16.41,16.99,17.44,1020,45,6.16,194,13,0.0,Clouds,few clouds,13
Sopronkövesd,47.548333,16.748056,2026-03-10 13:30:08.176105,16.82,15.78,16.82,17.27,1020,47,6.59,195,14,0.0,Clouds,few clouds,13
Lövő,47.509444,16.7775,2026-03-10 13:30:09.408453,16.86,15.83,16.86,17.31,1020,47,6.85,194,14,0.0,Clouds,few clouds,13
Újkér,47.457778,16.786667,2026-03-10 13:30:10.784022,16.88,15.85,16.88,16.88,1020,47,6.93,194,15,0.0,Clouds,few clouds,13
Bük,47.388611,16.752222,2026-03-10 13:30:12.061825,16.94,15.92,16.94,16.94,1020,47,6.88,194,15,0.0,Clouds,few clouds,13
Acsád,47.308333,16.734722,2026-03-10 13:30:13.321434,16.69,15.64,16.69,16.69,1020,47,6.95,194,15,0.0,Clouds,few clouds,13
Salköveskút-Vassurány,47.291389,16.704167,2026-03-10 13:30:14.579758,16.7,15.65,16.7,16.7,1020,47,6.96,193,15,0.0,Clouds,few clouds,13
Zalaszentiván,46.8875,16.909444,2026-03-10 13:30:15.812362,16.89,15.76,16.89,16.89,1021,43,5.51,196,18,0.0,Clouds,few clouds,13
Alsónemesapáti,46.854167,16.936389,2026-03-10 13:30:17.060699,16.86,15.75,16.86,16.86,1021,44,5.72,196,23,0.0,Clouds,few clouds,13
Józsa,47.600833,21.584444,2026-03-10 13:30:18.328742,15.86,14.31,15.86,15.86,1025,31,4.63,190,0,0.0,Clear,clear sky,13
Hajdúszentgyörgy,47.608056,21.578333,2026-03-10 13:30:19.586457,15.83,14.28,15.83,15.83,1025,31,4.63,190,0,0.0,Clear,clear sky,13
Zelemér,47.627778,21.578333,2026-03-10 13:30:20.843147,15.78,14.22,15.78,15.78,1025,31,4.63,190,0,0.0,Clear,clear sky,13
Hajdúböszörmény,47.668056,21.524167,2026-03-10 13:30:22.091931,15.85,14.33,15.85,15.85,1025,32,4.76,194,8,0.0,Clear,clear sky,13
Hajdúvid,47.749444,21.508056,2026-03-10 13:30:23.349725,14.78,13.2,14.78,14.78,1025,34,4.86,196,14,0.0,Clouds,few clouds,13
Hajdúdorog,47.805556,21.493056,2026-03-10 13:30:24.619196,14.68,13.09,14.68,14.68,1025,34,4.85,196,15,0.0,Clouds,few clouds,13
Hajdúnánás,47.831944,21.426667,2026-03-10 13:30:25.882271,14.59,13.02,14.59,14.59,1025,35,4.89,196,24,0.0,Clouds,few clouds,13
Hajdúnánás-Vásártér,47.843056,21.407222,2026-03-10 13:30:27.141197,14.59,13.02,14.59,14.59,1025,35,4.89,196,24,0.0,Clouds,few clouds,13
Tedej,47.903611,21.404444,2026-03-10 13:30:28.417037,15.98,14.57,15.98,15.98,1025,36,4.81,195,27,0.0,Clouds,scattered clouds,13
Tiszavasvári,47.945278,21.374722,2026-03-10 13:30:29.670938,15.98,14.57,15.98,15.98,1025,36,4.79,195,34,0.0,Clouds,scattered clouds,13
Egyházerdő,47.9725,21.365,2026-03-10 13:30:30.942958,16.0,14.62,16.0,16.0,1025,37,4.75,195,35,0.0,Clouds,scattered clouds,13
Tiszalök,48.013056,21.369167,2026-03-10 13:30:32.203834,15.97,14.59,15.97,15.97,1025,37,4.68,195,38,0.0,Clouds,scattered clouds,13
Hajnalos,47.998889,21.414167,2026-03-10 13:30:33.483683,15.98,14.57,15.98,15.98,1025,36,4.73,195,31,0.0,Clouds,scattered clouds,13
Kisfástanya,47.989167,21.47,2026-03-10 13:30:34.741885,15.95,14.54,15.95,15.95,1025,36,4.74,196,27,0.0,Clouds,scattered clouds,13
Tiszaeszlár,48.010556,21.491944,2026-03-10 13:30:36.021397,15.96,14.55,15.96,15.96,1025,36,4.73,197,24,0.0,Clouds,few clouds,13
Bashalom,48.026111,21.514722,2026-03-10 13:30:37.279328,15.93,14.52,15.93,15.93,1025,36,4.7,197,25,0.0,Clouds,scattered clouds,13
Sáránd,47.415556,21.625,2026-03-10 13:30:38.533799,16.01,14.48,16.01,16.01,1025,31,4.63,190,0,0.0,Clear,clear sky,13
Derecske,47.365,21.584167,2026-03-10 13:30:39.804452,16.08,14.55,16.08,16.08,1025,31,4.63,190,0,0.0,Clear,clear sky,13
Derecske-Vásártér,47.352222,21.58,2026-03-10 13:30:41.059135,16.08,14.55,16.08,16.08,1025,31,4.63,190,0,0.0,Clear,clear sky,13
Konyár,47.323611,21.666111,2026-03-10 13:30:42.285680,16.05,14.52,16.05,16.05,1025,31,4.63,190,0,0.0,Clear,clear sky,13
Konyári Sóstófürdő,47.324167,21.744444,2026-03-10 13:30:43.541754,16.06,14.45,16.06,16.06,1025,28,4.01,209,0,0.0,Clear,clear sky,13
Pocsaj-Esztár,47.288333,21.793056,2026-03-10 13:30:44.786349,16.05,14.42,16.05,17.46,1025,27,3.75,210,2,0.0,Clear,clear sky,13
Kismarja,47.243889,21.813889,2026-03-10 13:30:46.057606,17.46,15.97,17.24,17.46,1025,27,3.77,212,2,0.0,Clear,clear sky,13
Nagykereki,47.191667,21.8,2026-03-10 13:30:47.317223,17.45,15.9,17.23,17.45,1025,25,3.82,213,4,0.0,Clear,clear sky,13
Debrecen-Szabadságtelep,47.527778,21.658611,2026-03-10 13:30:48.573200,15.89,14.34,15.89,15.89,1025,31,4.63,190,0,0.0,Clear,clear sky,13
Kondoroskert,47.525556,21.713889,2026-03-10 13:30:49.833253,15.92,14.38,15.92,15.92,1025,31,4.63,190,0,0.0,Clear,clear sky,13
Nagycsere,47.523889,21.763056,2026-03-10 13:30:51.066898,15.9,14.36,15.9,15.9,1025,31,4.63,190,0,0.0,Clear,clear sky,13
Haláp,47.521667,21.818333,2026-03-10 13:30:52.320428,15.9,14.36,15.9,15.9,1025,31,4.63,190,0,0.0,Clear,clear sky,13
Vámospércs,47.518056,21.893889,2026-03-10 13:30:53.578702,15.84,14.21,15.84,15.84,1025,28,4.08,206,4,0.0,Clear,clear sky,13
Szentannapuszta,47.52,21.965833,2026-03-10 13:30:54.833777,15.79,14.13,15.79,15.79,1025,27,3.97,208,5,0.0,Clear,clear sky,13
Nyírábrány,47.523889,22.016944,2026-03-10 13:30:56.092639,15.88,14.23,15.88,15.88,1025,27,3.93,210,5,0.0,Clear,clear sky,13
Dombostanya,47.602778,21.706389,2026-03-10 13:30:57.326451,15.82,14.27,15.82,15.82,1025,31,4.63,190,0,0.0,Clear,clear sky,13
Hajdúsámson,47.608056,21.755278,2026-03-10 13:30:58.582949,15.82,14.27,15.82,15.82,1025,31,4.63,190,0,0.0,Clear,clear sky,13
Tamásipuszta,47.632778,21.796111,2026-03-10 13:30:59.837605,15.77,14.16,15.77,15.77,1025,29,4.52,204,4,0.0,Clear,clear sky,13
Aradványpuszta,47.662778,21.8425,2026-03-10 13:31:01.097603,15.72,14.1,15.72,15.72,1025,29,4.58,205,4,0.0,Clear,clear sky,13
Nyíradony,47.699444,21.903333,2026-03-10 13:31:02.369215,15.36,13.68,15.36,15.36,1025,28,4.67,209,3,0.0,Clear,clear sky,13
Nyírmihálydi,47.7375,21.958889,2026-03-10 13:31:03.600929,15.82,14.14,15.82,15.82,1025,26,3.95,205,2,0.0,Clear,clear sky,13
Nyírgelse,47.750833,21.987778,2026-03-10 13:31:04.857050,15.38,13.68,15.38,15.38,1025,27,4.68,211,3,0.0,Clear,clear sky,13
Nyírbogát,47.793056,22.066389,2026-03-10 13:31:06.114769,15.57,13.86,15.57,15.57,1025,26,4.4,210,4,0.0,Clear,clear sky,13
Nagykálló,47.871111,21.825833,2026-03-10 13:31:07.379600,15.15,13.5,15.15,15.15,1025,30,4.89,207,9,0.0,Clear,clear sky,13
Kállósemjén,47.854722,21.935,2026-03-10 13:31:08.647721,15.29,13.61,15.29,15.29,1025,28,4.8,209,5,0.0,Clear,clear sky,13
Nyírbátor,47.8425,22.131111,2026-03-10 13:31:09.879077,15.58,13.87,15.58,15.58,1025,26,4.22,207,5,0.0,Clear,clear sky,13
Nyírcsászári,47.865556,22.179167,2026-03-10 13:31:11.126427,16.02,14.36,16.02,16.02,1025,26,3.34,177,6,0.0,Clear,clear sky,13
Hodász,47.896111,22.213611,2026-03-10 13:31:12.391205,15.77,14.08,15.77,15.77,1025,26,3.58,195,7,0.0,Clear,clear sky,13
Nyírmeggyes,47.9225,22.256667,2026-03-10 13:31:13.656975,15.84,14.18,15.84,15.84,1025,27,3.51,187,6,0.0,Clear,clear sky,13
Mátészalka,47.951389,22.313333,2026-03-10 13:31:14.920674,15.93,14.28,15.93,15.93,1025,27,3.48,182,6,0.0,Clear,clear sky,13
Kocsord,47.941944,22.375833,2026-03-10 13:31:16.163922,16.23,14.59,16.23,16.23,1025,26,3.3,177,8,0.0,Clear,clear sky,13
Kocsord alsó,47.946389,22.400556,2026-03-10 13:31:17.422145,16.23,14.59,16.23,16.23,1025,26,3.3,177,8,0.0,Clear,clear sky,13
Győrtelek,47.936667,22.424722,2026-03-10 13:31:18.690231,16.31,14.68,16.31,16.31,1025,26,3.29,175,8,0.0,Clear,clear sky,13
Győrtelek alsó,47.921111,22.443333,2026-03-10 13:31:19.954442,16.41,14.79,16.41,16.41,1025,26,3.19,174,9,0.0,Clear,clear sky,13
Ököritófülpös,47.911389,22.495,2026-03-10 13:31:21.217209,16.47,14.85,16.47,16.47,1025,26,3.19,172,9,0.0,Clear,clear sky,13
Porcsalma-Tyukod,47.868056,22.568333,2026-03-10 13:31:22.450170,17.84,16.33,17.84,18.05,1025,25,3.01,168,10,0.0,Clear,clear sky,13
Csenger,47.826111,22.666389,2026-03-10 13:31:23.723437,17.83,16.3,17.83,18.04,1025,24,2.99,164,11,0.0,Clouds,few clouds,13
Kisfái,46.888303,19.807366,2026-03-10 13:31:25.008490,16.02,14.7,16.02,17.7,1023,39,4.63,140,0,0.0,Clear,clear sky,13
Nyárlőrinci szőlők,46.8775,19.828333,2026-03-10 13:31:26.289603,16.03,14.71,16.03,17.7,1024,39,4.63,140,0,0.0,Clear,clear sky,13
Nyárlőrinc alsó,46.863889,19.878889,2026-03-10 13:31:27.552919,16.05,14.73,16.05,17.72,1024,39,4.63,140,0,0.0,Clear,clear sky,13
Tiszaug-Tiszahídfő,46.866106,20.052098,2026-03-10 13:31:28.871254,17.36,16.2,15.57,17.88,1024,40,5.86,178,86,0.0,Clouds,overcast clouds,13
Csongrádi úti tanyák,46.690278,19.921667,2026-03-10 13:31:30.135926,17.83,16.66,15.53,17.83,1024,38,5.93,174,82,0.0,Clouds,broken clouds,13
Kettőshalom,46.689167,20.0225,2026-03-10 13:31:31.404737,17.67,16.51,15.56,17.86,1024,39,6.1,176,72,0.0,Clouds,broken clouds,13
Csongrád alsó,46.711389,20.126389,2026-03-10 13:31:32.679038,15.7,14.45,15.56,17.86,1024,43,6.2,177,65,0.0,Clouds,broken clouds,13
Dónát,46.66988,20.368168,2026-03-10 13:31:33.951211,16.67,15.52,15.58,16.67,1024,43,6.71,172,32,0.0,Clouds,scattered clouds,13
Pusztatemplom,46.676667,20.407222,2026-03-10 13:31:35.181204,16.66,15.5,15.57,16.66,1024,43,6.71,172,23,0.0,Clouds,few clouds,13
Előhát,47.364722,20.653611,2026-03-10 13:31:36.453328,17.78,16.63,17.78,17.78,1024,39,5.41,183,89,0.0,Clouds,overcast clouds,13
Polgárdi-Tekerespuszta,47.017778,18.297778,2026-03-10 13:31:37.719203,16.51,15.44,16.51,16.51,1022,47,4.07,167,63,0.0,Clouds,broken clouds,13
Szatina-Kishajmás,46.202778,18.083611,2026-03-10 13:31:38.983774,16.25,15.24,16.25,16.25,1023,50,2.19,171,98,0.0,Clouds,overcast clouds,13
Márok,45.886944,18.499167,2026-03-10 13:31:40.244622,16.21,15.11,15.94,18.36,1023,47,1.34,207,100,0.0,Clouds,overcast clouds,13
Nagynyárád,45.953333,18.564722,2026-03-10 13:31:41.468991,17.27,16.2,16.01,18.43,1023,44,2.5,156,100,0.0,Clouds,overcast clouds,13
Szászvár,46.2875,18.369722222222222,2026-03-10 13:31:42.734618,18.02,17.21,18.02,18.02,1023,51,2.67,167,99,0.0,Clouds,overcast clouds,13
Cikó,46.263514,18.557605,2026-03-10 13:31:44.004289,18.34,17.56,18.34,18.34,1023,51,2.9,168,100,0.0,Clouds,overcast clouds,13
Gyöngyfa-Magyarmecske,45.983889,17.958889,2026-03-10 13:31:45.275038,16.57,15.56,16.57,16.57,1023,49,1.97,133,97,0.0,Clouds,overcast clouds,13
Nagyhát,47.581389,21.445,2026-03-10 13:31:46.498120,15.92,14.38,15.92,15.92,1025,31,4.63,190,0,0.0,Clear,clear sky,13
Balmazújváros,47.613889,21.348056,2026-03-10 13:31:47.730709,16.1,14.65,16.1,16.1,1025,34,5.21,197,27,0.0,Clouds,scattered clouds,13
Kónya,47.600833,21.2375,2026-03-10 13:31:49.000059,14.77,13.22,14.77,14.77,1025,35,5.26,197,40,0.0,Clouds,scattered clouds,13
