station_name,station_lat,station_lon,observation_time,temp,feels_like,temp_min,temp_max,pressure,humidity,wind_speed,wind_deg,clouds,precipitation_1h,weather_main,weather_description,collection_hour
Búcsúszentlászló,46.793056,16.932778,2026-03-07 15:31:40.095094,14.29,13.0,14.29,14.29,1025,47,1.45,147,0,0.0,Clear,clear sky,15
Angyalföld,47.549722,19.09,2026-03-07 15:31:41.299704,14.13,12.38,14.13,14.13,1026,30,1.95,105,0,0.0,Clear,clear sky,15
Felsőjánosfa,46.841389,16.544167,2026-03-07 15:31:42.501895,14.07,12.86,14.07,14.07,1025,51,1.81,141,0,0.0,Clear,clear sky,15
Pankasz,46.835833,16.496111,2026-03-07 15:31:43.715297,13.81,12.6,13.81,13.81,1025,52,1.95,135,0,0.0,Clear,clear sky,15
Nagyrákos,46.827222,16.455556,2026-03-07 15:31:44.911868,13.79,12.58,13.79,13.79,1025,52,2.02,133,0,0.0,Clear,clear sky,15
Őriszentpéter,46.828889,16.415278,2026-03-07 15:31:46.113816,13.9,12.7,13.9,13.9,1025,52,2.16,129,0,0.0,Clear,clear sky,15
Törökbálint,47.45,18.908611,2026-03-07 15:31:47.319748,13.66,11.97,13.66,13.66,1026,34,2.18,110,0,0.0,Clear,clear sky,15
Bicske alsó,47.486389,18.642778,2026-03-07 15:31:48.531779,13.13,11.67,13.13,13.13,1026,45,2.1,122,0,0.0,Clear,clear sky,15
Bajánsenye,46.818056,16.358056,2026-03-07 15:31:49.731792,13.97,12.81,13.97,13.97,1025,53,2.27,125,0,0.0,Clear,clear sky,15
Aquincum,47.566218,19.048273,2026-03-07 15:31:50.931389,13.61,11.86,13.61,13.61,1026,32,1.93,111,0,0.0,Clear,clear sky,15
Piliscsév,47.673889,18.791389,2026-03-07 15:31:52.131475,12.9,11.45,12.9,12.9,1026,46,1.36,118,0,0.0,Clear,clear sky,15
Tát,47.741201,18.64783,2026-03-07 15:31:53.330648,13.61,12.31,13.61,13.61,1026,49,1.2,126,0,0.0,Clear,clear sky,15
Süttő felső,47.756667,18.437222,2026-03-07 15:31:54.537482,13.87,12.59,13.87,13.87,1026,49,1.71,132,0,0.0,Clear,clear sky,15
Budatétény,47.405,19.016389,2026-03-07 15:31:55.753498,13.82,12.07,13.82,13.82,1026,31,2.15,102,0,0.0,Clear,clear sky,15
Seregélyes-Szőlőhegy,47.119444,18.612222,2026-03-07 15:31:56.956638,13.72,12.17,13.72,13.72,1026,39,2.53,90,0,0.0,Clear,clear sky,15
Gödöllő-Állami telepek,47.564444,19.375556,2026-03-07 15:31:58.157252,12.36,10.7,12.36,12.36,1026,40,1.91,83,0,0.0,Clear,clear sky,15
Dunakeszi alsó,47.607778,19.128889,2026-03-07 15:31:59.365289,13.76,12.05,13.76,13.76,1026,33,1.97,103,0,0.0,Clear,clear sky,15
Vác-Alsóváros,47.773056,19.149722,2026-03-07 15:32:00.571794,12.67,11.25,12.67,12.67,1026,48,1.93,108,0,0.0,Clear,clear sky,15
Szob alsó,47.816667,18.8725,2026-03-07 15:32:01.785168,13.26,11.95,13.26,13.26,1026,50,1.32,106,0,0.0,Clear,clear sky,15
Zalaszentmihály-Pacsa,46.7225,16.951944,2026-03-07 15:32:02.982123,14.24,12.95,14.24,14.24,1025,47,1.42,152,0,0.0,Clear,clear sky,15
Pötréte,46.682778,16.9575,2026-03-07 15:32:04.183643,14.2,12.9,14.2,14.2,1025,47,1.47,156,0,0.0,Clear,clear sky,15
Felsőrajk,46.667222,16.982778,2026-03-07 15:32:05.400503,14.2,12.88,14.2,14.2,1025,46,1.49,153,0,0.0,Clear,clear sky,15
Gelse,46.600556,16.982778,2026-03-07 15:32:06.609468,14.11,12.78,14.11,14.11,1025,46,1.68,155,0,0.0,Clear,clear sky,15
Őrtilos,46.297778,16.887778,2026-03-07 15:32:07.822846,13.98,12.63,13.98,13.98,1025,46,2.45,121,0,0.0,Clear,clear sky,15
Zákány,46.251944,16.9425,2026-03-07 15:32:09.030579,13.8,12.38,13.8,13.8,1025,44,2.59,121,0,0.0,Clear,clear sky,15
Berzence,46.201389,17.143611,2026-03-07 15:32:10.255872,14.33,12.86,14.33,14.33,1025,40,2.55,122,0,0.0,Clear,clear sky,15
Somogyudvarhely,46.163333,17.179722,2026-03-07 15:32:11.459649,14.23,12.75,14.23,14.23,1025,40,2.48,121,0,0.0,Clear,clear sky,15
Bélavár,46.122778,17.207778,2026-03-07 15:32:12.665311,14.07,12.63,14.07,14.07,1025,42,2.32,117,0,0.0,Clear,clear sky,15
Vízvár,46.101389,17.239444,2026-03-07 15:32:13.870490,13.88,12.42,13.88,13.88,1025,42,2.22,114,0,0.0,Clear,clear sky,15
Babócsa,46.028359,17.342276,2026-03-07 15:32:15.070675,13.67,12.22,13.67,13.67,1025,43,2.08,107,0,0.0,Clear,clear sky,15
Péterhida-Komlósd,46.006667,17.358056,2026-03-07 15:32:16.275731,13.61,12.15,13.61,13.61,1025,43,2.11,102,0,0.0,Clear,clear sky,15
Barcs,45.951944,17.446944,2026-03-07 15:32:17.474869,13.44,11.99,13.44,13.44,1025,44,2.4,94,0,0.0,Clear,clear sky,15
Barcs felső,45.958333,17.486389,2026-03-07 15:32:18.677555,13.37,11.91,13.37,13.37,1025,44,2.42,95,0,0.0,Clear,clear sky,15
Középrigóc,45.970556,17.525,2026-03-07 15:32:19.879699,13.3,11.83,13.3,13.3,1025,44,2.43,96,0,0.0,Clear,clear sky,15
Darány,45.992222,17.598611,2026-03-07 15:32:21.080610,13.4,11.92,13.4,13.4,1025,43,2.32,103,0,0.0,Clear,clear sky,15
Kisdobsza,46.012222,17.668056,2026-03-07 15:32:22.279070,13.51,12.04,13.51,13.51,1025,43,2.21,108,0,0.0,Clear,clear sky,15
Nemeske,46.023333,17.705278,2026-03-07 15:32:23.475858,13.55,12.08,13.55,13.55,1025,43,2.22,109,0,0.0,Clear,clear sky,15
Molvány,46.035278,17.748611,2026-03-07 15:32:24.671282,13.55,12.11,13.55,13.55,1025,44,2.13,112,0,0.0,Clear,clear sky,15
Szigetvár,46.043333,17.801944,2026-03-07 15:32:25.868227,13.52,12.08,13.52,13.52,1025,44,2.11,112,0,0.0,Clear,clear sky,15
Nagypeterd,46.039444,17.871667,2026-03-07 15:32:27.069610,13.54,12.07,13.54,13.54,1025,43,2.05,110,0,0.0,Clear,clear sky,15
Szentdénes,46.036667,17.926944,2026-03-07 15:32:28.267094,13.48,12.01,13.48,13.48,1025,43,2.01,109,0,0.0,Clear,clear sky,15
Háros,47.412222,19.035,2026-03-07 15:32:29.473752,13.82,12.07,13.82,13.82,1026,31,2.15,102,0,0.0,Clear,clear sky,15
Nagytétény-Diósd,47.398333,18.974444,2026-03-07 15:32:30.672824,14.02,12.34,14.02,14.02,1026,33,2.21,99,0,0.0,Clear,clear sky,15
Érdliget,47.390278,18.937778,2026-03-07 15:32:31.868135,13.91,12.24,13.91,13.91,1026,34,2.23,101,0,0.0,Clear,clear sky,15
Érd felső,47.381111,18.922222,2026-03-07 15:32:33.064749,13.54,11.86,13.54,13.54,1026,35,2.25,102,0,0.0,Clear,clear sky,15
Érd,47.369722,18.900833,2026-03-07 15:32:34.268495,13.61,11.97,13.61,13.61,1026,36,2.3,98,0,0.0,Clear,clear sky,15
Százhalombatta,47.322222,18.899167,2026-03-07 15:32:35.469264,13.46,11.85,13.46,13.46,1026,38,2.4,90,0,0.0,Clear,clear sky,15
Dunai Finomító,47.294444,18.878889,2026-03-07 15:32:36.663620,13.27,11.7,13.27,13.27,1026,40,2.46,88,0,0.0,Clear,clear sky,15
Ercsi,47.247222,18.875278,2026-03-07 15:32:37.868506,13.37,11.81,13.37,13.37,1026,40,2.5,86,0,0.0,Clear,clear sky,15
Iváncsa,47.177778,18.811944,2026-03-07 15:32:39.076015,13.42,11.86,13.42,13.42,1026,40,2.55,86,0,0.0,Clear,clear sky,15
Pusztaszabolcs,47.139722,18.761667,2026-03-07 15:32:40.271682,13.57,12.0,13.57,13.57,1026,39,2.52,88,0,0.0,Clear,clear sky,15
Szabadegyháza,47.082778,18.704167,2026-03-07 15:32:41.480153,13.63,12.07,13.63,13.63,1026,39,2.48,91,0,0.0,Clear,clear sky,15
Sárosd,47.039722,18.660278,2026-03-07 15:32:42.683765,13.77,12.19,13.77,13.77,1026,38,2.46,93,0,0.0,Clear,clear sky,15
Nagylók,46.979444,18.635833,2026-03-07 15:32:43.889085,13.65,12.06,13.65,13.65,1026,38,2.4,97,0,0.0,Clear,clear sky,15
Sárbogárd,46.896944,18.611944,2026-03-07 15:32:45.091562,13.9,12.31,13.9,13.9,1026,37,2.39,98,0,0.0,Clear,clear sky,15
Rétszilas,46.814167,18.601389,2026-03-07 15:32:46.302253,13.94,12.36,13.94,13.94,1026,37,2.37,98,0,0.0,Clear,clear sky,15
Nagyatád,46.228611,17.354167,2026-03-07 15:32:47.504041,14.48,12.98,14.48,14.48,1025,38,2.22,132,0,0.0,Clear,clear sky,15
Budapest-Keleti,47.500278,19.084167,2026-03-07 15:32:48.710836,14.22,12.45,14.22,14.22,1026,29,2.02,108,0,0.0,Clear,clear sky,15
Ferencváros,47.468611,19.088056,2026-03-07 15:32:49.914341,14.28,12.52,14.28,14.28,1026,29,2.05,106,0,0.0,Clear,clear sky,15
Budapest-Nyugati,47.510833,19.0575,2026-03-07 15:32:51.115887,14.23,12.47,14.23,14.23,1026,29,1.99,109,0,0.0,Clear,clear sky,15
Kőbánya felső,47.491944,19.133889,2026-03-07 15:32:52.316024,14.11,12.33,14.11,14.11,1026,29,1.94,101,0,0.0,Clear,clear sky,15
Rákos,47.488889,19.174722,2026-03-07 15:32:53.516129,13.96,12.17,13.96,13.96,1026,29,1.91,98,0,0.0,Clear,clear sky,15
Rákosrendező,47.525556,19.089444,2026-03-07 15:32:54.718134,14.2,12.43,14.2,14.2,1026,29,1.96,105,0,0.0,Clear,clear sky,15
Zugló,47.511389,19.101389,2026-03-07 15:32:55.916744,14.2,12.43,14.2,14.2,1026,29,1.96,105,0,0.0,Clear,clear sky,15
Mezőtárkány,47.725,20.480278,2026-03-07 15:32:57.116227,10.89,9.11,10.89,10.89,1026,41,2.05,87,0,0.0,Clear,clear sky,15
Istvántelek,47.550278,19.106389,2026-03-07 15:32:58.309426,14.13,12.38,14.13,14.13,1026,30,1.95,105,0,0.0,Clear,clear sky,15
Rákospalota-Újpest,47.565833,19.111944,2026-03-07 15:32:59.514373,13.98,12.24,13.98,13.98,1026,31,1.96,105,0,0.0,Clear,clear sky,15
Kőbánya alsó,47.483056,19.127222,2026-03-07 15:33:00.715787,14.11,12.33,14.11,14.11,1026,29,1.94,101,0,0.0,Clear,clear sky,15
Kőbánya-Kispest,47.463889,19.149444,2026-03-07 15:33:01.931032,14.1,12.32,14.1,14.1,1026,29,1.95,99,0,0.0,Clear,clear sky,15
Pestszentlőrinc,47.454722,19.182778,2026-03-07 15:33:03.134587,13.9,12.13,13.9,13.9,1026,30,1.96,94,0,0.0,Clear,clear sky,15
Kispest,47.448135,19.157552,2026-03-07 15:33:04.336833,14.08,12.33,14.08,14.08,1026,30,1.99,97,0,0.0,Clear,clear sky,15
Újpest,47.558889,19.079722,2026-03-07 15:33:05.531885,14.16,12.41,14.16,14.16,1026,30,1.97,110,0,0.0,Clear,clear sky,15
Pestszentimre felső,47.413611,19.173333,2026-03-07 15:33:06.728999,13.83,12.08,13.83,13.83,1026,31,2.02,91,0,0.0,Clear,clear sky,15
Dunakeszi,47.626111,19.136111,2026-03-07 15:33:07.923718,13.52,11.87,13.52,13.52,1026,36,1.99,103,0,0.0,Clear,clear sky,15
Dunakeszi-Gyártelep,47.643611,19.135,2026-03-07 15:33:09.121551,13.37,11.75,13.37,13.37,1026,38,1.99,102,0,0.0,Clear,clear sky,15
Alsógöd,47.676944,19.134444,2026-03-07 15:33:10.318927,13.2,11.62,13.2,13.2,1026,40,2.0,102,0,0.0,Clear,clear sky,15
Göd,47.687778,19.1375,2026-03-07 15:33:11.514532,13.2,11.62,13.2,13.2,1026,40,2.0,102,0,0.0,Clear,clear sky,15
Felsőgöd,47.705556,19.143333,2026-03-07 15:33:12.715104,13.11,11.6,13.11,13.11,1026,43,2.0,103,0,0.0,Clear,clear sky,15
Sződ-Sződliget,47.728056,19.154722,2026-03-07 15:33:13.911966,12.99,11.52,12.99,12.99,1026,45,1.99,104,0,0.0,Clear,clear sky,15
Vác,47.782778,19.133056,2026-03-07 15:33:15.110454,12.67,11.25,12.67,12.67,1026,48,1.93,108,0,0.0,Clear,clear sky,15
Verőce,47.823889,19.029444,2026-03-07 15:33:16.312438,12.08,10.7,12.08,12.08,1026,52,1.6,109,0,0.0,Clear,clear sky,15
Kismaros,47.8275,19.010278,2026-03-07 15:33:17.518536,11.39,9.94,11.39,11.39,1026,52,1.54,107,0,0.0,Clear,clear sky,15
Nagymaros-Visegrád,47.791389,18.959167,2026-03-07 15:33:18.714672,11.87,10.42,11.87,11.87,1026,50,1.49,101,0,0.0,Clear,clear sky,15
Nagymaros,47.780278,18.952222,2026-03-07 15:33:19.911848,11.87,10.42,11.87,11.87,1026,50,1.49,101,0,0.0,Clear,clear sky,15
Zebegény,47.801389,18.908889,2026-03-07 15:33:21.108990,12.66,11.31,12.66,12.66,1026,51,1.42,103,0,0.0,Clear,clear sky,15
Szob,47.821111,18.861944,2026-03-07 15:33:22.308092,12.71,11.37,12.71,12.71,1026,51,1.35,109,0,0.0,Clear,clear sky,15
Alagimajor,47.601944,19.153889,2026-03-07 15:33:23.504806,13.76,12.05,13.76,13.76,1026,33,1.97,103,0,0.0,Clear,clear sky,15
Fót,47.611389,19.181667,2026-03-07 15:33:24.711007,13.27,11.59,13.27,13.27,1026,36,2.0,101,0,0.0,Clear,clear sky,15
Fótújfalu,47.615,19.192778,2026-03-07 15:33:25.905147,13.27,11.59,13.27,13.27,1026,36,2.0,101,0,0.0,Clear,clear sky,15
Csomád,47.635556,19.222778,2026-03-07 15:33:27.111889,12.42,10.66,12.42,12.42,1026,36,2.0,100,0,0.0,Clear,clear sky,15
Veresegyház,47.649167,19.288611,2026-03-07 15:33:28.321336,12.61,11.0,12.61,12.61,1026,41,2.0,99,0,0.0,Clear,clear sky,15
Erdőkertes,47.662222,19.295833,2026-03-07 15:33:29.518673,12.52,10.9,12.52,12.52,1026,41,2.0,99,0,0.0,Clear,clear sky,15
Őrbottyán,47.685833,19.283611,2026-03-07 15:33:30.726391,12.23,10.61,12.23,12.23,1026,42,2.02,102,0,0.0,Clear,clear sky,15
Váchartyán,47.725833,19.248889,2026-03-07 15:33:31.924580,12.19,10.64,12.19,12.19,1026,45,2.05,108,0,0.0,Clear,clear sky,15
Magyarkút-Verőce,47.826111,19.044444,2026-03-07 15:33:33.132234,11.92,10.53,11.92,11.92,1026,52,1.6,109,0,0.0,Clear,clear sky,15
Szokolya,47.871111,19.030556,2026-03-07 15:33:34.331281,11.31,9.85,11.31,11.31,1026,52,1.59,119,0,0.0,Clear,clear sky,15
Berkenye,47.885278,19.071944,2026-03-07 15:33:35.532152,11.97,10.58,11.97,11.97,1026,52,1.63,121,0,0.0,Clear,clear sky,15
Nógrád,47.901944,19.0475,2026-03-07 15:33:36.732740,11.72,10.31,11.72,11.72,1026,52,1.6,124,0,0.0,Clear,clear sky,15
Diósjenő,47.94,19.049444,2026-03-07 15:33:37.941512,11.41,9.96,11.41,11.41,1026,52,1.64,129,0,0.0,Clear,clear sky,15
Borsosberény,47.971389,19.093056,2026-03-07 15:33:39.136843,12.04,10.66,12.04,12.04,1026,52,1.73,143,0,0.0,Clear,clear sky,15
Nagyoroszi,47.993611,19.101111,2026-03-07 15:33:40.340801,11.93,10.54,11.93,11.93,1026,52,1.75,148,0,0.0,Clear,clear sky,15
Drégelyvár,48.001944,19.079444,2026-03-07 15:33:41.547701,12.3,10.94,12.3,12.3,1026,52,1.74,143,0,0.0,Clear,clear sky,15
Drégely,48.042222,19.056111,2026-03-07 15:33:42.748046,12.69,11.37,12.69,12.69,1026,52,1.76,146,0,0.0,Clear,clear sky,15
Drégelypalánk,48.055,19.046111,2026-03-07 15:33:43.954688,12.93,11.66,12.93,12.93,1026,53,1.77,144,0,0.0,Clear,clear sky,15
Ipolyvece,48.056944,19.106389,2026-03-07 15:33:45.155537,12.77,11.49,12.77,12.77,1026,53,1.76,157,0,0.0,Clear,clear sky,15
Dejtár,48.045556,19.196389,2026-03-07 15:33:46.357323,12.55,11.22,12.55,12.55,1026,52,1.78,163,0,0.0,Clear,clear sky,15
Ipolyszög,48.054444,19.221944,2026-03-07 15:33:47.554587,12.54,11.23,12.54,12.54,1026,53,1.76,171,0,0.0,Clear,clear sky,15
Iklad-Domony,47.658056,19.444444,2026-03-07 15:33:48.753670,12.17,10.64,12.17,12.17,1026,46,1.79,91,0,0.0,Clear,clear sky,15
Iklad-Domony felső,47.667778,19.428056,2026-03-07 15:33:49.955159,12.21,10.69,12.21,12.21,1026,46,1.82,99,0,0.0,Clear,clear sky,15
Galgamácsa,47.693889,19.3925,2026-03-07 15:33:51.157442,12.04,10.47,12.04,12.04,1026,45,1.95,106,0,0.0,Clear,clear sky,15
Vácrátót,47.732778,19.217778,2026-03-07 15:33:52.361915,12.51,10.99,12.51,12.51,1026,45,2.05,106,0,0.0,Clear,clear sky,15
Csörög,47.735833,19.196389,2026-03-07 15:33:53.563617,12.78,11.29,12.78,12.78,1026,45,2.03,105,0,0.0,Clear,clear sky,15
Galgagyörk,47.735278,19.372222,2026-03-07 15:33:54.773472,12.06,10.52,12.06,12.06,1026,46,1.94,111,0,0.0,Clear,clear sky,15
Püspökhatvan,47.768611,19.366944,2026-03-07 15:33:55.976141,11.98,10.49,11.98,11.98,1026,48,1.88,122,0,0.0,Clear,clear sky,15
Acsa-Erdőkürt,47.801111,19.386111,2026-03-07 15:33:57.176527,11.8,10.31,11.8,11.8,1026,49,1.83,128,0,0.0,Clear,clear sky,15
Galgaguta,47.848611,19.385556,2026-03-07 15:33:58.370649,11.49,10.03,11.49,11.49,1026,51,1.73,143,0,0.0,Clear,clear sky,15
Nógrádkövesd,47.879444,19.371111,2026-03-07 15:33:59.577198,11.66,10.21,11.66,11.66,1026,51,1.7,151,0,0.0,Clear,clear sky,15
Magyarnándor,47.970833,19.356667,2026-03-07 15:34:00.773602,11.66,10.24,11.66,11.66,1026,52,1.72,169,0,0.0,Clear,clear sky,15
Mohora,47.995556,19.347778,2026-03-07 15:34:01.983512,11.82,10.44,11.82,11.82,1026,53,1.72,175,0,0.0,Clear,clear sky,15
Szügy,48.036389,19.333056,2026-03-07 15:34:03.187371,12.11,10.76,12.11,12.11,1026,53,1.69,184,0,0.0,Clear,clear sky,15
Balassagyarmat,48.071111,19.293611,2026-03-07 15:34:04.395021,12.31,10.98,12.31,12.31,1026,53,1.71,183,0,0.0,Clear,clear sky,15
Őrhalom,48.078773,19.403936,2026-03-07 15:34:05.598448,11.91,10.57,11.91,11.91,1026,54,1.45,203,0,0.0,Clear,clear sky,15
Hugyag,48.083056,19.421111,2026-03-07 15:34:06.798161,11.91,10.57,11.91,11.91,1026,54,1.45,203,0,0.0,Clear,clear sky,15
Szécsény,48.093056,19.521111,2026-03-07 15:34:08.000776,11.95,10.66,11.95,11.95,1026,56,1.26,216,0,0.0,Clear,clear sky,15
Ludányhalászi,48.1325,19.529444,2026-03-07 15:34:09.204533,12.03,10.72,12.03,12.03,1026,55,1.16,220,0,0.0,Clear,clear sky,15
Nógrádszakál,48.178333,19.521667,2026-03-07 15:34:10.401986,12.03,10.72,12.03,12.03,1026,55,1.11,221,0,0.0,Clear,clear sky,15
Ráróspuszta,48.207222,19.541389,2026-03-07 15:34:11.604833,11.56,10.21,11.56,11.56,1026,55,0.99,217,0,0.0,Clear,clear sky,15
Litke,48.215833,19.598611,2026-03-07 15:34:12.802357,11.91,10.62,11.91,11.91,1026,56,0.79,228,0,0.0,Clear,clear sky,15
Nyíregyháza külső,47.943056,21.740278,2026-03-07 15:34:14.005980,11.27,9.6,11.27,11.27,1027,44,2.57,25,0,0.0,Clear,clear sky,15
Oros,47.945833,21.806389,2026-03-07 15:34:15.208158,11.45,9.8,11.45,11.45,1027,44,2.45,25,0,0.0,Clear,clear sky,15
Napkor,47.948889,21.873056,2026-03-07 15:34:16.404658,11.65,9.99,11.65,11.65,1027,43,2.23,26,0,0.0,Clear,clear sky,15
Apagy,47.953775,21.939044,2026-03-07 15:34:17.606374,11.73,10.06,11.73,11.73,1027,42,2.15,27,0,0.0,Clear,clear sky,15
Levelek-Magy,47.948056,21.993611,2026-03-07 15:34:18.807615,11.79,10.12,11.79,11.79,1027,42,2.0,30,0,0.0,Clear,clear sky,15
Ófehértó,47.940556,22.041389,2026-03-07 15:34:20.010658,11.76,10.09,11.76,11.76,1027,42,1.94,33,0,0.0,Clear,clear sky,15
Ligettanya,47.951667,22.071389,2026-03-07 15:34:21.217920,11.66,10.0,11.66,11.66,1027,43,1.83,34,0,0.0,Clear,clear sky,15
Baktalórántháza,47.988611,22.083333,2026-03-07 15:34:22.427502,11.62,9.99,11.62,11.62,1027,44,1.82,33,0,0.0,Clear,clear sky,15
Vaja-Rohod,48.006389,22.164167,2026-03-07 15:34:23.632912,11.52,9.9,11.52,11.52,1027,45,1.71,33,0,0.0,Clear,clear sky,15
Rákóczitanya,48.022222,22.178333,2026-03-07 15:34:24.863403,11.45,9.85,11.45,11.45,1027,46,1.67,33,0,0.0,Clear,clear sky,15
Nyírmada,48.059167,22.203056,2026-03-07 15:34:26.066253,11.36,9.78,11.36,11.36,1027,47,1.65,28,0,0.0,Clear,clear sky,15
Tunyogmatolcs,47.960244,22.442247,2026-03-07 15:34:27.267791,11.66,10.13,11.66,11.66,1027,48,1.6,23,0,0.0,Clear,clear sky,15
Tunyogmatolcs alsó,47.966025,22.464713,2026-03-07 15:34:28.480241,11.68,10.16,11.68,11.68,1027,48,1.6,20,0,0.0,Clear,clear sky,15
Fehérgyarmat,47.979167,22.524444,2026-03-07 15:34:29.676827,11.68,10.16,11.68,11.68,1027,48,1.63,8,0,0.0,Clear,clear sky,15
Penyige,47.995278,22.566944,2026-03-07 15:34:30.885927,11.72,10.2,11.72,11.72,1027,48,1.64,5,0,0.0,Clear,clear sky,15
Nagyszekeres,47.976111,22.6125,2026-03-07 15:34:32.085497,11.76,10.24,11.76,11.76,1027,48,1.64,2,0,0.0,Clear,clear sky,15
Kisszekeres,47.965833,22.629444,2026-03-07 15:34:33.294499,11.79,10.25,11.79,11.79,1027,47,1.68,4,0,0.0,Clear,clear sky,15
Jánkmajtis,47.941944,22.657222,2026-03-07 15:34:34.497277,11.87,10.31,11.87,11.87,1027,46,1.69,4,0,0.0,Clear,clear sky,15
Gacsály,47.926111,22.745,2026-03-07 15:34:35.694003,11.94,10.36,11.94,11.94,1027,45,1.71,357,0,0.0,Clear,clear sky,15
Zajta,47.9025,22.796111,2026-03-07 15:34:36.888689,12.07,10.48,12.07,12.07,1027,44,1.76,356,0,0.0,Clear,clear sky,15
Eperjeske alsó,48.360556,22.19,2026-03-07 15:34:38.092136,10.83,9.33,10.83,10.83,1027,52,1.19,346,0,0.0,Clear,clear sky,15
Mándok,48.326944,22.196389,2026-03-07 15:34:39.294530,10.85,9.35,10.85,10.85,1027,52,1.33,355,0,0.0,Clear,clear sky,15
Tornyospálca,48.268333,22.201944,2026-03-07 15:34:40.492467,10.95,9.46,10.95,10.95,1027,52,1.44,2,0,0.0,Clear,clear sky,15
Aranyosapáti,48.211303,22.253534,2026-03-07 15:34:41.700303,11.13,9.63,11.13,11.13,1027,51,1.44,1,0,0.0,Clear,clear sky,15
Gyüre,48.171389,22.269167,2026-03-07 15:34:42.897522,11.2,9.71,11.2,11.2,1027,51,1.46,10,0,0.0,Clear,clear sky,15
Varsány,48.151722,22.290047,2026-03-07 15:34:44.101068,11.25,9.76,11.25,11.25,1027,51,1.45,12,0,0.0,Clear,clear sky,15
Vásárosnamény,48.126667,22.306111,2026-03-07 15:34:45.297241,11.3,9.79,11.3,11.3,1027,50,1.47,17,0,0.0,Clear,clear sky,15
Vitka,48.095556,22.308056,2026-03-07 15:34:46.499170,11.34,9.84,11.34,11.34,1027,50,1.5,21,0,0.0,Clear,clear sky,15
Nagydobos,48.054167,22.311111,2026-03-07 15:34:47.705272,11.32,9.79,11.32,11.32,1027,49,1.53,24,0,0.0,Clear,clear sky,15
Ópályi,47.997778,22.318333,2026-03-07 15:34:48.914999,11.45,9.9,11.45,11.45,1027,48,1.6,32,0,0.0,Clear,clear sky,15
Nyírcsaholy,47.908056,22.348333,2026-03-07 15:34:50.111872,11.69,10.12,11.69,11.69,1027,46,1.66,32,0,0.0,Clear,clear sky,15
Nagyecsed,47.864722,22.385556,2026-03-07 15:34:51.324060,11.85,10.27,11.85,11.85,1027,45,1.67,27,0,0.0,Clear,clear sky,15
Tiborszállás,47.815278,22.402778,2026-03-07 15:34:52.528926,11.96,10.36,11.96,11.96,1027,44,1.7,27,0,0.0,Clear,clear sky,15
Kiskunhalas,46.434444,19.493611,2026-03-07 15:34:53.730721,13.22,11.69,13.22,13.22,1026,42,2.14,82,0,0.0,Clear,clear sky,15
Kecskemét alsó,46.895833,19.692222,2026-03-07 15:34:54.944594,12.8,11.13,12.8,12.8,1026,38,2.47,97,2,0.0,Clear,clear sky,15
Putnok,48.286667,20.4375,2026-03-07 15:34:56.144093,10.42,8.74,10.42,10.42,1026,47,1.55,95,0,0.0,Clear,clear sky,15
Bánréve,48.299722,20.351944,2026-03-07 15:34:57.349306,10.7,9.05,10.7,10.7,1026,47,1.25,91,0,0.0,Clear,clear sky,15
Ipolytarnóc,48.236667,19.629167,2026-03-07 15:34:58.549761,11.82,10.52,11.82,11.82,1026,56,0.67,226,0,0.0,Clear,clear sky,15
Rákosliget,47.486111,19.257778,2026-03-07 15:34:59.749872,13.17,11.4,13.17,13.17,1026,33,1.87,87,0,0.0,Clear,clear sky,15
Ikrény,47.657778,17.524167,2026-03-07 15:35:00.952816,14.81,13.63,14.81,14.81,1025,49,2.84,129,0,0.0,Clear,clear sky,15
Rábapatona,47.648889,17.461944,2026-03-07 15:35:02.151997,14.89,13.71,14.89,14.89,1025,49,2.71,135,0,0.0,Clear,clear sky,15
Enese,47.644167,17.425278,2026-03-07 15:35:03.353842,14.92,13.75,14.92,14.92,1025,49,2.58,143,0,0.0,Clear,clear sky,15
Kóny,47.632222,17.357222,2026-03-07 15:35:04.548296,14.9,13.73,14.9,14.9,1025,49,2.53,150,0,0.0,Clear,clear sky,15
Farád,47.595278,17.195833,2026-03-07 15:35:05.742481,14.99,13.8,14.99,14.99,1025,48,2.67,164,0,0.0,Clear,clear sky,15
Rábatamási,47.592778,17.161389,2026-03-07 15:35:06.943995,14.99,13.8,14.99,14.99,1025,48,2.67,164,0,0.0,Clear,clear sky,15
Szárföld,47.589167,17.123889,2026-03-07 15:35:08.150828,15.02,13.83,15.02,15.02,1025,48,2.72,164,0,0.0,Clear,clear sky,15
Veszkény,47.586944,17.101389,2026-03-07 15:35:09.346929,15.04,13.85,15.04,15.04,1025,48,2.76,163,0,0.0,Clear,clear sky,15
Kapuvár,47.581944,17.046944,2026-03-07 15:35:10.566466,15.02,13.83,15.02,15.02,1025,48,2.86,159,0,0.0,Clear,clear sky,15
Vitnyéd-Csermajor,47.5825,16.987222,2026-03-07 15:35:11.767252,15.04,13.85,15.04,15.04,1025,48,2.95,156,0,0.0,Clear,clear sky,15
Petőháza,47.595278,16.893056,2026-03-07 15:35:12.969536,15.11,13.96,15.11,15.11,1025,49,3.18,154,0,0.0,Clear,clear sky,15
Fertőszentmiklós,47.6,16.858889,2026-03-07 15:35:14.180030,15.09,13.93,15.09,15.09,1025,49,3.23,154,0,0.0,Clear,clear sky,15
Pinnye,47.600278,16.768611,2026-03-07 15:35:15.383000,14.99,13.82,14.99,14.99,1025,49,3.46,154,0,0.0,Clear,clear sky,15
Fertőboz,47.625,16.691667,2026-03-07 15:35:16.586203,14.98,13.81,14.98,14.98,1025,49,3.66,154,0,0.0,Clear,clear sky,15
Sopron,47.677778,16.587222,2026-03-07 15:35:17.783069,14.76,13.54,14.76,14.76,1025,48,3.98,153,0,0.0,Clear,clear sky,15
Fertőszéplak-Fertőd,47.618889,16.850833,2026-03-07 15:35:18.982568,15.19,14.04,15.19,15.19,1025,49,3.38,154,0,0.0,Clear,clear sky,15
Nyúl,47.587778,17.698056,2026-03-07 15:35:20.184923,14.6,13.37,14.6,14.6,1026,48,2.85,122,0,0.0,Clear,clear sky,15
Pannonhalma,47.547778,17.740833,2026-03-07 15:35:21.389287,14.27,12.98,14.27,14.27,1026,47,2.74,121,0,0.0,Clear,clear sky,15
Tarjánpuszta,47.504722,17.789167,2026-03-07 15:35:22.593312,14.09,12.78,14.09,14.09,1026,47,2.64,122,0,0.0,Clear,clear sky,15
Győrasszonyfa,47.4925,17.799167,2026-03-07 15:35:23.796402,14.09,12.78,14.09,14.09,1026,47,2.64,122,0,0.0,Clear,clear sky,15
Veszprémvarsány,47.443333,17.818333,2026-03-07 15:35:25.003260,13.88,12.55,13.88,13.88,1026,47,2.54,122,0,0.0,Clear,clear sky,15
Bakonyszentlászló,47.395556,17.8175,2026-03-07 15:35:26.204167,13.43,12.06,13.43,13.43,1026,47,2.47,122,0,0.0,Clear,clear sky,15
Porva-Csesznek,47.326944,17.841111,2026-03-07 15:35:27.405378,12.01,10.49,12.01,12.01,1026,47,2.38,122,0,0.0,Clear,clear sky,15
Zirc,47.266667,17.878056,2026-03-07 15:35:28.615569,11.93,10.41,11.93,11.93,1026,47,2.28,120,0,0.0,Clear,clear sky,15
Eplény,47.192778,17.921667,2026-03-07 15:35:29.820877,12.3,10.79,12.3,12.3,1026,46,2.22,116,0,0.0,Clear,clear sky,15
Marcaltő,47.4275,17.348889,2026-03-07 15:35:31.024544,14.7,13.48,14.7,14.7,1025,48,2.68,158,0,0.0,Clear,clear sky,15
Szany-Rábaszentandrás,47.460833,17.315278,2026-03-07 15:35:32.221586,14.77,13.56,14.77,14.77,1025,48,2.64,160,0,0.0,Clear,clear sky,15
Egyed-Rábacsanak,47.521944,17.316389,2026-03-07 15:35:33.422332,14.81,13.6,14.81,14.81,1025,48,2.57,159,0,0.0,Clear,clear sky,15
Rábapordány,47.557222,17.315,2026-03-07 15:35:34.627662,14.86,13.65,14.86,14.86,1025,48,2.55,158,0,0.0,Clear,clear sky,15
Albertfalva,47.440784,19.033965,2026-03-07 15:35:35.834749,13.92,12.15,13.92,13.92,1026,30,2.1,105,0,0.0,Clear,clear sky,15
Budafok,47.425833,19.041389,2026-03-07 15:35:37.034381,13.73,11.97,13.73,13.73,1026,31,2.15,102,0,0.0,Clear,clear sky,15
Tétényliget,47.384722,18.955278,2026-03-07 15:35:38.231014,13.81,12.13,13.81,13.81,1026,34,2.23,101,0,0.0,Clear,clear sky,15
Érd alsó,47.379722,18.923056,2026-03-07 15:35:39.422184,13.54,11.86,13.54,13.54,1026,35,2.25,102,0,0.0,Clear,clear sky,15
Tárnok,47.365556,18.873889,2026-03-07 15:35:40.617730,13.53,11.93,13.53,13.53,1026,38,2.32,99,0,0.0,Clear,clear sky,15
Martonvásár,47.321389,18.781667,2026-03-07 15:35:41.820258,13.36,11.8,13.36,13.36,1026,40,2.43,93,0,0.0,Clear,clear sky,15
Baracska,47.297222,18.753333,2026-03-07 15:35:43.026504,13.43,11.9,13.43,13.43,1026,41,2.47,90,0,0.0,Clear,clear sky,15
Pettend,47.26,18.708889,2026-03-07 15:35:44.229287,13.32,11.78,13.32,13.32,1026,41,2.51,89,0,0.0,Clear,clear sky,15
Kápolnásnyék,47.245556,18.692222,2026-03-07 15:35:45.427628,13.43,11.87,13.43,13.43,1026,40,2.53,88,0,0.0,Clear,clear sky,15
Velence,47.226944,18.663889,2026-03-07 15:35:46.637389,13.53,12.01,13.53,13.53,1026,41,2.53,89,0,0.0,Clear,clear sky,15
Velencefürdő,47.218611,18.648056,2026-03-07 15:35:47.840139,13.56,12.02,13.56,13.56,1026,40,2.54,89,0,0.0,Clear,clear sky,15
Gárdony,47.205833,18.624722,2026-03-07 15:35:49.046650,13.6,12.06,13.6,13.6,1026,40,2.53,90,0,0.0,Clear,clear sky,15
Agárd,47.197666,18.604907,2026-03-07 15:35:50.242107,13.6,12.06,13.6,13.6,1026,40,2.53,90,0,0.0,Clear,clear sky,15
Dinnyés,47.179722,18.560833,2026-03-07 15:35:51.435557,13.64,12.1,13.64,13.64,1026,40,2.52,91,0,0.0,Clear,clear sky,15
Székesfehérvár,47.183611,18.424722,2026-03-07 15:35:52.630902,13.71,12.18,13.71,13.71,1026,40,2.44,93,0,0.0,Clear,clear sky,15
Szabadbattyán,47.105278,18.388333,2026-03-07 15:35:53.829060,13.8,12.23,13.8,13.8,1026,38,2.47,94,0,0.0,Clear,clear sky,15
Kiscséripuszta,47.048056,18.355,2026-03-07 15:35:55.027121,13.66,12.07,13.66,13.66,1026,38,2.48,97,0,0.0,Clear,clear sky,15
Lepsény,46.9875,18.248056,2026-03-07 15:35:56.225834,13.95,12.39,13.95,13.95,1026,38,2.49,102,0,0.0,Clear,clear sky,15
Balatonaliga,46.984444,18.171389,2026-03-07 15:35:57.427494,13.72,12.17,13.72,13.72,1026,39,2.5,106,0,0.0,Clear,clear sky,15
Balatonvilágos,46.964167,18.157222,2026-03-07 15:35:58.623747,14.06,12.54,14.06,14.06,1026,39,2.5,108,0,0.0,Clear,clear sky,15
Szabadifürdő,46.926111,18.103333,2026-03-07 15:35:59.826734,14.02,12.5,14.02,14.02,1026,39,2.48,111,0,0.0,Clear,clear sky,15
Ózd alsó,48.227778,20.306111,2026-03-07 15:36:01.031425,10.37,8.69,10.37,10.37,1026,47,1.02,97,0,0.0,Clear,clear sky,15
Ózd,48.2225,20.294722,2026-03-07 15:36:02.244277,10.37,8.69,10.37,10.37,1026,47,1.02,97,0,0.0,Clear,clear sky,15
Alsóboldva,48.212778,20.792222,2026-03-07 15:36:03.447559,10.02,8.2,10.02,10.02,1026,43,2.01,140,0,0.0,Clear,clear sky,15
Boldva,48.223333,20.790278,2026-03-07 15:36:04.676618,10.02,8.2,10.02,10.02,1026,43,2.01,140,0,0.0,Clear,clear sky,15
Borsodszirák,48.259167,20.770556,2026-03-07 15:36:05.887792,10.19,8.41,10.19,10.19,1026,44,1.85,139,0,0.0,Clear,clear sky,15
Edelény alsó,48.279167,20.760833,2026-03-07 15:36:07.089540,10.19,8.41,10.19,10.19,1026,44,1.85,139,0,0.0,Clear,clear sky,15
Edelény,48.299722,20.749444,2026-03-07 15:36:08.300155,10.25,8.48,10.25,10.25,1026,44,1.79,140,0,0.0,Clear,clear sky,15
Szendrőlád,48.334444,20.731944,2026-03-07 15:36:09.499501,9.35,8.71,9.35,9.35,1026,45,1.69,136,0,0.0,Clear,clear sky,15
Szendrő,48.400725,20.721346,2026-03-07 15:36:10.701562,10.41,8.73,10.41,10.41,1026,47,1.61,138,0,0.0,Clear,clear sky,15
Szendrő felső,48.409907,20.720148,2026-03-07 15:36:11.907970,10.41,8.73,10.41,10.41,1026,47,1.61,138,0,0.0,Clear,clear sky,15
Szalonna,48.449444,20.722222,2026-03-07 15:36:13.109532,10.56,8.92,10.56,10.56,1026,48,1.55,140,0,0.0,Clear,clear sky,15
Perkupa,48.471389,20.691111,2026-03-07 15:36:14.308899,9.91,9.47,9.91,9.91,1026,50,1.57,140,0,0.0,Clear,clear sky,15
Szemeretelep,47.443056,19.214167,2026-03-07 15:36:15.508397,13.66,11.89,13.66,13.66,1026,31,1.95,91,0,0.0,Clear,clear sky,15
Jósvafő-Aggtelek,48.489722,20.693889,2026-03-07 15:36:16.713568,10.26,8.67,10.26,10.26,1026,51,1.57,143,0,0.0,Clear,clear sky,15
Bódvaszilas,48.5375,20.738056,2026-03-07 15:36:17.916150,9.88,9.52,9.88,9.88,1026,51,1.49,143,0,0.0,Clear,clear sky,15
Komjáti,48.5475,20.759722,2026-03-07 15:36:19.119571,9.44,9.11,9.44,9.44,1026,52,1.41,145,0,0.0,Clear,clear sky,15
Tornanádaska,48.558333,20.787222,2026-03-07 15:36:20.321182,10.58,9.03,10.58,10.58,1026,51,1.32,145,0,0.0,Clear,clear sky,15
Onga,48.121111,20.906667,2026-03-07 15:36:21.517267,10.0,9.11,10.0,10.0,1026,42,2.1,131,0,0.0,Clear,clear sky,15
Szikszó-Vásártér,48.193056,20.934722,2026-03-07 15:36:22.717913,10.14,8.33,10.14,10.14,1026,43,2.11,146,0,0.0,Clear,clear sky,15
Szikszó,48.201667,20.941667,2026-03-07 15:36:23.915730,10.26,8.46,10.26,10.26,1026,43,2.09,147,0,0.0,Clear,clear sky,15
Aszaló,48.219867,20.961466,2026-03-07 15:36:25.120545,10.18,8.38,10.18,10.18,1026,43,2.08,151,0,0.0,Clear,clear sky,15
Halmaj,48.246667,20.991667,2026-03-07 15:36:26.316804,10.42,8.67,10.42,10.42,1026,44,2.05,156,0,0.0,Clear,clear sky,15
Csobád,48.277222,21.033889,2026-03-07 15:36:27.512084,10.53,8.79,10.53,10.53,1026,44,2.0,160,0,0.0,Clear,clear sky,15
Ináncs,48.291111,21.057778,2026-03-07 15:36:28.708901,10.53,8.79,10.53,10.53,1026,44,1.95,163,0,0.0,Clear,clear sky,15
Forró-Encs,48.3275,21.117778,2026-03-07 15:36:29.910373,10.55,8.81,10.55,10.55,1026,44,1.84,165,0,0.0,Clear,clear sky,15
Méra,48.363056,21.140278,2026-03-07 15:36:31.106153,10.39,8.66,10.39,10.39,1026,45,1.49,166,0,0.0,Clear,clear sky,15
Novajidrány,48.404444,21.170556,2026-03-07 15:36:32.300718,10.61,8.9,10.61,10.61,1026,45,1.27,164,0,0.0,Clear,clear sky,15
Hernádszurdok,48.487222,21.213889,2026-03-07 15:36:33.496317,10.52,8.8,10.52,10.52,1026,45,0.75,144,0,0.0,Clear,clear sky,15
Hidasnémeti,48.508333,21.229722,2026-03-07 15:36:34.693452,10.38,8.65,10.38,10.38,1026,45,0.65,139,0,0.0,Clear,clear sky,15
Mád,48.19,21.268889,2026-03-07 15:36:35.889380,10.18,8.45,10.18,10.18,1027,46,1.78,130,0,0.0,Clear,clear sky,15
Rátka,48.215,21.230278,2026-03-07 15:36:37.092195,10.55,8.84,10.55,10.55,1026,45,1.88,140,0,0.0,Clear,clear sky,15
Tállya,48.226944,21.225278,2026-03-07 15:36:38.292178,10.55,8.84,10.55,10.55,1026,45,1.88,140,0,0.0,Clear,clear sky,15
Golop,48.242778,21.204167,2026-03-07 15:36:39.497136,10.63,8.92,10.63,10.63,1026,45,2.0,151,0,0.0,Clear,clear sky,15
Abaújszántó,48.286944,21.181667,2026-03-07 15:36:40.694353,10.39,8.66,10.39,10.39,1026,45,1.91,158,0,0.0,Clear,clear sky,15
Abaújszántói fürdő,48.268333,21.179722,2026-03-07 15:36:41.895533,10.62,8.91,10.62,10.62,1026,45,1.98,155,0,0.0,Clear,clear sky,15
Abaújkér,48.309444,21.198333,2026-03-07 15:36:43.101371,10.41,8.68,10.41,10.41,1026,45,1.8,161,0,0.0,Clear,clear sky,15
Boldogkőváralja,48.345,21.208889,2026-03-07 15:36:44.304236,10.37,8.64,10.37,10.37,1026,45,1.61,155,0,0.0,Clear,clear sky,15
Korlát-Vizsoly,48.365,21.219167,2026-03-07 15:36:45.499560,10.49,8.77,10.49,10.49,1026,45,1.44,155,0,0.0,Clear,clear sky,15
Fony,48.411389,21.242778,2026-03-07 15:36:46.698524,10.56,8.85,10.56,10.56,1026,45,1.06,152,0,0.0,Clear,clear sky,15
Hejce-Vilmány,48.419444,21.245556,2026-03-07 15:36:47.902672,10.56,8.85,10.56,10.56,1026,45,1.06,152,0,0.0,Clear,clear sky,15
Göncruszka,48.445,21.246944,2026-03-07 15:36:49.104353,10.54,8.82,10.54,10.54,1026,45,0.89,149,0,0.0,Clear,clear sky,15
Gönc,48.470556,21.261389,2026-03-07 15:36:50.318182,10.49,8.77,10.49,10.49,1026,45,0.79,136,0,0.0,Clear,clear sky,15
Zsujta,48.4925,21.265,2026-03-07 15:36:51.517064,10.48,8.76,10.48,10.48,1027,45,0.7,131,0,0.0,Clear,clear sky,15
Bodrogkeresztúr,48.175556,21.354167,2026-03-07 15:36:52.719634,9.81,9.3,9.81,9.81,1027,47,1.63,111,0,0.0,Clear,clear sky,15
Szegi,48.201944,21.387778,2026-03-07 15:36:53.922514,10.25,8.58,10.25,10.25,1027,48,1.54,109,0,0.0,Clear,clear sky,15
Erdőbénye,48.218056,21.401944,2026-03-07 15:36:55.123605,10.6,9.0,10.6,10.6,1027,49,1.51,111,0,0.0,Clear,clear sky,15
Olaszliszka-Tolcsva,48.258333,21.448056,2026-03-07 15:36:56.319496,10.54,8.93,10.54,10.54,1027,49,1.49,116,0,0.0,Clear,clear sky,15
Bodrogolaszi,48.286944,21.512778,2026-03-07 15:36:57.514970,9.18,8.77,9.18,9.18,1027,50,1.45,114,0,0.0,Clear,clear sky,15
Sárospatak,48.325833,21.566111,2026-03-07 15:36:58.717502,10.4,8.8,10.4,10.4,1027,50,1.36,100,0,0.0,Clear,clear sky,15
Sátoraljaújhely,48.385833,21.657778,2026-03-07 15:36:59.912565,9.77,9.77,9.77,9.77,1027,49,1.24,91,0,0.0,Clear,clear sky,15
Vecsés,47.40855,19.25652,2026-03-07 15:37:01.113529,13.37,11.65,13.37,13.37,1026,34,2.0,83,0,0.0,Clear,clear sky,15
Vecsés-Kertekalja,47.403333,19.271389,2026-03-07 15:37:02.311836,13.37,11.65,13.37,13.37,1026,34,2.0,83,0,0.0,Clear,clear sky,15
Üllő,47.390833,19.348889,2026-03-07 15:37:03.520836,13.06,11.39,13.06,13.06,1026,37,2.09,77,0,0.0,Clear,clear sky,15
Monor,47.34545,19.43701,2026-03-07 15:37:04.715914,12.54,10.92,12.54,12.54,1026,41,2.19,74,1,0.0,Clear,clear sky,15
Pilis,47.279722,19.536389,2026-03-07 15:37:05.911152,12.46,10.81,12.46,12.46,1026,40,2.2,80,2,0.0,Clear,clear sky,15
Albertirsa,47.240278,19.606389,2026-03-07 15:37:07.106739,12.63,10.97,12.63,12.63,1026,39,2.18,86,3,0.0,Clear,clear sky,15
Ceglédbercel-Cserő,47.210278,19.686944,2026-03-07 15:37:08.310438,12.78,11.11,12.78,12.78,1026,38,2.2,89,3,0.0,Clear,clear sky,15
Cegléd,47.182778,19.806111,2026-03-07 15:37:09.518529,12.91,11.22,12.91,12.91,1026,37,2.23,90,4,0.0,Clear,clear sky,15
Abony,47.173056,20.016389,2026-03-07 15:37:10.734789,12.89,11.17,12.89,12.89,1026,36,2.21,86,5,0.0,Clear,clear sky,15
Szolnok,47.179167,20.175833,2026-03-07 15:37:11.939471,12.85,11.13,12.85,12.85,1026,36,2.16,84,5,0.0,Clear,clear sky,15
Szajol,47.170556,20.295278,2026-03-07 15:37:13.140466,12.79,11.09,12.79,12.79,1026,37,2.12,84,5,0.0,Clear,clear sky,15
Törökszentmiklós,47.170278,20.413611,2026-03-07 15:37:14.347124,12.71,11.0,12.71,12.71,1026,37,2.08,84,5,0.0,Clear,clear sky,15
Rákoscsaba-Újtelep,47.4875,19.271944,2026-03-07 15:37:15.543462,13.17,11.4,13.17,13.17,1026,33,1.87,87,0,0.0,Clear,clear sky,15
Rákoscsaba,47.492222,19.284722,2026-03-07 15:37:16.740499,13.08,11.36,13.08,13.08,1026,35,1.88,83,0,0.0,Clear,clear sky,15
Pécel,47.493889,19.338889,2026-03-07 15:37:17.939531,12.78,11.05,12.78,12.78,1026,36,1.89,79,0,0.0,Clear,clear sky,15
Isaszeg,47.537719,19.388955,2026-03-07 15:37:19.141154,12.35,10.66,12.35,12.35,1026,39,1.91,80,0,0.0,Clear,clear sky,15
Gödöllő,47.592222,19.358611,2026-03-07 15:37:20.343048,12.08,10.39,12.08,12.08,1026,40,1.92,87,0,0.0,Clear,clear sky,15
Máriabesnyő,47.595556,19.389722,2026-03-07 15:37:21.543791,12.08,10.39,12.08,12.08,1026,40,1.92,87,0,0.0,Clear,clear sky,15
Bag,47.641111,19.471667,2026-03-07 15:37:22.739506,12.17,10.64,12.17,12.17,1026,46,1.79,91,0,0.0,Clear,clear sky,15
Aszód,47.647467,19.492882,2026-03-07 15:37:23.940021,11.93,10.38,11.93,11.93,1026,46,1.74,89,0,0.0,Clear,clear sky,15
Hévízgyörk,47.638611,19.526667,2026-03-07 15:37:25.144193,11.83,10.3,11.83,11.83,1026,47,1.69,87,0,0.0,Clear,clear sky,15
Galgahévíz,47.6325,19.558333,2026-03-07 15:37:26.346783,11.94,10.42,11.94,11.94,1026,47,1.74,74,0,0.0,Clear,clear sky,15
Tura,47.626389,19.5975,2026-03-07 15:37:27.548076,11.8,10.26,11.8,11.8,1026,47,1.73,72,0,0.0,Clear,clear sky,15
Hatvan,47.663611,19.671389,2026-03-07 15:37:28.748171,11.75,10.21,11.75,11.75,1026,47,1.43,85,0,0.0,Clear,clear sky,15
Vámosgyörk,47.686111,19.927778,2026-03-07 15:37:29.949607,11.58,9.94,11.58,11.58,1026,44,1.15,70,0,0.0,Clear,clear sky,15
Adács,47.696389,19.975278,2026-03-07 15:37:31.153067,11.46,9.81,11.46,11.46,1026,44,0.98,77,0,0.0,Clear,clear sky,15
Karácsond,47.718056,20.048611,2026-03-07 15:37:32.362901,11.23,9.56,11.23,11.23,1026,44,0.87,87,0,0.0,Clear,clear sky,15
Ludas,47.723889,20.095556,2026-03-07 15:37:33.565365,11.32,9.63,11.32,11.32,1026,43,1.07,93,0,0.0,Clear,clear sky,15
Nagyút,47.72666666666667,20.161388888888887,2026-03-07 15:37:34.763731,11.22,9.52,11.22,11.22,1026,43,1.16,94,0,0.0,Clear,clear sky,15
Kál-Kápolna,47.734167,20.254167,2026-03-07 15:37:35.977840,11.07,9.33,11.07,11.07,1026,42,1.6,97,0,0.0,Clear,clear sky,15
Füzesabony,47.751389,20.415278,2026-03-07 15:37:37.179827,10.78,9.01,10.78,10.78,1026,42,1.87,96,0,0.0,Clear,clear sky,15
Szihalom,47.766944,20.491944,2026-03-07 15:37:38.375183,10.49,8.69,10.49,10.49,1026,42,1.85,96,0,0.0,Clear,clear sky,15
Mezőkövesd,47.797222,20.5675,2026-03-07 15:37:39.569154,10.31,8.52,10.31,10.31,1026,43,1.86,94,0,0.0,Clear,clear sky,15
Mezőkövesd felső,47.807222,20.591389,2026-03-07 15:37:40.764731,10.31,8.52,10.31,10.31,1026,43,1.86,94,0,0.0,Clear,clear sky,15
Mezőkeresztes-Mezőnyárád,47.845556,20.670278,2026-03-07 15:37:41.966756,9.95,9.27,9.95,9.95,1026,44,1.84,98,0,0.0,Clear,clear sky,15
Csincse,47.890833,20.764167,2026-03-07 15:37:43.165348,9.9,9.13,9.9,9.9,1026,44,1.93,96,0,0.0,Clear,clear sky,15
Emőd,47.930556,20.822778,2026-03-07 15:37:44.363064,9.53,8.64,9.53,9.53,1026,44,2.01,104,0,0.0,Clear,clear sky,15
Nyékládháza,47.9925,20.840556,2026-03-07 15:37:45.557892,9.73,8.8,9.73,9.73,1026,43,2.1,112,0,0.0,Clear,clear sky,15
Miskolc-Tiszai,48.098611,20.811389,2026-03-07 15:37:46.759870,9.44,8.39,9.44,9.44,1026,42,2.18,129,0,0.0,Clear,clear sky,15
Felsőzsolca,48.083611,20.866111,2026-03-07 15:37:47.960593,9.78,8.8,9.78,9.78,1026,42,2.17,128,0,0.0,Clear,clear sky,15
Hernádnémeti-Bőcs,48.051389,20.985,2026-03-07 15:37:49.162370,10.15,8.34,10.15,10.15,1026,43,1.96,114,0,0.0,Clear,clear sky,15
Tiszalúc,48.039722,21.0575,2026-03-07 15:37:50.358090,10.31,8.52,10.31,10.31,1026,43,1.85,96,0,0.0,Clear,clear sky,15
Taktaharkány,48.091667,21.128611,2026-03-07 15:37:51.554695,10.46,8.68,10.46,10.46,1026,43,1.81,110,0,0.0,Clear,clear sky,15
Taktaszada,48.1125,21.149444,2026-03-07 15:37:52.767252,10.51,8.77,10.51,10.51,1026,44,1.8,117,0,0.0,Clear,clear sky,15
Szerencs,48.155556,21.214444,2026-03-07 15:37:53.961845,10.62,8.91,10.62,10.62,1026,45,1.77,126,0,0.0,Clear,clear sky,15
Mezőzombor,48.156944,21.267778,2026-03-07 15:37:55.157749,10.56,8.87,10.56,10.56,1027,46,1.72,121,0,0.0,Clear,clear sky,15
Tarcal,48.125,21.34,2026-03-07 15:37:56.353906,10.69,9.02,10.69,10.69,1027,46,1.67,89,0,0.0,Clear,clear sky,15
Tokaj,48.112778,21.406667,2026-03-07 15:37:57.549291,10.14,8.44,10.14,10.14,1027,47,1.69,72,0,0.0,Clear,clear sky,15
Rakamaz,48.12,21.475,2026-03-07 15:37:58.748677,10.68,9.06,10.68,10.68,1027,48,1.71,67,0,0.0,Clear,clear sky,15
Görögszállás,48.04,21.555,2026-03-07 15:37:59.950777,10.84,9.18,10.84,10.84,1027,46,2.28,41,0,0.0,Clear,clear sky,15
Nyírtelek,48.005,21.615556,2026-03-07 15:38:01.149261,10.93,9.28,10.93,10.93,1027,46,2.5,31,0,0.0,Clear,clear sky,15
Rákoshegy,47.468611,19.245556,2026-03-07 15:38:02.367855,13.29,11.54,13.29,13.29,1026,33,1.9,85,0,0.0,Clear,clear sky,15
Ecser,47.439444,19.318056,2026-03-07 15:38:03.562790,13.22,11.51,13.22,13.22,1026,35,1.95,81,0,0.0,Clear,clear sky,15
Maglód,47.438889,19.340833,2026-03-07 15:38:04.766824,12.86,11.14,12.86,12.86,1026,36,1.96,77,0,0.0,Clear,clear sky,15
Maglódi nyaraló,47.434167,19.363611,2026-03-07 15:38:05.963217,12.46,10.75,12.46,12.46,1026,38,2.0,73,0,0.0,Clear,clear sky,15
Gyömrő,47.429722,19.393333,2026-03-07 15:38:07.158918,12.46,10.75,12.46,12.46,1026,38,2.0,73,0,0.0,Clear,clear sky,15
Mende,47.426944,19.439722,2026-03-07 15:38:08.377463,12.04,10.4,12.04,12.04,1026,42,2.14,66,1,0.0,Clear,clear sky,15
Szőlősnyaraló,47.450278,19.561111,2026-03-07 15:38:09.577333,12.1,10.51,12.1,12.1,1026,44,2.24,57,1,0.0,Clear,clear sky,15
Sülysáp,47.451944,19.5275,2026-03-07 15:38:10.783458,12.09,10.5,12.09,12.09,1026,44,2.19,60,0,0.0,Clear,clear sky,15
Tápiószecső,47.443056,19.614722,2026-03-07 15:38:11.978740,12.13,10.55,12.13,12.13,1026,44,2.25,56,1,0.0,Clear,clear sky,15
Szentmártonkáta,47.431944,19.680556,2026-03-07 15:38:13.179025,12.12,10.51,12.12,12.12,1026,43,2.27,55,1,0.0,Clear,clear sky,15
Nagykáta,47.409722,19.737778,2026-03-07 15:38:14.380428,12.26,10.64,12.26,12.26,1026,42,2.25,58,1,0.0,Clear,clear sky,15
Farmos,47.355278,19.8375,2026-03-07 15:38:15.587124,12.64,10.95,12.64,12.64,1026,38,2.21,69,2,0.0,Clear,clear sky,15
Tápiószele,47.346313,19.873504,2026-03-07 15:38:16.786312,12.69,10.98,12.69,12.69,1026,37,2.2,73,3,0.0,Clear,clear sky,15
Tápiógyörgye,47.325,19.95,2026-03-07 15:38:17.989495,12.73,11.0,12.73,12.73,1026,36,2.23,74,3,0.0,Clear,clear sky,15
Újszász,47.285833,20.066944,2026-03-07 15:38:19.200268,12.79,11.06,12.79,12.79,1026,36,2.22,76,5,0.0,Clear,clear sky,15
Szurdokpüspöki,47.851944,19.690278,2026-03-07 15:38:20.402459,11.57,10.14,11.57,11.57,1026,52,1.08,164,0,0.0,Clear,clear sky,15
Lőrinci,47.739444,19.673611,2026-03-07 15:38:21.599743,11.65,10.12,11.65,11.65,1026,48,1.25,106,0,0.0,Clear,clear sky,15
Selyp,47.759167,19.670833,2026-03-07 15:38:22.799639,11.63,10.13,11.63,11.63,1026,49,1.19,117,0,0.0,Clear,clear sky,15
Apc-Zagyvaszántó,47.791328,19.66822,2026-03-07 15:38:23.998585,11.63,10.13,11.63,11.63,1026,49,1.15,128,0,0.0,Clear,clear sky,15
Pásztó,47.918889,19.688889,2026-03-07 15:38:25.203644,11.45,10.06,11.45,11.45,1026,54,1.11,186,0,0.0,Clear,clear sky,15
Mátraszőlős-Hasznos,47.938506,19.706122,2026-03-07 15:38:26.405420,11.42,10.05,11.42,11.42,1026,55,1.11,195,0,0.0,Clear,clear sky,15
Tar,47.956111,19.746389,2026-03-07 15:38:27.608720,10.99,9.58,10.99,10.99,1026,55,1.09,196,0,0.0,Clear,clear sky,15
Mátraverebély,47.968333,19.778611,2026-03-07 15:38:28.808173,10.99,9.58,10.99,10.99,1026,55,1.09,196,0,0.0,Clear,clear sky,15
Nagybátony,47.981111,19.82,2026-03-07 15:38:30.003157,11.13,9.76,11.13,11.13,1026,56,1.09,197,0,0.0,Clear,clear sky,15
Kisterenye,48.009444,19.831944,2026-03-07 15:38:31.201496,11.18,9.79,11.18,11.18,1026,55,1.05,194,0,0.0,Clear,clear sky,15
Kisterenye-Bányatelep,48.021389,19.831944,2026-03-07 15:38:32.401849,11.18,9.79,11.18,11.18,1026,55,1.05,194,0,0.0,Clear,clear sky,15
Salgótarján külső,48.089444,19.790833,2026-03-07 15:38:33.606127,10.79,9.41,10.79,10.79,1026,57,0.82,216,0,0.0,Clear,clear sky,15
Balatonfenyves GV,46.7125,17.479167,2026-03-07 15:38:34.813224,14.37,13.06,14.37,14.37,1025,46,2.98,97,0,0.0,Clear,clear sky,15
Várhegyalja,47.737778,18.366667,2026-03-07 15:38:36.007918,13.73,12.41,13.73,13.73,1026,48,2.12,131,0,0.0,Clear,clear sky,15
Imremajor,46.680556,17.499722,2026-03-07 15:38:37.212112,14.49,13.17,14.49,14.49,1025,45,2.9,98,0,0.0,Clear,clear sky,15
Rákospalota-Kertváros,47.578333,19.122778,2026-03-07 15:38:38.411463,13.88,12.13,13.88,13.88,1026,31,1.96,105,0,0.0,Clear,clear sky,15
Vicziántelep,47.675833,19.286111,2026-03-07 15:38:39.604521,12.23,10.61,12.23,12.23,1026,42,2.02,102,0,0.0,Clear,clear sky,15
Pálmajor,46.662831,17.457526,2026-03-07 15:38:40.800529,14.59,13.25,14.59,14.59,1025,44,2.69,100,0,0.0,Clear,clear sky,15
Somogyszentpál felső,46.649758,17.471404,2026-03-07 15:38:42.001126,14.56,13.22,14.56,14.56,1025,44,2.8,99,0,0.0,Clear,clear sky,15
Somogyszentpál,46.638611,17.478611,2026-03-07 15:38:43.206503,14.58,13.22,14.58,14.58,1025,43,2.69,101,0,0.0,Clear,clear sky,15
Rudnaykert,47.7175,19.257778,2026-03-07 15:38:44.400413,12.19,10.64,12.19,12.19,1026,45,2.05,108,0,0.0,Clear,clear sky,15
Maroshegy,47.158333,18.406667,2026-03-07 15:38:45.594396,13.74,12.19,13.74,13.74,1026,39,2.46,93,0,0.0,Clear,clear sky,15
Bánhida,47.573703,18.371737,2026-03-07 15:38:46.796394,13.37,11.94,13.37,13.37,1026,45,2.34,126,0,0.0,Clear,clear sky,15
Magyarkút,47.850278,19.045,2026-03-07 15:38:47.994519,11.94,10.55,11.94,11.94,1026,52,1.59,113,0,0.0,Clear,clear sky,15
Becske alsó,47.897222,19.364722,2026-03-07 15:38:49.192651,11.16,9.69,11.16,11.16,1026,52,1.68,158,0,0.0,Clear,clear sky,15
Hosszúberek-Péteri,47.370556,19.389722,2026-03-07 15:38:50.395642,12.86,11.22,12.86,12.86,1026,39,2.15,75,1,0.0,Clear,clear sky,15
Monorierdő,47.308889,19.499167,2026-03-07 15:38:51.588713,12.47,10.84,12.47,12.47,1026,41,2.19,76,2,0.0,Clear,clear sky,15
Ceglédbercel,47.215833,19.658611,2026-03-07 15:38:52.791500,12.72,11.04,12.72,12.72,1026,38,2.2,89,3,0.0,Clear,clear sky,15
Budai út,47.208333,19.731389,2026-03-07 15:38:53.984633,12.7,10.99,12.7,12.7,1026,37,2.2,89,3,0.0,Clear,clear sky,15
Büdöskútpuszta,48.373056,20.726111,2026-03-07 15:38:55.186501,10.48,8.78,10.48,10.48,1026,46,1.65,137,0,0.0,Clear,clear sky,15
Bánrévei Vízmű,48.282778,20.368333,2026-03-07 15:38:56.401444,10.57,8.91,10.57,10.57,1026,47,1.37,92,0,0.0,Clear,clear sky,15
Rákoskert,47.456389,19.296111,2026-03-07 15:38:57.602729,13.04,11.31,13.04,13.04,1026,35,1.9,82,0,0.0,Clear,clear sky,15
Szirmabesenyő,48.146944,20.783056,2026-03-07 15:38:58.805811,8.97,7.91,8.97,8.97,1026,42,2.1,132,0,0.0,Clear,clear sky,15
Kitérőgyár,47.766944,19.935278,2026-03-07 15:39:00.022811,11.13,9.53,11.13,11.13,1026,47,0.71,116,0,0.0,Clear,clear sky,15
Tápiószentmárton,47.373333,19.797778,2026-03-07 15:39:01.230154,12.52,10.82,12.52,12.52,1026,38,2.19,68,2,0.0,Clear,clear sky,15
Zagyvarékas,47.244229,20.097435,2026-03-07 15:39:02.429406,12.83,11.11,12.83,12.83,1026,36,2.19,80,5,0.0,Clear,clear sky,15
Abonyi út,47.206401,20.125204,2026-03-07 15:39:03.626659,12.86,11.14,12.86,12.86,1026,36,2.18,82,5,0.0,Clear,clear sky,15
Jászkisér felső,47.438056,20.202222,2026-03-07 15:39:04.830988,12.3,10.53,12.3,12.3,1026,36,2.27,72,4,0.0,Clear,clear sky,15
Szellőhát,47.425556,20.188889,2026-03-07 15:39:06.035743,12.38,10.61,12.38,12.38,1026,36,2.29,71,4,0.0,Clear,clear sky,15
Szilvásvárad-Szalajkavölgy,48.0956,20.38272,2026-03-07 15:39:07.235831,8.46,8.46,8.46,8.46,1026,47,1.04,151,0,0.0,Clear,clear sky,15
Vásárosnamény külső,48.084444,22.255556,2026-03-07 15:39:08.440094,11.24,9.7,11.24,11.24,1027,49,1.53,23,0,0.0,Clear,clear sky,15
Újváros,46.660556,20.536111,2026-03-07 15:39:09.644376,13.55,12.11,13.55,13.55,1026,44,1.1,62,3,0.0,Clear,clear sky,15
Városi park,46.697778,19.864722,2026-03-07 15:39:10.841367,12.98,11.35,12.98,12.98,1026,39,2.15,93,2,0.0,Clear,clear sky,15
Belsőkamaráspuszta,46.341944,20.848889,2026-03-07 15:39:12.036371,13.83,12.55,13.83,13.83,1026,49,1.82,158,1,0.0,Clear,clear sky,15
Sajószöged,47.945278,20.981667,2026-03-07 15:39:13.237853,10.32,8.53,10.32,10.32,1026,43,1.96,79,0,0.0,Clear,clear sky,15
Kazincbarcika alsó,48.255278,20.649167,2026-03-07 15:39:14.439461,9.8,9.14,9.8,9.8,1026,44,1.79,118,0,0.0,Clear,clear sky,15
Nyárjas,46.857778,19.923611,2026-03-07 15:39:15.633331,12.82,11.15,12.82,12.82,1026,38,2.27,101,3,0.0,Clear,clear sky,15
Pogonyipuszta,48.296389,20.381667,2026-03-07 15:39:16.838725,10.57,8.91,10.57,10.57,1026,47,1.37,92,0,0.0,Clear,clear sky,15
Sióvölgy,46.911103,18.076964,2026-03-07 15:39:18.037217,14.03,12.56,14.03,14.03,1026,41,2.47,113,0,0.0,Clear,clear sky,15
Répáspuszta,46.430278,17.847222,2026-03-07 15:39:19.238805,13.47,12.0,13.47,13.47,1025,43,2.49,99,0,0.0,Clear,clear sky,15
Virányos,48.066667,21.527222,2026-03-07 15:39:20.440161,10.8,9.16,10.8,10.8,1027,47,2.11,45,0,0.0,Clear,clear sky,15
Füzesbokor,47.988611,21.6475,2026-03-07 15:39:21.652315,11.05,9.41,11.05,11.05,1027,46,2.6,27,0,0.0,Clear,clear sky,15
Kunfehértó,46.355833,19.417222,2026-03-07 15:39:22.849007,13.27,11.8,13.27,13.27,1026,44,2.07,83,0,0.0,Clear,clear sky,15
Erdőszél,46.329444,19.395,2026-03-07 15:39:24.047849,13.18,11.7,13.18,13.18,1026,44,2.1,83,0,0.0,Clear,clear sky,15
Jánoshalma,46.293056,19.330278,2026-03-07 15:39:25.251474,13.35,11.89,13.35,13.35,1026,44,2.07,83,0,0.0,Clear,clear sky,15
Mélykút,46.213056,19.370556,2026-03-07 15:39:26.452213,13.47,12.05,13.47,13.47,1025,45,1.96,82,0,0.0,Clear,clear sky,15
Bácsalmás,46.118056,19.346389,2026-03-07 15:39:27.651609,13.66,12.26,13.66,13.66,1025,45,1.95,82,0,0.0,Clear,clear sky,15
Almás,46.116216,19.328803,2026-03-07 15:39:28.847197,13.66,12.26,13.66,13.66,1025,45,1.95,82,0,0.0,Clear,clear sky,15
Bácsbokod-Bácsborsód,46.115833,19.16,2026-03-07 15:39:30.041676,13.69,12.26,13.69,13.69,1025,44,2.01,81,0,0.0,Clear,clear sky,15
Baja,46.187014,18.957602,2026-03-07 15:39:31.237817,13.89,12.43,13.89,13.89,1025,42,2.11,82,0,0.0,Clear,clear sky,15
Harkakötöny,46.458333,19.601944,2026-03-07 15:39:32.442346,13.22,11.72,13.22,13.22,1026,43,2.02,78,0,0.0,Clear,clear sky,15
Tajó,46.473056,19.650556,2026-03-07 15:39:33.646073,13.24,11.74,13.24,13.24,1026,43,1.99,76,1,0.0,Clear,clear sky,15
Kiskunmajsa,46.501667,19.728056,2026-03-07 15:39:34.849579,13.24,11.74,13.24,13.24,1026,43,1.97,75,1,0.0,Clear,clear sky,15
Jászszentlászló,46.565833,19.753611,2026-03-07 15:39:36.048789,13.13,11.6,13.13,13.13,1026,42,2.06,79,1,0.0,Clear,clear sky,15
Galambos,46.625,19.801111,2026-03-07 15:39:37.249497,13.04,11.47,13.04,13.04,1026,41,2.1,85,1,0.0,Clear,clear sky,15
Pestszentimre,47.402222,19.188611,2026-03-07 15:39:38.453010,13.7,11.96,13.7,13.7,1026,32,2.09,89,0,0.0,Clear,clear sky,15
Gyál felső,47.390278,19.204722,2026-03-07 15:39:39.656819,13.56,11.83,13.56,13.56,1026,33,2.08,86,0,0.0,Clear,clear sky,15
Gyál,47.376667,19.219444,2026-03-07 15:39:40.851367,13.56,11.83,13.56,13.56,1026,33,2.08,86,0,0.0,Clear,clear sky,15
Ócsa,47.301389,19.232222,2026-03-07 15:39:42.047019,13.24,11.59,13.24,13.24,1026,37,2.31,83,0,0.0,Clear,clear sky,15
Inárcs-Kakucs,47.247222,19.317778,2026-03-07 15:39:43.260665,12.97,11.37,12.97,12.97,1026,40,2.36,81,1,0.0,Clear,clear sky,15
Dabas,47.194722,19.328889,2026-03-07 15:39:44.455366,12.84,11.25,12.84,12.84,1026,41,2.37,83,1,0.0,Clear,clear sky,15
Gyón,47.178333,19.355556,2026-03-07 15:39:45.655849,12.88,11.29,12.88,12.88,1026,41,2.38,84,1,0.0,Clear,clear sky,15
Hernád,47.161389,19.4025,2026-03-07 15:39:46.857310,12.8,11.18,12.8,12.8,1026,40,2.32,87,2,0.0,Clear,clear sky,15
Bakonygyirót,47.416389,17.811944,2026-03-07 15:39:48.056647,13.92,12.59,13.92,13.92,1026,47,2.52,123,0,0.0,Clear,clear sky,15
Vinye,47.360317,17.819635,2026-03-07 15:39:49.256990,13.31,11.92,13.31,13.31,1026,47,2.42,122,0,0.0,Clear,clear sky,15
Nemesgörzsöny,47.402924,17.376385,2026-03-07 15:39:50.457016,14.7,13.48,14.7,14.7,1025,48,2.66,157,0,0.0,Clear,clear sky,15
Rábahíd,47.438618,17.337525,2026-03-07 15:39:51.655406,14.74,13.52,14.74,14.74,1025,48,2.67,159,0,0.0,Clear,clear sky,15
Öskü,47.162222,18.076389,2026-03-07 15:39:52.851504,13.48,12.01,13.48,13.48,1026,43,2.42,108,0,0.0,Clear,clear sky,15
Márkó,47.1275,17.813889,2026-03-07 15:39:54.049817,12.61,11.15,12.61,12.61,1026,47,1.98,117,0,0.0,Clear,clear sky,15
Nemeskocs,47.203333,17.188889,2026-03-07 15:39:55.246844,14.41,13.16,14.41,14.41,1025,48,2.78,135,0,0.0,Clear,clear sky,15
Zalagyömörő,47.011111,17.220833,2026-03-07 15:39:56.450092,14.18,12.88,14.18,14.18,1025,47,2.61,115,0,0.0,Clear,clear sky,15
Rigács,47.061667,17.199167,2026-03-07 15:39:57.653437,14.16,12.86,14.16,14.16,1025,47,2.65,117,0,0.0,Clear,clear sky,15
Kemenespálfa,47.139722,17.183056,2026-03-07 15:39:58.852476,14.32,13.06,14.32,14.32,1025,48,2.74,126,0,0.0,Clear,clear sky,15
Lentiszombathely,46.611389,16.5725,2026-03-07 15:40:00.139605,13.87,12.64,13.87,13.87,1025,51,1.9,117,0,0.0,Clear,clear sky,15
Ortaháza,46.626667,16.685833,2026-03-07 15:40:01.347794,13.57,12.29,13.57,13.57,1025,50,1.43,127,0,0.0,Clear,clear sky,15
Rádiháza,46.654722,16.765833,2026-03-07 15:40:02.549637,13.51,12.22,13.51,13.51,1025,50,1.29,139,0,0.0,Clear,clear sky,15
Baktüttös,46.690833,16.826389,2026-03-07 15:40:03.782572,13.65,12.35,13.65,13.65,1025,49,1.31,154,0,0.0,Clear,clear sky,15
Budafa,46.851667,16.624722,2026-03-07 15:40:04.985984,13.81,12.58,13.81,13.81,1025,51,1.65,149,0,0.0,Clear,clear sky,15
Zalapatakalja,46.845556,16.603889,2026-03-07 15:40:06.185771,13.88,12.68,13.88,13.88,1025,52,1.76,143,0,0.0,Clear,clear sky,15
Tormásliget,47.430556,16.781667,2026-03-07 15:40:07.383089,14.65,13.45,14.65,14.65,1025,49,2.88,154,0,0.0,Clear,clear sky,15
Belecska,46.64,18.411389,2026-03-07 15:40:08.589455,13.89,12.3,13.89,13.89,1026,37,2.32,96,0,0.0,Clear,clear sky,15
Almár,47.956111,20.356944,2026-03-07 15:40:09.783368,9.16,8.69,9.16,9.16,1026,47,1.5,170,0,0.0,Clear,clear sky,15
Vasútmúzeum,47.543889,19.099444,2026-03-07 15:40:10.982322,14.03,12.27,14.03,14.03,1026,30,1.95,105,0,0.0,Clear,clear sky,15
Abda,47.690833,17.540556,2026-03-07 15:40:12.176873,14.84,13.66,14.84,14.84,1025,49,2.97,126,0,0.0,Clear,clear sky,15
Vadaspark,47.526111,18.949167,2026-03-07 15:40:13.370659,12.45,10.59,12.45,12.45,1026,32,2.03,115,0,0.0,Clear,clear sky,15
Barosstelep,47.398889,18.989167,2026-03-07 15:40:14.565310,13.93,12.24,13.93,13.93,1026,33,2.21,99,0,0.0,Clear,clear sky,15
Fegyvernek-Örményes,47.194444,20.5575,2026-03-07 15:40:15.773244,12.52,10.82,12.52,12.52,1026,38,2.02,82,4,0.0,Clear,clear sky,15
Zagyvapálfalva,48.068889,19.785,2026-03-07 15:40:16.973885,10.98,9.62,10.98,10.98,1026,57,0.91,211,0,0.0,Clear,clear sky,15
Salgótarján,48.105556,19.807222,2026-03-07 15:40:18.177933,10.38,8.96,10.38,10.38,1026,57,0.72,222,0,0.0,Clear,clear sky,15
Szabadisóstó,46.933889,18.118056,2026-03-07 15:40:19.371939,14.06,12.57,14.06,14.06,1026,40,2.5,110,0,0.0,Clear,clear sky,15
Siófok,46.907778,18.053889,2026-03-07 15:40:20.571756,14.03,12.56,14.03,14.03,1026,41,2.47,113,0,0.0,Clear,clear sky,15
Balatonszéplak felső,46.898056,18.018056,2026-03-07 15:40:21.775656,13.92,12.44,13.92,13.92,1025,41,2.45,114,0,0.0,Clear,clear sky,15
Balatonszéplak alsó,46.891944,17.993333,2026-03-07 15:40:22.971355,14.0,12.55,14.0,14.0,1025,42,2.44,114,0,0.0,Clear,clear sky,15
Zamárdi felső,46.886111,17.969444,2026-03-07 15:40:24.177289,13.99,12.54,13.99,13.99,1025,42,2.42,113,0,0.0,Clear,clear sky,15
Zamárdi,46.88,17.944722,2026-03-07 15:40:25.376029,13.99,12.54,13.99,13.99,1025,42,2.42,113,0,0.0,Clear,clear sky,15
Szántód,46.861944,17.899167,2026-03-07 15:40:26.577642,13.94,12.54,13.94,13.94,1025,44,2.42,112,0,0.0,Clear,clear sky,15
Szőny-Déli,47.735278,18.141944,2026-03-07 15:40:27.784388,14.22,12.92,14.22,14.22,1026,47,2.68,129,0,0.0,Clear,clear sky,15
Várpalota,47.194444,18.149167,2026-03-07 15:40:28.982662,13.19,11.66,13.19,13.19,1026,42,2.38,102,0,0.0,Clear,clear sky,15
Pétfürdő,47.1675,18.121389,2026-03-07 15:40:30.186403,13.65,12.17,13.65,13.65,1026,42,2.41,104,0,0.0,Clear,clear sky,15
Hajmáskér,47.141111,18.009444,2026-03-07 15:40:31.381312,13.24,11.74,13.24,13.24,1026,43,2.4,109,0,0.0,Clear,clear sky,15
Veszprém,47.118889,17.91,2026-03-07 15:40:32.583205,13.12,11.66,13.12,13.12,1026,45,2.17,114,0,0.0,Clear,clear sky,15
Herend,47.136944,17.760278,2026-03-07 15:40:33.787471,12.53,11.07,12.53,12.53,1026,47,1.94,119,0,0.0,Clear,clear sky,15
Városlőd,47.144167,17.652778,2026-03-07 15:40:34.993554,12.46,11.01,12.46,12.46,1026,48,2.05,131,0,0.0,Clear,clear sky,15
Városlőd-Kislőd,47.133889,17.631111,2026-03-07 15:40:36.195244,12.87,11.47,12.87,12.87,1026,48,2.0,128,0,0.0,Clear,clear sky,15
Ajka,47.105902,17.572938,2026-03-07 15:40:37.400677,13.37,12.04,13.37,13.37,1026,49,2.21,128,0,0.0,Clear,clear sky,15
Ajka-Gyártelep,47.096806,17.555219,2026-03-07 15:40:38.596148,13.37,12.04,13.37,13.37,1026,49,2.21,128,0,0.0,Clear,clear sky,15
Devecser,47.1125,17.435278,2026-03-07 15:40:39.795723,13.83,12.55,13.83,13.83,1025,49,2.44,128,0,0.0,Clear,clear sky,15
Somlóvásárhely,47.124444,17.369167,2026-03-07 15:40:40.996467,13.99,12.72,13.99,13.99,1025,49,2.62,130,0,0.0,Clear,clear sky,15
Tüskevár,47.128611,17.331389,2026-03-07 15:40:42.195187,14.11,12.86,14.11,14.11,1025,49,2.65,129,0,0.0,Clear,clear sky,15
Karakószörcsök,47.133611,17.287778,2026-03-07 15:40:43.396893,14.18,12.91,14.18,14.18,1025,48,2.69,128,0,0.0,Clear,clear sky,15
Kerta,47.151944,17.237222,2026-03-07 15:40:44.592294,14.35,13.09,14.35,14.35,1025,48,2.76,129,0,0.0,Clear,clear sky,15
Boba,47.183333,17.191389,2026-03-07 15:40:45.800689,14.36,13.1,14.36,14.36,1025,48,2.78,132,0,0.0,Clear,clear sky,15
Börgönd,47.140278,18.515,2026-03-07 15:40:47.001157,13.6,12.03,13.6,13.6,1026,39,2.51,92,0,0.0,Clear,clear sky,15
Belsőbáránd,47.102778,18.499722,2026-03-07 15:40:48.203555,13.62,12.03,13.62,13.62,1026,38,2.5,93,0,0.0,Clear,clear sky,15
Zichyújfalu,47.124444,18.6725,2026-03-07 15:40:49.400623,13.48,11.9,13.48,13.48,1026,39,2.53,89,0,0.0,Clear,clear sky,15
Seregélyes,47.121111,18.580556,2026-03-07 15:40:50.599939,13.72,12.17,13.72,13.72,1026,39,2.52,91,0,0.0,Clear,clear sky,15
Polgárdi-Ipartelepek,47.079167,18.314444,2026-03-07 15:40:51.794517,13.5,11.9,13.5,13.5,1026,38,2.47,97,0,0.0,Clear,clear sky,15
Polgárdi,47.07,18.284167,2026-03-07 15:40:52.994511,13.5,11.9,13.5,13.5,1026,38,2.47,97,0,0.0,Clear,clear sky,15
Füle,47.05,18.255278,2026-03-07 15:40:54.193397,13.51,11.91,13.51,13.51,1026,38,2.48,99,0,0.0,Clear,clear sky,15
Zánka-Erzsébettábor,46.8775,17.709167,2026-03-07 15:40:55.395577,13.95,12.63,13.95,13.95,1025,47,2.6,104,0,0.0,Clear,clear sky,15
Csajág,47.033889,18.186389,2026-03-07 15:40:56.599797,13.68,12.12,13.68,13.68,1026,39,2.5,105,0,0.0,Clear,clear sky,15
Balatonakarattya,47.017222,18.167778,2026-03-07 15:40:57.796880,13.68,12.12,13.68,13.68,1026,39,2.5,105,0,0.0,Clear,clear sky,15
Csittényhegy,47.025278,18.1375,2026-03-07 15:40:59.008629,13.93,12.4,13.93,13.93,1026,39,2.5,106,0,0.0,Clear,clear sky,15
Balatonkenese,47.0325,18.105556,2026-03-07 15:41:00.213073,14.05,12.56,14.05,14.05,1026,40,2.5,108,0,0.0,Clear,clear sky,15
Balatonfűzfő,47.060278,18.0425,2026-03-07 15:41:01.448282,13.75,12.28,13.75,13.75,1026,42,2.42,110,0,0.0,Clear,clear sky,15
Balatonalmádi,47.028333,18.015,2026-03-07 15:41:02.648679,13.95,12.5,13.95,13.95,1026,42,2.43,111,0,0.0,Clear,clear sky,15
Káptalanfüred,47.008889,18.003889,2026-03-07 15:41:03.848605,13.08,11.54,13.08,13.08,1026,42,2.39,112,0,0.0,Clear,clear sky,15
Alsóörs,46.985278,17.974722,2026-03-07 15:41:05.061516,13.08,11.54,13.08,13.08,1026,42,2.39,112,0,0.0,Clear,clear sky,15
Csopak,46.974722,17.931111,2026-03-07 15:41:06.269016,13.38,11.92,13.38,13.38,1026,44,2.24,111,0,0.0,Clear,clear sky,15
Balatonarács,46.9625,17.8975,2026-03-07 15:41:07.472315,13.38,11.92,13.38,13.38,1026,44,2.24,111,0,0.0,Clear,clear sky,15
Balatonfüred,46.955833,17.883056,2026-03-07 15:41:08.671153,13.77,12.38,13.77,13.77,1026,45,2.23,110,0,0.0,Clear,clear sky,15
Aszófő,46.925556,17.8325,2026-03-07 15:41:09.866048,13.73,12.33,13.73,13.73,1026,45,2.27,109,0,0.0,Clear,clear sky,15
Örvényes,46.9125,17.818056,2026-03-07 15:41:11.061757,13.73,12.33,13.73,13.73,1026,45,2.27,109,0,0.0,Clear,clear sky,15
Balatonudvari,46.904722,17.808056,2026-03-07 15:41:12.271198,13.2,11.78,13.2,13.2,1026,46,2.27,107,0,0.0,Clear,clear sky,15
Fövenyes,46.893611,17.789444,2026-03-07 15:41:13.471042,13.84,12.48,13.84,13.84,1025,46,2.36,108,0,0.0,Clear,clear sky,15
Balatonakali-Dörgicse,46.88,17.747778,2026-03-07 15:41:14.668533,13.49,12.1,13.49,13.49,1025,46,2.39,106,0,0.0,Clear,clear sky,15
Zánka-Köveskál,46.872778,17.687778,2026-03-07 15:41:15.869411,13.57,12.21,13.57,13.57,1025,47,2.67,103,0,0.0,Clear,clear sky,15
Balatonszepezd,46.851111,17.663056,2026-03-07 15:41:17.066362,13.98,12.66,13.98,13.98,1025,47,2.78,102,0,0.0,Clear,clear sky,15
Szepezdfürdő,46.839722,17.649444,2026-03-07 15:41:18.261583,12.99,11.6,12.99,12.99,1025,48,2.85,102,0,0.0,Clear,clear sky,15
Révfülöp,46.829167,17.632222,2026-03-07 15:41:19.463398,12.99,11.6,12.99,12.99,1025,48,2.85,102,0,0.0,Clear,clear sky,15
Balatonrendes,46.824722,17.582778,2026-03-07 15:41:20.664247,13.75,12.43,13.75,13.75,1025,48,3.06,98,0,0.0,Clear,clear sky,15
Ábrahámhegy,46.815,17.572222,2026-03-07 15:41:21.865272,13.75,12.43,13.75,13.75,1025,48,3.06,98,0,0.0,Clear,clear sky,15
Badacsonyörs,46.805556,17.531667,2026-03-07 15:41:23.067104,14.03,12.74,14.03,14.03,1025,48,3.08,98,0,0.0,Clear,clear sky,15
Kisújszállás,47.223889,20.751111,2026-03-07 15:41:24.266653,12.38,10.69,12.38,12.38,1026,39,1.92,80,4,0.0,Clear,clear sky,15
Karcag,47.303333,20.928056,2026-03-07 15:41:25.473994,12.13,10.44,12.13,12.13,1026,40,1.77,73,3,0.0,Clear,clear sky,15
Püspökladány,47.3275,21.128889,2026-03-07 15:41:26.669017,12.12,10.43,12.12,12.12,1026,40,1.64,78,3,0.0,Clear,clear sky,15
Kaba,47.368889,21.259444,2026-03-07 15:41:27.872584,12.15,10.47,12.15,12.15,1026,40,1.52,84,2,0.0,Clear,clear sky,15
Hajdúszoboszló,47.429444,21.406944,2026-03-07 15:41:29.074752,12.14,10.48,12.14,12.14,1026,41,1.2,86,1,0.0,Clear,clear sky,15
Ebes,47.462778,21.488889,2026-03-07 15:41:30.273605,12.11,10.45,12.11,12.11,1026,41,1.13,86,1,0.0,Clear,clear sky,15
Debrecen,47.520278,21.628611,2026-03-07 15:41:31.476255,11.99,10.34,11.99,11.99,1026,42,1.1,79,0,0.0,Clear,clear sky,15
Debrecen-Csapókert,47.540556,21.648056,2026-03-07 15:41:32.677851,11.85,10.19,11.85,11.85,1026,42,1.14,73,0,0.0,Clear,clear sky,15
Apafa,47.584045,21.655858,2026-03-07 15:41:33.879450,11.79,10.12,11.79,11.79,1026,42,1.19,67,0,0.0,Clear,clear sky,15
Bocskaikert,47.6425,21.666389,2026-03-07 15:41:35.078597,11.48,9.78,11.48,11.48,1026,42,1.46,51,0,0.0,Clear,clear sky,15
Hajdúhadház,47.686944,21.679167,2026-03-07 15:41:36.273541,11.54,9.85,11.54,11.54,1026,42,1.59,48,0,0.0,Clear,clear sky,15
Téglás,47.714722,21.684722,2026-03-07 15:41:37.481018,11.51,9.81,11.51,11.51,1026,42,1.7,44,0,0.0,Clear,clear sky,15
Újfehértó,47.814444,21.706389,2026-03-07 15:41:38.684581,11.42,9.74,11.42,11.42,1027,43,2.24,32,0,0.0,Clear,clear sky,15
Nyíregyháza,47.946667,21.705556,2026-03-07 15:41:39.889042,11.18,9.5,11.18,11.18,1027,44,2.66,26,0,0.0,Clear,clear sky,15
Sóstó,47.998051,21.729047,2026-03-07 15:41:41.089494,11.14,9.48,11.14,11.14,1027,45,2.54,24,0,0.0,Clear,clear sky,15
Sóstóhegy,48.012222,21.742778,2026-03-07 15:41:42.306276,11.16,9.53,11.16,11.16,1027,46,2.47,25,0,0.0,Clear,clear sky,15
Kemecse,48.065556,21.801667,2026-03-07 15:41:43.510552,11.21,9.59,11.21,11.21,1027,46,2.21,26,0,0.0,Clear,clear sky,15
Nyírbogdány,48.082222,21.855278,2026-03-07 15:41:44.712241,11.19,9.59,11.19,11.19,1027,47,2.07,26,0,0.0,Clear,clear sky,15
Kék,48.093333,21.883889,2026-03-07 15:41:45.918728,11.35,9.74,11.35,11.35,1027,46,2.02,25,0,0.0,Clear,clear sky,15
Demecser,48.111667,21.926667,2026-03-07 15:41:47.115579,11.32,9.73,11.32,11.32,1027,47,1.9,24,0,0.0,Clear,clear sky,15
Gégény,48.128333,21.951944,2026-03-07 15:41:48.314705,11.24,9.67,11.24,11.24,1027,48,1.78,24,0,0.0,Clear,clear sky,15
Pátroha,48.158611,21.996667,2026-03-07 15:41:49.511254,11.2,9.66,11.2,11.2,1027,49,1.68,22,0,0.0,Clear,clear sky,15
Ajak,48.1865,22.048972,2026-03-07 15:41:50.715008,11.13,9.6,11.13,11.13,1027,50,1.61,20,0,0.0,Clear,clear sky,15
Kisvárda,48.208333,22.078333,2026-03-07 15:41:51.916309,11.07,9.56,11.07,11.07,1027,51,1.54,15,0,0.0,Clear,clear sky,15
Kisvárda-Hármasút,48.228333,22.091944,2026-03-07 15:41:53.117597,11.07,9.56,11.07,11.07,1027,51,1.54,15,0,0.0,Clear,clear sky,15
Fényeslitke,48.267222,22.107222,2026-03-07 15:41:54.314651,10.92,9.43,10.92,10.92,1027,52,1.43,8,0,0.0,Clear,clear sky,15
Komoró,48.305278,22.118056,2026-03-07 15:41:55.521788,10.89,9.39,10.89,10.89,1027,52,1.37,5,0,0.0,Clear,clear sky,15
Tuzsér,48.342222,22.131667,2026-03-07 15:41:56.724738,10.78,9.3,10.78,10.78,1027,53,1.21,359,0,0.0,Clear,clear sky,15
Tiszabezdéd,48.371389,22.145,2026-03-07 15:41:57.929487,10.8,9.29,10.8,10.8,1027,52,1.15,350,0,0.0,Clear,clear sky,15
Záhony,48.402222,22.183611,2026-03-07 15:41:59.129277,10.8,9.29,10.8,10.8,1027,52,1.1,341,0,0.0,Clear,clear sky,15
Karcag-Vásártér,47.3225,20.9075,2026-03-07 15:42:00.347106,12.13,10.44,12.13,12.13,1026,40,1.77,73,3,0.0,Clear,clear sky,15
Berekfürdő,47.374722,20.827222,2026-03-07 15:42:01.549931,11.99,10.26,11.99,11.99,1026,39,1.92,61,4,0.0,Clear,clear sky,15
Kunmadaras,47.415278,20.793056,2026-03-07 15:42:02.746559,11.8,10.05,11.8,11.8,1026,39,2.04,53,3,0.0,Clear,clear sky,15
Tiszaszentimre,47.490833,20.733056,2026-03-07 15:42:03.946795,11.58,9.81,11.58,11.58,1026,39,2.22,48,3,0.0,Clear,clear sky,15
Tiszaszőlős,47.555556,20.728056,2026-03-07 15:42:05.147326,11.38,9.59,11.38,11.38,1026,39,2.27,47,2,0.0,Clear,clear sky,15
Hosszúhát,47.235556,21.101944,2026-03-07 15:42:06.343237,12.3,10.66,12.3,12.3,1026,41,1.73,86,3,0.0,Clear,clear sky,15
Szerep,47.234444,21.145833,2026-03-07 15:42:07.543532,12.3,10.66,12.3,12.3,1026,41,1.72,86,3,0.0,Clear,clear sky,15
Sárrétudvari,47.231667,21.180833,2026-03-07 15:42:08.746005,12.29,10.65,12.29,12.29,1026,41,1.72,86,3,0.0,Clear,clear sky,15
Biharnagybajom,47.208889,21.221944,2026-03-07 15:42:09.946161,12.32,10.68,12.32,12.32,1026,41,1.7,86,3,0.0,Clear,clear sky,15
Füzesgyarmat,47.113056,21.194444,2026-03-07 15:42:11.146669,12.58,10.94,12.58,12.58,1026,40,1.44,78,3,0.0,Clear,clear sky,15
Füzesgyarmatfürdő,47.093787,21.201582,2026-03-07 15:42:12.349869,12.58,10.94,12.58,12.58,1026,40,1.44,78,3,0.0,Clear,clear sky,15
Báránd,47.299722,21.235278,2026-03-07 15:42:13.547292,12.2,10.55,12.2,12.2,1026,41,1.66,86,2,0.0,Clear,clear sky,15
Sáp,47.259722,21.360556,2026-03-07 15:42:14.748778,12.27,10.62,12.27,12.27,1026,41,1.73,89,3,0.0,Clear,clear sky,15
Berettyóújfalu,47.211944,21.535556,2026-03-07 15:42:15.948557,12.32,10.7,12.32,12.32,1026,42,1.5,87,2,0.0,Clear,clear sky,15
Mezőpeterd,47.176111,21.625278,2026-03-07 15:42:17.156763,12.27,10.68,12.27,12.27,1026,43,1.23,81,2,0.0,Clear,clear sky,15
Biharkeresztes,47.135556,21.721389,2026-03-07 15:42:18.358991,12.14,10.64,12.14,12.14,1026,47,0.85,49,2,0.0,Clear,clear sky,15
Tócóvölgy,47.529444,21.588889,2026-03-07 15:42:19.554636,12.01,10.36,12.01,12.01,1026,42,1.09,78,0,0.0,Clear,clear sky,15
Sáregres,46.7825,18.588889,2026-03-07 15:42:20.751582,13.85,12.26,13.85,13.85,1026,37,2.37,98,0,0.0,Clear,clear sky,15
Simontornya,46.756582,18.540674,2026-03-07 15:42:21.951074,13.82,12.22,13.82,13.82,1026,37,2.36,99,0,0.0,Clear,clear sky,15
Tolnanémedi,46.727778,18.475833,2026-03-07 15:42:23.151730,13.88,12.29,13.88,13.88,1026,37,2.34,99,0,0.0,Clear,clear sky,15
Pincehely,46.681389,18.43,2026-03-07 15:42:24.345744,13.77,12.17,13.77,13.77,1026,37,2.32,98,0,0.0,Clear,clear sky,15
Keszőhidegkút-Gyönk,46.597778,18.426111,2026-03-07 15:42:25.539116,13.8,12.2,13.8,13.8,1025,37,2.33,94,0,0.0,Clear,clear sky,15
Szárazd,46.575556,18.420833,2026-03-07 15:42:26.735481,13.84,12.27,13.84,13.84,1025,38,2.33,93,0,0.0,Clear,clear sky,15
Regöly,46.568889,18.396111,2026-03-07 15:42:27.943508,13.84,12.27,13.84,13.84,1025,38,2.33,93,0,0.0,Clear,clear sky,15
Szakály-Hőgyész,46.523611,18.389444,2026-03-07 15:42:29.144325,13.74,12.16,13.74,13.74,1025,38,2.33,92,0,0.0,Clear,clear sky,15
Dúzs,46.493889,18.377222,2026-03-07 15:42:30.347305,13.77,12.19,13.77,13.77,1025,38,2.32,91,0,0.0,Clear,clear sky,15
Csibrák,46.466667,18.336389,2026-03-07 15:42:31.545433,13.81,12.24,13.81,13.81,1025,38,2.3,92,0,0.0,Clear,clear sky,15
Kurd,46.449167,18.319167,2026-03-07 15:42:32.747031,13.44,11.83,13.44,13.44,1025,38,2.28,92,0,0.0,Clear,clear sky,15
Döbrököz,46.418889,18.255,2026-03-07 15:42:33.943244,13.71,12.15,13.71,13.71,1025,39,2.26,93,0,0.0,Clear,clear sky,15
Dombóvár,46.37,18.149722,2026-03-07 15:42:35.139435,13.66,12.13,13.66,13.66,1025,40,2.2,97,0,0.0,Clear,clear sky,15
Dombóvár alsó,46.363889,18.134167,2026-03-07 15:42:36.337519,13.66,12.13,13.66,13.66,1025,40,2.2,97,0,0.0,Clear,clear sky,15
Somoskőújfalu,48.154722,19.815556,2026-03-07 15:42:37.538898,9.32,9.32,9.32,9.32,1026,57,0.54,236,0,0.0,Clear,clear sky,15
Jászfényszaru,47.593056,19.754444,2026-03-07 15:42:38.742150,11.87,10.29,11.87,11.87,1026,45,1.79,60,0,0.0,Clear,clear sky,15
Pusztamonostor,47.564444,19.794167,2026-03-07 15:42:39.942052,11.95,10.32,11.95,11.95,1026,43,1.9,57,0,0.0,Clear,clear sky,15
Jászberény,47.494444,19.893333,2026-03-07 15:42:41.140267,12.28,10.61,12.28,12.28,1026,40,2.13,59,1,0.0,Clear,clear sky,15
Meggyespele,47.441944,19.938889,2026-03-07 15:42:42.342751,12.51,10.78,12.51,12.51,1026,37,2.22,67,2,0.0,Clear,clear sky,15
Portelek,47.418056,19.958889,2026-03-07 15:42:43.541600,12.58,10.86,12.58,12.58,1026,37,2.24,68,2,0.0,Clear,clear sky,15
Jászboldogháza-Jánoshida,47.366944,20.001389,2026-03-07 15:42:44.735455,12.68,10.94,12.68,12.68,1026,36,2.25,72,3,0.0,Clear,clear sky,15
Jászárokszállás,47.635556,19.971111,2026-03-07 15:42:45.938047,11.84,10.18,11.84,11.84,1026,42,1.49,65,0,0.0,Clear,clear sky,15
Jászdózsa,47.563056,20.028056,2026-03-07 15:42:47.137488,12.02,10.3,12.02,12.02,1026,39,1.8,69,1,0.0,Clear,clear sky,15
Jászapáti,47.513611,20.155,2026-03-07 15:42:48.332507,12.07,10.3,12.07,12.07,1026,37,2.12,74,3,0.0,Clear,clear sky,15
Jászkisér,47.456111,20.203333,2026-03-07 15:42:49.539459,12.21,10.43,12.21,12.21,1026,36,2.25,72,4,0.0,Clear,clear sky,15
Jászladány,47.373333,20.159167,2026-03-07 15:42:50.741283,12.58,10.83,12.58,12.58,1026,36,2.29,72,4,0.0,Clear,clear sky,15
Szászberek,47.320556,20.090833,2026-03-07 15:42:51.948060,12.71,10.98,12.71,12.71,1026,36,2.26,74,4,0.0,Clear,clear sky,15
Gyöngyöshalász,47.743056,19.932222,2026-03-07 15:42:53.147806,11.34,9.73,11.34,11.34,1026,46,0.74,99,0,0.0,Clear,clear sky,15
Gyöngyös,47.783056,19.937222,2026-03-07 15:42:54.346486,10.9,9.27,10.9,10.9,1026,47,0.7,114,0,0.0,Clear,clear sky,15
Erdőtelek,47.683333,20.3025,2026-03-07 15:42:55.543602,11.19,9.41,11.19,11.19,1026,40,1.9,87,1,0.0,Clear,clear sky,15
Heves,47.609444,20.306111,2026-03-07 15:42:56.752565,11.53,9.76,11.53,11.53,1026,39,2.13,77,3,0.0,Clear,clear sky,15
Hevesvezekény,47.562222,20.365833,2026-03-07 15:42:57.965504,11.58,9.79,11.58,11.58,1026,38,2.26,73,3,0.0,Clear,clear sky,15
Tarnaszentmiklós,47.546944,20.390833,2026-03-07 15:42:59.171321,11.68,9.9,11.68,11.68,1026,38,2.28,71,4,0.0,Clear,clear sky,15
Kisköre,47.495556,20.481667,2026-03-07 15:43:00.373539,11.75,9.97,11.75,11.75,1026,38,2.35,61,4,0.0,Clear,clear sky,15
Abádszalók,47.455278,20.553056,2026-03-07 15:43:01.575875,11.79,10.02,11.79,11.79,1026,38,2.34,59,4,0.0,Clear,clear sky,15
Kunhegyes,47.376667,20.641111,2026-03-07 15:43:02.784446,11.96,10.23,11.96,11.96,1026,39,2.18,58,4,0.0,Clear,clear sky,15
Kenderes,47.254444,20.686111,2026-03-07 15:43:03.989678,12.36,10.67,12.36,12.36,1026,39,1.98,75,4,0.0,Clear,clear sky,15
Maklár,47.808056,20.404722,2026-03-07 15:43:05.192394,10.49,8.72,10.49,10.49,1026,43,1.63,108,0,0.0,Clear,clear sky,15
Andornaktálya,47.852203,20.402295,2026-03-07 15:43:06.387376,10.09,8.3,10.09,10.09,1026,44,1.42,125,0,0.0,Clear,clear sky,15
Eger,47.891667,20.381667,2026-03-07 15:43:07.587681,9.96,9.73,9.96,9.96,1026,45,1.38,146,0,0.0,Clear,clear sky,15
Egervár,47.908056,20.380556,2026-03-07 15:43:08.791917,9.99,9.75,9.99,9.99,1026,46,1.39,155,0,0.0,Clear,clear sky,15
Eger-Felnémet,47.936667,20.370556,2026-03-07 15:43:10.010120,9.84,9.56,9.84,9.84,1026,46,1.41,162,0,0.0,Clear,clear sky,15
Szarvaskő,47.988611,20.3325,2026-03-07 15:43:11.211431,9.21,8.77,9.21,9.21,1026,47,1.48,173,0,0.0,Clear,clear sky,15
Mónosbél,48.031944,20.33,2026-03-07 15:43:12.414456,9.24,9.24,9.24,9.24,1026,47,1.32,170,0,0.0,Clear,clear sky,15
Bélapátfalva,48.055556,20.340556,2026-03-07 15:43:13.615885,8.99,8.99,8.99,8.99,1026,47,1.2,166,0,0.0,Clear,clear sky,15
Bélapátfalvi Cementgyár,48.058056,20.355,2026-03-07 15:43:14.815668,8.99,8.99,8.99,8.99,1026,47,1.2,166,0,0.0,Clear,clear sky,15
Szilvásvárad,48.11345,20.37919,2026-03-07 15:43:16.015356,8.58,8.58,8.58,8.58,1026,47,0.98,138,0,0.0,Clear,clear sky,15
Hejőkeresztúr,47.960278,20.869444,2026-03-07 15:43:17.218464,9.92,9.07,9.92,9.92,1026,43,2.04,103,0,0.0,Clear,clear sky,15
Tiszaújváros,47.926111,21.030556,2026-03-07 15:43:18.417836,10.42,8.64,10.42,10.42,1026,43,1.97,75,0,0.0,Clear,clear sky,15
Miskolc-Gömöri,48.106667,20.800278,2026-03-07 15:43:19.617694,9.53,8.51,9.53,9.53,1026,42,2.17,132,0,0.0,Clear,clear sky,15
Sajókeresztúr,48.168008,20.774014,2026-03-07 15:43:20.820593,9.62,8.7,9.62,9.62,1026,42,2.06,134,0,0.0,Clear,clear sky,15
Sajóecseg,48.186111,20.766667,2026-03-07 15:43:22.025164,9.82,8.96,9.82,9.82,1026,43,2.03,136,0,0.0,Clear,clear sky,15
Sajószentpéter,48.222222,20.708056,2026-03-07 15:43:23.223714,9.9,9.13,9.9,9.9,1026,43,1.93,133,0,0.0,Clear,clear sky,15
Kazincbarcika,48.264444,20.6275,2026-03-07 15:43:24.425177,10.12,8.36,10.12,10.12,1026,45,1.76,113,0,0.0,Clear,clear sky,15
Sajókaza,48.272778,20.581944,2026-03-07 15:43:25.626773,10.14,8.41,10.14,10.14,1026,46,1.74,109,0,0.0,Clear,clear sky,15
Vadna,48.276389,20.555278,2026-03-07 15:43:26.830245,10.14,8.41,10.14,10.14,1026,46,1.74,109,0,0.0,Clear,clear sky,15
Dubicsány,48.280833,20.504722,2026-03-07 15:43:28.028331,10.25,8.53,10.25,10.25,1026,46,1.67,98,0,0.0,Clear,clear sky,15
Raposka,46.851389,17.412778,2026-03-07 15:43:29.224094,14.09,12.83,14.09,14.09,1025,49,2.88,95,0,0.0,Clear,clear sky,15
Ivacs,47.641944,19.273889,2026-03-07 15:43:30.434803,12.42,10.76,12.42,12.42,1026,40,2.03,99,0,0.0,Clear,clear sky,15
Kisköre-Tiszahíd,47.480835,20.507698,2026-03-07 15:43:31.637132,11.84,10.07,11.84,11.84,1026,38,2.34,60,4,0.0,Clear,clear sky,15
Rozsály,47.912778,22.7825,2026-03-07 15:43:32.836315,12.02,10.43,12.02,12.02,1027,44,1.75,357,0,0.0,Clear,clear sky,15
Pusztakettős,47.453611,20.749722,2026-03-07 15:43:34.038974,11.73,9.98,11.73,11.73,1026,39,2.13,51,3,0.0,Clear,clear sky,15
Kisvác,47.795278,19.113611,2026-03-07 15:43:35.238580,12.45,11.06,12.45,12.45,1026,50,1.83,110,0,0.0,Clear,clear sky,15
Tiszafüred-Gyártelep,47.6075,20.736111,2026-03-07 15:43:36.442570,11.18,9.4,11.18,11.18,1026,40,2.25,49,2,0.0,Clear,clear sky,15
Újkenéz,48.251111,22.221667,2026-03-07 15:43:37.650172,11.0,9.51,11.0,11.0,1027,52,1.44,360,0,0.0,Clear,clear sky,15
Püspökladány-Vásártér,47.319167,21.096111,2026-03-07 15:43:38.849542,12.17,10.49,12.17,12.17,1026,40,1.68,81,3,0.0,Clear,clear sky,15
Végegyháza alsó,46.3675,20.866944,2026-03-07 15:43:40.050723,13.83,12.55,13.83,13.83,1026,49,1.69,160,1,0.0,Clear,clear sky,15
Orosháza felső,46.553611,20.655278,2026-03-07 15:43:41.248487,13.8,12.44,13.8,13.8,1026,46,0.66,93,3,0.0,Clear,clear sky,15
Ambrózfalva,46.353056,20.740556,2026-03-07 15:43:42.451938,13.88,12.6,13.88,13.88,1026,49,1.57,155,1,0.0,Clear,clear sky,15
Alsónyék,46.199444,18.738056,2026-03-07 15:43:43.648905,13.84,12.35,13.84,13.84,1025,41,2.1,83,0,0.0,Clear,clear sky,15
Tompapuszta,46.321389,20.966389,2026-03-07 15:43:44.851841,13.71,12.44,13.71,13.71,1026,50,1.98,161,0,0.0,Clear,clear sky,15
Halászlak,46.911879,20.56228,2026-03-07 15:43:46.054879,13.06,11.41,13.06,13.06,1026,38,1.65,89,4,0.0,Clear,clear sky,15
Sirató,46.840556,20.61,2026-03-07 15:43:47.254624,13.25,11.65,13.25,13.25,1026,39,1.38,74,4,0.0,Clear,clear sky,15
Csabacsűd felső,46.829167,20.649167,2026-03-07 15:43:48.462062,13.24,11.64,13.24,13.24,1026,39,1.37,72,4,0.0,Clear,clear sky,15
Orosháza-Üveggyár,46.579979,20.683644,2026-03-07 15:43:49.665587,13.75,12.38,13.75,13.75,1026,46,0.64,83,3,0.0,Clear,clear sky,15
Gyulai városerdő,46.69482,21.32281,2026-03-07 15:43:50.871340,13.1,11.67,13.1,13.1,1026,46,1.28,68,2,0.0,Clear,clear sky,15
Kórógyszentgyörgy,46.564377,20.224998,2026-03-07 15:43:52.074638,13.54,12.1,13.54,13.54,1026,44,1.6,66,3,0.0,Clear,clear sky,15
Kunszállás,46.784444,19.767222,2026-03-07 15:43:53.274279,12.83,11.16,12.83,12.83,1026,38,2.4,100,2,0.0,Clear,clear sky,15
Selymes,46.655321,19.8534,2026-03-07 15:43:54.474741,13.01,11.41,13.01,13.01,1026,40,2.1,87,2,0.0,Clear,clear sky,15
Petőfiszállási tanyák,46.587805,19.874509,2026-03-07 15:43:55.674417,13.14,11.58,13.14,13.14,1026,41,2.0,78,2,0.0,Clear,clear sky,15
Kisteleki szőlők,46.514199,19.92868,2026-03-07 15:43:56.877678,13.35,11.86,13.35,13.35,1026,43,1.87,68,1,0.0,Clear,clear sky,15
Kapitányság,46.435336,19.987564,2026-03-07 15:43:58.073533,13.67,12.27,13.67,13.67,1026,45,1.69,69,1,0.0,Clear,clear sky,15
Őszeszék,46.39025,20.016017,2026-03-07 15:43:59.273747,13.85,12.47,13.85,13.85,1026,45,1.54,78,1,0.0,Clear,clear sky,15
Vilmaszállás,46.366389,20.030833,2026-03-07 15:44:00.472415,13.91,12.53,13.91,13.91,1026,45,1.5,85,1,0.0,Clear,clear sky,15
Jánosszállás,46.334359,20.051199,2026-03-07 15:44:01.666800,13.97,12.6,13.97,13.97,1026,45,1.47,92,1,0.0,Clear,clear sky,15
Felsőpakony,47.343056,19.230556,2026-03-07 15:44:02.867997,13.36,11.69,13.36,13.36,1026,36,2.25,83,0,0.0,Clear,clear sky,15
Felsőméntelek,46.987074,19.557745,2026-03-07 15:44:04.066595,12.78,11.11,12.78,12.78,1026,38,2.41,91,2,0.0,Clear,clear sky,15
Alsóméntelek,46.961558,19.579121,2026-03-07 15:44:05.267836,12.8,11.13,12.8,12.8,1026,38,2.43,92,2,0.0,Clear,clear sky,15
Nagynyír,46.943319,19.585447,2026-03-07 15:44:06.463922,12.8,11.13,12.8,12.8,1026,38,2.45,94,2,0.0,Clear,clear sky,15
Úrihegy,46.917778,19.621389,2026-03-07 15:44:07.663108,12.82,11.15,12.82,12.82,1026,38,2.47,95,2,0.0,Clear,clear sky,15
Miklóstelep,46.913412,19.630913,2026-03-07 15:44:08.861465,12.81,11.14,12.81,12.81,1026,38,2.46,95,2,0.0,Clear,clear sky,15
Tiszajenő alsó,47.016944,20.134444,2026-03-07 15:44:10.054456,13.0,11.32,13.0,13.0,1026,37,2.22,97,6,0.0,Clear,clear sky,15
Óbög,46.987222,20.111111,2026-03-07 15:44:11.251612,12.99,11.31,12.99,12.99,1026,37,2.22,98,5,0.0,Clear,clear sky,15
Árpádszállás,46.866456,19.989163,2026-03-07 15:44:12.450141,12.91,11.25,12.91,12.91,1026,38,2.2,101,4,0.0,Clear,clear sky,15
Tőserdő,46.851111,19.980278,2026-03-07 15:44:13.650883,12.96,11.3,12.96,12.96,1026,38,2.17,101,3,0.0,Clear,clear sky,15
Tiszaalpár felső,46.836256,19.976753,2026-03-07 15:44:14.853666,12.96,11.3,12.96,12.96,1026,38,2.17,101,3,0.0,Clear,clear sky,15
Borsihalom,46.773056,19.92,2026-03-07 15:44:16.069585,12.96,11.3,12.96,12.96,1026,38,2.19,99,3,0.0,Clear,clear sky,15
Petőfiváros,46.725556,19.848611,2026-03-07 15:44:17.265252,12.93,11.3,12.93,12.93,1026,39,2.25,97,2,0.0,Clear,clear sky,15
Csorna,47.601944,17.248889,2026-03-07 15:44:18.462896,14.93,13.73,14.93,14.93,1025,48,2.59,163,0,0.0,Clear,clear sky,15
Szorgalmatos,47.986667,21.366389,2026-03-07 15:44:19.665906,10.77,9.08,10.77,10.77,1027,45,2.42,43,0,0.0,Clear,clear sky,15
Fótfürdő,47.6225,19.200556,2026-03-07 15:44:20.865809,13.17,11.48,13.17,13.17,1026,36,2.0,101,0,0.0,Clear,clear sky,15
Fenyveshegy,47.818333,19.068056,2026-03-07 15:44:22.064379,12.67,11.32,12.67,12.67,1026,51,1.7,106,0,0.0,Clear,clear sky,15
Hűvösvölgy,47.541202,18.96351,2026-03-07 15:44:23.272493,12.66,10.84,12.66,12.66,1026,33,1.97,115,0,0.0,Clear,clear sky,15
Hárshegy,47.535318,18.961433,2026-03-07 15:44:24.460331,12.66,10.84,12.66,12.66,1026,33,1.97,115,0,0.0,Clear,clear sky,15
Szépjuhászné,47.528277,18.955246,2026-03-07 15:44:25.662087,12.45,10.59,12.45,12.45,1026,32,2.03,115,0,0.0,Clear,clear sky,15
Jánoshegy,47.51433,18.95047,2026-03-07 15:44:26.857302,12.45,10.59,12.45,12.45,1026,32,2.03,115,0,0.0,Clear,clear sky,15
Virágvölgy,47.505965,18.95876,2026-03-07 15:44:28.053812,12.66,10.82,12.66,12.66,1026,32,2.08,114,0,0.0,Clear,clear sky,15
Csillebérc,47.498196,18.961694,2026-03-07 15:44:29.258687,12.66,10.82,12.66,12.66,1026,32,2.08,114,0,0.0,Clear,clear sky,15
Normafa,47.5,18.970558,2026-03-07 15:44:30.462781,12.66,10.82,12.66,12.66,1026,32,2.08,114,0,0.0,Clear,clear sky,15
Széchenyihegy,47.49413,18.977049,2026-03-07 15:44:31.682829,11.92,9.95,11.92,11.92,1026,30,2.06,112,0,0.0,Clear,clear sky,15
Balatonfőkajár felső,47.031389,18.215278,2026-03-07 15:44:32.887174,13.8,12.23,13.8,13.8,1026,38,2.49,103,0,0.0,Clear,clear sky,15
Piroska,47.148333,20.129722,2026-03-07 15:44:34.083653,12.89,11.17,12.89,12.89,1026,36,2.18,87,6,0.0,Clear,clear sky,15
Somodor,46.4725,17.836667,2026-03-07 15:44:35.282831,13.59,12.1,13.59,13.59,1025,42,2.61,96,0,0.0,Clear,clear sky,15
Középmező,45.995833,18.668889,2026-03-07 15:44:36.489270,13.88,12.42,13.88,13.88,1025,42,1.82,78,0,0.0,Clear,clear sky,15
Jobbágyi,47.828889,19.6875,2026-03-07 15:44:37.699769,11.54,10.08,11.54,11.54,1026,51,1.1,152,0,0.0,Clear,clear sky,15
Ferihegy,47.437222,19.223889,2026-03-07 15:44:38.904864,13.66,11.89,13.66,13.66,1026,31,1.95,91,0,0.0,Clear,clear sky,15
Máriapócs,47.852778,22.019167,2026-03-07 15:44:40.113402,11.73,10.06,11.73,11.73,1027,42,1.89,38,0,0.0,Clear,clear sky,15
Máriaudvar,47.751944,19.165,2026-03-07 15:44:41.312371,12.76,11.32,12.76,12.76,1026,47,1.96,105,0,0.0,Clear,clear sky,15
Nagyberki,46.353333,18.004167,2026-03-07 15:44:42.517765,13.56,12.04,13.56,13.56,1025,41,2.2,100,0,0.0,Clear,clear sky,15
Badacsonytomaj,46.804722,17.518056,2026-03-07 15:44:43.717498,14.03,12.74,14.03,14.03,1025,48,3.08,98,0,0.0,Clear,clear sky,15
Badacsony,46.788611,17.506389,2026-03-07 15:44:44.915639,14.15,12.87,14.15,14.15,1025,48,3.08,96,0,0.0,Clear,clear sky,15
Badacsonylábdihegy,46.793889,17.470833,2026-03-07 15:44:46.116009,14.15,12.87,14.15,14.15,1025,48,3.08,96,0,0.0,Clear,clear sky,15
Badacsonytördemic-Szigliget,46.809722,17.469167,2026-03-07 15:44:47.316242,14.09,12.81,14.09,14.09,1025,48,3.06,97,0,0.0,Clear,clear sky,15
Nemesgulács-Kisapáti,46.836944,17.476389,2026-03-07 15:44:48.520628,14.07,12.81,14.07,14.07,1025,49,3.03,97,0,0.0,Clear,clear sky,15
Tapolca,46.877778,17.428611,2026-03-07 15:44:49.719402,14.03,12.77,14.03,14.03,1025,49,2.86,96,0,0.0,Clear,clear sky,15
Uzsabánya alsó,46.898333,17.345278,2026-03-07 15:44:50.927701,12.98,11.61,12.98,12.98,1025,49,2.68,98,0,0.0,Clear,clear sky,15
Uzsa,46.920278,17.331667,2026-03-07 15:44:52.132690,13.78,12.49,13.78,13.78,1025,49,2.67,100,0,0.0,Clear,clear sky,15
Sümegi Bazaltbánya,46.9525,17.2925,2026-03-07 15:44:53.332060,13.85,12.57,13.85,13.85,1025,49,2.61,104,0,0.0,Clear,clear sky,15
Sümeg,46.981111,17.270833,2026-03-07 15:44:54.526657,14.1,12.82,14.1,14.1,1025,48,2.54,108,0,0.0,Clear,clear sky,15
Gógánfa,47.021111,17.207778,2026-03-07 15:44:55.727250,14.18,12.88,14.18,14.18,1025,47,2.61,115,0,0.0,Clear,clear sky,15
Ukk,47.041944,17.195833,2026-03-07 15:44:56.922831,14.28,12.99,14.28,14.28,1025,47,2.64,118,0,0.0,Clear,clear sky,15
Nemeskeresztúr,47.093611,17.183611,2026-03-07 15:44:58.117645,14.24,12.97,14.24,14.24,1025,48,2.72,123,0,0.0,Clear,clear sky,15
Jánosháza,47.115833,17.171667,2026-03-07 15:44:59.319458,14.32,13.06,14.32,14.32,1025,48,2.74,126,0,0.0,Clear,clear sky,15
Keszthely,46.758333,17.248056,2026-03-07 15:45:00.520573,14.17,12.9,14.17,14.17,1025,48,2.01,100,0,0.0,Clear,clear sky,15
Alsógyenes,46.765844,17.276435,2026-03-07 15:45:01.720558,14.2,12.93,14.2,14.2,1025,48,2.34,96,0,0.0,Clear,clear sky,15
Gyenesdiás,46.763333,17.292778,2026-03-07 15:45:02.947736,14.2,12.93,14.2,14.2,1025,48,2.34,96,0,0.0,Clear,clear sky,15
Vonyarcvashegy,46.755278,17.318333,2026-03-07 15:45:04.144481,13.63,12.3,13.63,13.63,1025,48,2.51,95,0,0.0,Clear,clear sky,15
Balatongyörök,46.751944,17.354444,2026-03-07 15:45:05.345111,14.2,12.93,14.2,14.2,1025,48,2.66,95,0,0.0,Clear,clear sky,15
Becehegy,46.776111,17.372778,2026-03-07 15:45:06.563384,13.01,11.62,13.01,13.01,1025,48,2.72,94,0,0.0,Clear,clear sky,15
Balatonederics,46.8025,17.385,2026-03-07 15:45:07.759630,12.91,11.54,12.91,12.91,1025,49,2.77,94,0,0.0,Clear,clear sky,15
Dabronc,47.025766,17.167006,2026-03-07 15:45:08.958381,14.25,12.96,14.25,14.25,1025,47,2.59,116,0,0.0,Clear,clear sky,15
Türje,46.994444,17.093611,2026-03-07 15:45:10.155204,14.27,12.98,14.27,14.27,1025,47,2.43,118,0,0.0,Clear,clear sky,15
Zalabér-Batyk,46.983056,17.040833,2026-03-07 15:45:11.364417,14.41,13.11,14.41,14.41,1025,46,2.15,127,0,0.0,Clear,clear sky,15
Pakod,46.959167,16.996667,2026-03-07 15:45:12.558398,14.31,13.02,14.31,14.31,1025,47,2.11,130,0,0.0,Clear,clear sky,15
Pókaszepetk,46.924444,16.972222,2026-03-07 15:45:13.765493,14.37,13.09,14.37,14.37,1025,47,1.88,132,0,0.0,Clear,clear sky,15
Kemendollár,46.905833,16.946667,2026-03-07 15:45:14.974437,14.07,12.76,14.07,14.07,1025,47,1.85,136,0,0.0,Clear,clear sky,15
Zalaegerszeg,46.833056,16.848333,2026-03-07 15:45:16.175869,13.92,12.65,13.92,13.92,1025,49,1.53,154,0,0.0,Clear,clear sky,15
Bocfölde,46.780278,16.853611,2026-03-07 15:45:17.381100,13.98,12.71,13.98,13.98,1025,49,1.42,155,0,0.0,Clear,clear sky,15
Sárhida,46.755833,16.851389,2026-03-07 15:45:18.589277,13.11,11.76,13.11,13.11,1025,49,1.37,156,0,0.0,Clear,clear sky,15
Bak,46.7325,16.849167,2026-03-07 15:45:19.798937,13.5,12.18,13.5,13.5,1025,49,1.34,156,0,0.0,Clear,clear sky,15
Tófej,46.670833,16.801944,2026-03-07 15:45:20.996999,13.27,11.93,13.27,13.27,1025,49,1.28,151,0,0.0,Clear,clear sky,15
Gutorfölde,46.646944,16.739722,2026-03-07 15:45:22.211164,13.51,12.22,13.51,13.51,1025,50,1.29,139,0,0.0,Clear,clear sky,15
Csömödér-Páka,46.608056,16.641111,2026-03-07 15:45:23.407191,13.77,12.51,13.77,13.77,1025,50,1.56,121,0,0.0,Clear,clear sky,15
Iklódbördőce,46.603056,16.604722,2026-03-07 15:45:24.617278,13.65,12.4,13.65,13.65,1025,51,1.78,118,0,0.0,Clear,clear sky,15
Lenti,46.621389,16.528611,2026-03-07 15:45:25.821604,13.89,12.67,13.89,13.89,1025,51,1.99,118,0,0.0,Clear,clear sky,15
Rédics,46.618056,16.471111,2026-03-07 15:45:27.023886,13.91,12.69,13.91,13.91,1025,51,2.1,117,0,0.0,Clear,clear sky,15
Zalalövő,46.845556,16.576389,2026-03-07 15:45:28.221118,13.87,12.67,13.87,13.87,1025,52,1.81,141,0,0.0,Clear,clear sky,15
Zalaegerszeg-Ola,46.849167,16.844722,2026-03-07 15:45:29.418215,13.92,12.65,13.92,13.92,1025,49,1.53,154,0,0.0,Clear,clear sky,15
Andráshida,46.863116,16.7792,2026-03-07 15:45:30.633631,13.89,12.64,13.89,13.89,1025,50,1.61,154,0,0.0,Clear,clear sky,15
Bagod,46.875,16.746111,2026-03-07 15:45:31.832120,13.96,12.74,13.96,13.96,1025,51,1.63,154,0,0.0,Clear,clear sky,15
Zalaszentgyörgy,46.872222,16.7125,2026-03-07 15:45:33.039932,13.92,12.7,13.92,13.92,1025,51,1.65,153,0,0.0,Clear,clear sky,15
Zalacséb-Salomvár,46.858056,16.662222,2026-03-07 15:45:34.241006,13.7,12.46,13.7,13.7,1025,51,1.68,152,0,0.0,Clear,clear sky,15
Kópháza,47.631389,16.6375,2026-03-07 15:45:35.443045,14.78,13.59,14.78,14.78,1025,49,3.69,154,0,0.0,Clear,clear sky,15
Nagycenk,47.601111,16.690278,2026-03-07 15:45:36.637874,14.9,13.73,14.9,14.9,1025,49,3.55,154,0,0.0,Clear,clear sky,15
Sopronkövesd,47.548333,16.748056,2026-03-07 15:45:37.839784,14.63,13.43,14.63,14.63,1025,49,3.26,154,0,0.0,Clear,clear sky,15
Lövő,47.509444,16.7775,2026-03-07 15:45:39.054188,14.54,13.33,14.54,14.54,1025,49,3.09,154,0,0.0,Clear,clear sky,15
Újkér,47.457778,16.786667,2026-03-07 15:45:40.268923,14.57,13.36,14.57,14.57,1025,49,2.94,154,0,0.0,Clear,clear sky,15
Bük,47.388611,16.752222,2026-03-07 15:45:41.464002,14.59,13.36,14.59,14.59,1025,48,2.78,157,0,0.0,Clear,clear sky,15
Acsád,47.308333,16.734722,2026-03-07 15:45:42.665522,14.25,12.98,14.25,14.25,1025,48,2.63,159,0,0.0,Clear,clear sky,15
Salköveskút-Vassurány,47.291389,16.704167,2026-03-07 15:45:43.866805,14.27,13.03,14.27,14.27,1025,49,2.59,159,0,0.0,Clear,clear sky,15
Zalaszentiván,46.8875,16.909444,2026-03-07 15:45:45.070724,14.16,12.88,14.16,14.16,1025,48,1.7,146,0,0.0,Clear,clear sky,15
Alsónemesapáti,46.854167,16.936389,2026-03-07 15:45:46.283303,14.28,12.99,14.28,14.28,1025,47,1.64,139,0,0.0,Clear,clear sky,15
Józsa,47.600833,21.584444,2026-03-07 15:45:47.488480,11.69,10.01,11.69,11.69,1026,42,1.24,58,0,0.0,Clear,clear sky,15
Hajdúszentgyörgy,47.608056,21.578333,2026-03-07 15:45:48.692269,11.69,10.01,11.69,11.69,1026,42,1.24,58,0,0.0,Clear,clear sky,15
Zelemér,47.627778,21.578333,2026-03-07 15:45:49.890891,11.6,9.91,11.6,11.6,1026,42,1.34,52,0,0.0,Clear,clear sky,15
Hajdúböszörmény,47.668056,21.524167,2026-03-07 15:45:51.086103,11.53,9.84,11.53,11.53,1026,42,1.65,38,0,0.0,Clear,clear sky,15
Hajdúvid,47.749444,21.508056,2026-03-07 15:45:52.282708,11.41,9.7,11.41,11.41,1027,42,2.15,31,0,0.0,Clear,clear sky,15
Hajdúdorog,47.805556,21.493056,2026-03-07 15:45:53.487646,11.25,9.55,11.25,11.25,1027,43,2.43,29,0,0.0,Clear,clear sky,15
Hajdúnánás,47.831944,21.426667,2026-03-07 15:45:54.685908,11.17,9.47,11.17,11.17,1027,43,2.56,29,0,0.0,Clear,clear sky,15
Hajdúnánás-Vásártér,47.843056,21.407222,2026-03-07 15:45:55.888156,11.17,9.47,11.17,11.17,1027,43,2.56,29,0,0.0,Clear,clear sky,15
Tedej,47.903611,21.404444,2026-03-07 15:45:57.095196,10.98,9.28,10.98,10.98,1027,44,2.67,33,0,0.0,Clear,clear sky,15
Tiszavasvári,47.945278,21.374722,2026-03-07 15:45:58.299897,10.86,9.15,10.86,10.86,1027,44,2.61,37,0,0.0,Clear,clear sky,15
Egyházerdő,47.9725,21.365,2026-03-07 15:45:59.498927,10.83,9.14,10.83,10.83,1027,45,2.54,40,0,0.0,Clear,clear sky,15
Tiszalök,48.013056,21.369167,2026-03-07 15:46:00.693157,10.72,9.02,10.72,10.72,1027,45,2.28,48,0,0.0,Clear,clear sky,15
Hajnalos,47.998889,21.414167,2026-03-07 15:46:01.892714,10.83,9.14,10.83,10.83,1027,45,2.46,41,0,0.0,Clear,clear sky,15
Kisfástanya,47.989167,21.47,2026-03-07 15:46:03.098202,10.84,9.15,10.84,10.84,1027,45,2.49,39,0,0.0,Clear,clear sky,15
Tiszaeszlár,48.010556,21.491944,2026-03-07 15:46:04.293493,10.87,9.21,10.87,10.87,1027,46,2.39,40,0,0.0,Clear,clear sky,15
Bashalom,48.026111,21.514722,2026-03-07 15:46:05.491809,10.85,9.19,10.85,10.85,1027,46,2.25,44,0,0.0,Clear,clear sky,15
Sáránd,47.415556,21.625,2026-03-07 15:46:06.692733,12.16,10.53,12.16,12.16,1026,42,1.18,97,1,0.0,Clear,clear sky,15
Derecske,47.365,21.584167,2026-03-07 15:46:07.891747,12.17,10.54,12.17,12.17,1026,42,1.28,98,1,0.0,Clear,clear sky,15
Derecske-Vásártér,47.352222,21.58,2026-03-07 15:46:09.095695,12.17,10.54,12.17,12.17,1026,42,1.28,98,1,0.0,Clear,clear sky,15
Konyár,47.323611,21.666111,2026-03-07 15:46:10.296509,12.17,10.57,12.17,12.17,1026,43,1.16,97,1,0.0,Clear,clear sky,15
Konyári Sóstófürdő,47.324167,21.744444,2026-03-07 15:46:11.500808,12.14,10.56,12.14,12.14,1026,44,0.84,96,1,0.0,Clear,clear sky,15
Pocsaj-Esztár,47.288333,21.793056,2026-03-07 15:46:12.701778,12.15,10.57,12.15,12.15,1026,44,0.56,87,1,0.0,Clear,clear sky,15
Kismarja,47.243889,21.813889,2026-03-07 15:46:13.898651,12.14,10.58,12.14,12.14,1026,45,0.5,70,1,0.0,Clear,clear sky,15
Nagykereki,47.191667,21.8,2026-03-07 15:46:15.096244,12.11,10.58,12.11,12.11,1026,46,0.56,46,1,0.0,Clear,clear sky,15
Debrecen-Szabadságtelep,47.527778,21.658611,2026-03-07 15:46:16.298702,11.95,10.3,11.95,11.95,1026,42,1.12,80,0,0.0,Clear,clear sky,15
Kondoroskert,47.525556,21.713889,2026-03-07 15:46:17.500318,11.95,10.32,11.95,11.95,1026,43,1.17,77,0,0.0,Clear,clear sky,15
Nagycsere,47.523889,21.763056,2026-03-07 15:46:18.695330,11.96,10.33,11.96,11.96,1026,43,1.19,75,0,0.0,Clear,clear sky,15
Haláp,47.521667,21.818333,2026-03-07 15:46:19.892642,11.93,10.3,11.93,11.93,1026,43,1.22,73,0,0.0,Clear,clear sky,15
Vámospércs,47.518056,21.893889,2026-03-07 15:46:21.108189,11.91,10.25,11.91,11.91,1026,42,1.32,66,0,0.0,Clear,clear sky,15
Szentannapuszta,47.52,21.965833,2026-03-07 15:46:22.302089,11.96,10.31,11.96,11.96,1027,42,1.38,60,0,0.0,Clear,clear sky,15
Nyírábrány,47.523889,22.016944,2026-03-07 15:46:23.502235,11.97,10.32,11.97,11.97,1027,42,1.43,57,0,0.0,Clear,clear sky,15
Dombostanya,47.602778,21.706389,2026-03-07 15:46:24.706546,11.78,10.11,11.78,11.78,1027,42,1.29,62,0,0.0,Clear,clear sky,15
Hajdúsámson,47.608056,21.755278,2026-03-07 15:46:25.901390,11.79,10.12,11.79,11.79,1027,42,1.39,63,0,0.0,Clear,clear sky,15
Tamásipuszta,47.632778,21.796111,2026-03-07 15:46:27.106355,11.71,10.03,11.71,11.71,1027,42,1.49,60,0,0.0,Clear,clear sky,15
Aradványpuszta,47.662778,21.8425,2026-03-07 15:46:28.309821,11.69,10.04,11.69,11.69,1027,43,1.58,57,0,0.0,Clear,clear sky,15
Nyíradony,47.699444,21.903333,2026-03-07 15:46:29.508357,11.6,9.94,11.6,11.6,1027,43,1.75,51,0,0.0,Clear,clear sky,15
Nyírmihálydi,47.7375,21.958889,2026-03-07 15:46:30.702840,11.59,9.93,11.59,11.59,1027,43,1.79,49,0,0.0,Clear,clear sky,15
Nyírgelse,47.750833,21.987778,2026-03-07 15:46:31.902255,11.57,9.91,11.57,11.57,1027,43,1.81,46,0,0.0,Clear,clear sky,15
Nyírbogát,47.793056,22.066389,2026-03-07 15:46:33.111238,11.67,10.02,11.67,11.67,1027,43,1.81,41,0,0.0,Clear,clear sky,15
Nagykálló,47.871111,21.825833,2026-03-07 15:46:34.309063,11.56,9.89,11.56,11.56,1027,43,2.28,29,0,0.0,Clear,clear sky,15
Kállósemjén,47.854722,21.935,2026-03-07 15:46:35.509752,11.69,10.01,11.69,11.69,1027,42,2.03,35,0,0.0,Clear,clear sky,15
Nyírbátor,47.8425,22.131111,2026-03-07 15:46:36.707046,11.64,9.98,11.64,11.64,1027,43,1.8,39,0,0.0,Clear,clear sky,15
Nyírcsászári,47.865556,22.179167,2026-03-07 15:46:37.906850,11.65,10.02,11.65,11.65,1027,44,1.75,38,0,0.0,Clear,clear sky,15
Hodász,47.896111,22.213611,2026-03-07 15:46:39.105129,11.53,9.91,11.53,11.53,1027,45,1.71,36,0,0.0,Clear,clear sky,15
Nyírmeggyes,47.9225,22.256667,2026-03-07 15:46:40.309457,11.48,9.91,11.48,11.48,1027,47,1.66,35,0,0.0,Clear,clear sky,15
Mátészalka,47.951389,22.313333,2026-03-07 15:46:41.505335,11.48,9.91,11.48,11.48,1027,47,1.63,33,0,0.0,Clear,clear sky,15
Kocsord,47.941944,22.375833,2026-03-07 15:46:42.714747,11.67,10.12,11.67,11.67,1027,47,1.63,27,0,0.0,Clear,clear sky,15
Kocsord alsó,47.946389,22.400556,2026-03-07 15:46:43.926405,11.67,10.12,11.67,11.67,1027,47,1.63,27,0,0.0,Clear,clear sky,15
Győrtelek,47.936667,22.424722,2026-03-07 15:46:45.142289,11.72,10.17,11.72,11.72,1027,47,1.62,24,0,0.0,Clear,clear sky,15
Győrtelek alsó,47.921111,22.443333,2026-03-07 15:46:46.339579,11.81,10.27,11.81,11.81,1027,47,1.65,22,0,0.0,Clear,clear sky,15
Ököritófülpös,47.911389,22.495,2026-03-07 15:46:47.541889,11.84,10.28,11.84,11.84,1027,46,1.66,19,0,0.0,Clear,clear sky,15
Porcsalma-Tyukod,47.868056,22.568333,2026-03-07 15:46:48.744911,12.02,10.45,12.02,12.02,1027,45,1.7,13,0,0.0,Clear,clear sky,15
Csenger,47.826111,22.666389,2026-03-07 15:46:49.945697,12.09,10.5,12.09,12.09,1027,44,1.73,9,0,0.0,Clear,clear sky,15
Kisfái,46.888303,19.807366,2026-03-07 15:46:51.150333,12.8,11.13,12.8,12.8,1026,38,2.4,99,3,0.0,Clear,clear sky,15
Nyárlőrinci szőlők,46.8775,19.828333,2026-03-07 15:46:52.353328,12.83,11.16,12.83,12.83,1026,38,2.38,100,3,0.0,Clear,clear sky,15
Nyárlőrinc alsó,46.863889,19.878889,2026-03-07 15:46:53.547583,12.8,11.13,12.8,12.8,1026,38,2.35,100,3,0.0,Clear,clear sky,15
Tiszaug-Tiszahídfő,46.866106,20.052098,2026-03-07 15:46:54.746568,13.02,11.37,13.02,13.02,1026,38,2.17,101,4,0.0,Clear,clear sky,15
Csongrádi úti tanyák,46.690278,19.921667,2026-03-07 15:46:55.944613,13.09,11.5,13.09,13.09,1026,40,2.01,88,2,0.0,Clear,clear sky,15
Kettőshalom,46.689167,20.0225,2026-03-07 15:46:57.141071,13.18,11.6,13.18,13.18,1026,40,1.88,85,2,0.0,Clear,clear sky,15
Csongrád alsó,46.711389,20.126389,2026-03-07 15:46:58.345002,13.21,11.66,13.21,13.21,1026,41,1.75,85,3,0.0,Clear,clear sky,15
Dónát,46.66988,20.368168,2026-03-07 15:46:59.553411,13.38,11.9,13.38,13.38,1026,43,1.36,69,3,0.0,Clear,clear sky,15
Pusztatemplom,46.676667,20.407222,2026-03-07 15:47:00.751663,13.43,11.95,13.43,13.43,1026,43,1.27,66,3,0.0,Clear,clear sky,15
Előhát,47.364722,20.653611,2026-03-07 15:47:01.950510,12.03,10.31,12.03,12.03,1026,39,2.14,61,4,0.0,Clear,clear sky,15
Polgárdi-Tekerespuszta,47.017778,18.297778,2026-03-07 15:47:03.158528,13.8,12.23,13.8,13.8,1026,38,2.48,99,0,0.0,Clear,clear sky,15
Szatina-Kishajmás,46.202778,18.083611,2026-03-07 15:47:04.356830,13.09,11.53,13.09,13.09,1025,41,1.9,108,0,0.0,Clear,clear sky,15
Márok,45.886944,18.499167,2026-03-07 15:47:05.556183,13.47,12.0,13.47,13.47,1025,43,1.78,79,0,0.0,Clear,clear sky,15
Nagynyárád,45.953333,18.564722,2026-03-07 15:47:06.752455,13.56,12.07,13.56,13.56,1025,42,1.83,79,0,0.0,Clear,clear sky,15
Szászvár,46.2875,18.369722222222222,2026-03-07 15:47:07.950931,13.12,11.53,13.12,13.12,1025,40,2.03,94,0,0.0,Clear,clear sky,15
Cikó,46.263514,18.557605,2026-03-07 15:47:09.152993,13.56,12.02,13.56,13.56,1025,40,2.07,88,0,0.0,Clear,clear sky,15
Gyöngyfa-Magyarmecske,45.983889,17.958889,2026-03-07 15:47:10.362370,13.58,12.12,13.58,13.58,1025,43,1.98,101,0,0.0,Clear,clear sky,15
Nagyhát,47.581389,21.445,2026-03-07 15:47:11.566702,11.82,10.13,11.82,11.82,1026,41,1.17,53,0,0.0,Clear,clear sky,15
Balmazújváros,47.613889,21.348056,2026-03-07 15:47:12.769197,11.73,10.03,11.73,11.73,1026,41,1.56,32,0,0.0,Clear,clear sky,15
Kónya,47.600833,21.2375,2026-03-07 15:47:13.968550,11.65,9.92,11.65,11.65,1026,40,1.62,31,1,0.0,Clear,clear sky,15
Hortobágy,47.586111,21.154722,2026-03-07 15:47:15.169932,11.51,9.76,11.51,11.51,1026,40,1.82,31,1,0.0,Clear,clear sky,15
Hortobágyi Halastó,47.604167,21.074167,2026-03-07 15:47:16.377873,11.38,9.62,11.38,11.38,1026,40,1.95,32,2,0.0,Clear,clear sky,15
Ohat-Pusztakócs,47.623333,20.951111,2026-03-07 15:47:17.573654,11.12,9.36,11.12,11.12,1026,41,2.14,37,1,0.0,Clear,clear sky,15
Egyek,47.616944,20.883611,2026-03-07 15:47:18.773205,11.09,9.33,11.09,11.09,1026,41,2.2,42,1,0.0,Clear,clear sky,15
Tiszafüred,47.627778,20.756111,2026-03-07 15:47:19.984715,11.06,9.29,11.06,11.06,1026,41,2.22,48,1,0.0,Clear,clear sky,15
Poroszló,47.657778,20.654444,2026-03-07 15:47:21.183038,11.07,9.3,11.07,11.07,1026,41,2.23,63,1,0.0,Clear,clear sky,15
Kétútköz,47.694167,20.565,2026-03-07 15:47:22.386245,10.88,9.09,10.88,10.88,1026,41,2.16,76,1,0.0,Clear,clear sky,15
Egerfarmos,47.711667,20.5225,2026-03-07 15:47:23.582537,10.92,9.14,10.92,10.92,1026,41,2.14,80,1,0.0,Clear,clear sky,15
Piliscsaba,47.638056,18.829722,2026-03-07 15:47:24.774509,12.11,10.53,12.11,12.11,1026,44,1.49,118,0,0.0,Clear,clear sky,15
Pilisjászfalu,47.656111,18.797778,2026-03-07 15:47:25.970380,12.83,11.34,12.83,12.83,1026,45,1.47,121,0,0.0,Clear,clear sky,15
Leányvár,47.687594,18.772553,2026-03-07 15:47:27.185675,12.81,11.35,12.81,12.81,1026,46,1.34,120,0,0.0,Clear,clear sky,15
Dorog,47.723333,18.732778,2026-03-07 15:47:28.384311,13.2,11.83,13.2,13.2,1026,48,1.17,121,0,0.0,Clear,clear sky,15
Esztergom-Kertváros,47.743333,18.719167,2026-03-07 15:47:29.593419,13.32,11.96,13.32,13.32,1026,48,1.14,120,0,0.0,Clear,clear sky,15
Esztergom,47.7775,18.743611,2026-03-07 15:47:30.793998,12.99,11.62,12.99,12.99,1026,49,1.18,114,0,0.0,Clear,clear sky,15
Dunaalmás,47.733056,18.326389,2026-03-07 15:47:31.993845,13.91,12.58,13.91,13.91,1026,47,2.24,130,0,0.0,Clear,clear sky,15
Neszmély,47.734444,18.345278,2026-03-07 15:47:33.193016,13.91,12.58,13.91,13.91,1026,47,2.24,130,0,0.0,Clear,clear sky,15
Süttő,47.761111,18.455,2026-03-07 15:47:34.391510,13.67,12.37,13.67,13.67,1026,49,1.71,132,0,0.0,Clear,clear sky,15
Piszke,47.75307,18.478017,2026-03-07 15:47:35.595775,13.65,12.35,13.65,13.65,1026,49,1.59,132,0,0.0,Clear,clear sky,15
Lábatlan,47.751944,18.513333,2026-03-07 15:47:36.791310,13.57,12.26,13.57,13.57,1026,49,1.49,132,0,0.0,Clear,clear sky,15
Eternitgyár,47.755544,18.530014,2026-03-07 15:47:37.987904,13.57,12.26,13.57,13.57,1026,49,1.49,132,0,0.0,Clear,clear sky,15
Nyergesújfalu felső,47.762222,18.540556,2026-03-07 15:47:39.186341,13.57,12.26,13.57,13.57,1026,49,1.49,132,0,0.0,Clear,clear sky,15
Nyergesújfalu,47.761111,18.561667,2026-03-07 15:47:40.393849,13.47,12.15,13.47,13.47,1026,49,1.39,131,0,0.0,Clear,clear sky,15
Tokod,47.735,18.675,2026-03-07 15:47:41.598226,13.27,11.91,13.27,13.27,1026,48,1.18,123,0,0.0,Clear,clear sky,15
Környe,47.541667,18.330278,2026-03-07 15:47:42.802582,13.45,12.03,13.45,13.45,1026,45,2.44,125,0,0.0,Clear,clear sky,15
Kecskéd alsó,47.519722,18.316667,2026-03-07 15:47:43.996099,13.49,12.04,13.49,13.49,1026,44,2.49,124,0,0.0,Clear,clear sky,15
Oroszlány,47.486944,18.308611,2026-03-07 15:47:45.192295,13.38,11.92,13.38,13.38,1026,44,2.46,122,0,0.0,Clear,clear sky,15
Győrszabadhegy,47.663056,17.648056,2026-03-07 15:47:46.388039,14.68,13.48,14.68,14.68,1025,49,2.99,122,0,0.0,Clear,clear sky,15
Ménfőcsanak felső,47.638333,17.615,2026-03-07 15:47:47.587251,14.76,13.54,14.76,14.76,1025,48,2.95,123,0,0.0,Clear,clear sky,15
Gyömöre-Tét,47.501672,17.559596,2026-03-07 15:47:48.792752,14.54,13.28,14.54,14.54,1025,47,2.57,137,0,0.0,Clear,clear sky,15
Szerecseny,47.469167,17.5475,2026-03-07 15:47:49.988225,14.55,13.29,14.55,14.55,1025,47,2.54,139,0,0.0,Clear,clear sky,15
Gecse-Gyarmat,47.456111,17.515,2026-03-07 15:47:51.190737,14.48,13.21,14.48,14.48,1025,47,2.54,142,0,0.0,Clear,clear sky,15
Vaszar,47.4025,17.496389,2026-03-07 15:47:52.389811,14.52,13.25,14.52,14.52,1025,47,2.55,149,0,0.0,Clear,clear sky,15
Pápa,47.340556,17.458889,2026-03-07 15:47:53.600643,14.45,13.2,14.45,14.45,1025,48,2.59,151,0,0.0,Clear,clear sky,15
Mezőlak,47.324722,17.371389,2026-03-07 15:47:54.801259,14.53,13.29,14.53,14.53,1025,48,2.7,153,0,0.0,Clear,clear sky,15
Mihályháza,47.318889,17.331667,2026-03-07 15:47:56.000807,14.49,13.25,14.49,14.49,1025,48,2.72,151,0,0.0,Clear,clear sky,15
Vinár,47.306667,17.284722,2026-03-07 15:47:57.207093,14.55,13.31,14.55,14.55,1025,48,2.74,150,0,0.0,Clear,clear sky,15
Külsővat,47.279167,17.219722,2026-03-07 15:47:58.408444,14.53,13.32,14.53,14.53,1025,49,2.77,145,0,0.0,Clear,clear sky,15
Celldömölk,47.261389,17.151944,2026-03-07 15:47:59.604400,14.54,13.33,14.54,14.54,1025,49,2.78,140,0,0.0,Clear,clear sky,15
