station_name,station_lat,station_lon,observation_time,temp,feels_like,temp_min,temp_max,pressure,humidity,wind_speed,wind_deg,clouds,precipitation_1h,weather_main,weather_description,collection_hour
Búcsúszentlászló,46.793056,16.932778,2026-03-05 13:14:39.198295,14.84,13.79,14.84,14.84,1025,54,2.04,355,0,0.0,Clear,clear sky,13
Angyalföld,47.549722,19.09,2026-03-05 13:14:40.400158,16.56,15.11,14.82,17.17,1024,32,2.57,0,0,0.0,Clear,clear sky,13
Felsőjánosfa,46.841389,16.544167,2026-03-05 13:14:41.596907,14.47,13.28,14.47,14.47,1025,50,0.22,126,0,0.0,Clear,clear sky,13
Pankasz,46.835833,16.496111,2026-03-05 13:14:42.802913,14.16,12.94,14.16,14.16,1025,50,0.55,159,0,0.0,Clear,clear sky,13
Nagyrákos,46.827222,16.455556,2026-03-05 13:14:43.999319,14.12,12.89,14.12,14.12,1025,50,0.73,163,0,0.0,Clear,clear sky,13
Őriszentpéter,46.828889,16.415278,2026-03-05 13:14:45.194695,14.22,13.0,14.22,14.22,1025,50,1.09,168,0,0.0,Clear,clear sky,13
Törökbálint,47.45,18.908611,2026-03-05 13:14:46.397971,15.73,14.22,14.6,16.94,1024,33,0.45,73,0,0.0,Clear,clear sky,13
Bicske alsó,47.486389,18.642778,2026-03-05 13:14:47.601308,14.49,13.07,14.49,15.23,1025,41,2.3,309,0,0.0,Clear,clear sky,13
Bajánsenye,46.818056,16.358056,2026-03-05 13:14:48.795767,14.32,13.09,14.32,14.32,1025,49,1.27,171,0,0.0,Clear,clear sky,13
Aquincum,47.566218,19.048273,2026-03-05 13:14:50.000820,16.34,14.87,14.85,17.19,1024,32,2.24,289,1,0.0,Clear,clear sky,13
Piliscsév,47.673889,18.791389,2026-03-05 13:14:51.196048,15.71,14.54,15.18,16.78,1025,46,1.19,278,3,0.0,Clear,clear sky,13
Tát,47.741201,18.64783,2026-03-05 13:14:52.391903,14.29,12.92,14.29,14.29,1025,44,1.39,285,5,0.0,Clear,clear sky,13
Süttő felső,47.756667,18.437222,2026-03-05 13:14:53.599726,14.06,12.54,14.06,14.06,1025,39,1.85,306,5,0.0,Clear,clear sky,13
Budatétény,47.405,19.016389,2026-03-05 13:14:54.801129,16.51,15.1,14.34,17.23,1025,34,2.57,0,0,0.0,Clear,clear sky,13
Seregélyes-Szőlőhegy,47.119444,18.612222,2026-03-05 13:14:55.998252,14.63,13.25,14.63,14.63,1025,42,2.8,323,0,0.0,Clear,clear sky,13
Gödöllő-Állami telepek,47.564444,19.375556,2026-03-05 13:14:57.200477,14.82,13.51,14.73,16.15,1025,44,2.57,0,0,0.0,Clear,clear sky,13
Dunakeszi alsó,47.607778,19.128889,2026-03-05 13:14:58.398217,16.53,15.07,14.27,17.16,1025,32,2.24,289,3,0.0,Clear,clear sky,13
Vác-Alsóváros,47.773056,19.149722,2026-03-05 13:14:59.597857,16.62,15.62,14.25,16.62,1025,49,1.06,182,7,0.0,Clear,clear sky,13
Szob alsó,47.816667,18.8725,2026-03-05 13:15:00.805258,14.28,13.04,14.28,14.28,1025,49,0.91,259,5,0.0,Clear,clear sky,13
Zalaszentmihály-Pacsa,46.7225,16.951944,2026-03-05 13:15:02.020463,14.75,13.72,14.75,14.75,1025,55,2.06,360,0,0.0,Clear,clear sky,13
Pötréte,46.682778,16.9575,2026-03-05 13:15:03.217491,14.75,13.72,14.75,14.75,1025,55,2.06,360,0,0.0,Clear,clear sky,13
Felsőrajk,46.667222,16.982778,2026-03-05 13:15:04.442205,14.81,13.78,14.81,14.81,1025,55,2.06,360,0,0.0,Clear,clear sky,13
Gelse,46.600556,16.982778,2026-03-05 13:15:05.640773,14.81,13.78,14.81,14.81,1025,55,2.06,360,0,0.0,Clear,clear sky,13
Őrtilos,46.297778,16.887778,2026-03-05 13:15:06.844729,14.93,13.81,14.93,14.93,1025,51,1.99,348,0,0.0,Clear,clear sky,13
Zákány,46.251944,16.9425,2026-03-05 13:15:08.058087,14.72,13.58,14.72,14.72,1025,51,2.25,347,0,0.0,Clear,clear sky,13
Berzence,46.201389,17.143611,2026-03-05 13:15:09.263613,15.13,14.0,15.13,15.13,1025,50,2.56,341,0,0.0,Clear,clear sky,13
Somogyudvarhely,46.163333,17.179722,2026-03-05 13:15:10.457348,15.13,14.0,15.13,15.13,1025,50,2.57,340,0,0.0,Clear,clear sky,13
Bélavár,46.122778,17.207778,2026-03-05 13:15:11.667024,15.26,14.15,15.26,15.26,1025,50,2.53,340,0,0.0,Clear,clear sky,13
Vízvár,46.101389,17.239444,2026-03-05 13:15:12.869443,15.2,14.08,15.2,15.2,1025,50,2.5,340,0,0.0,Clear,clear sky,13
Babócsa,46.028359,17.342276,2026-03-05 13:15:14.067307,15.33,14.2,15.33,15.33,1025,49,2.4,337,0,0.0,Clear,clear sky,13
Péterhida-Komlósd,46.006667,17.358056,2026-03-05 13:15:15.274015,15.44,14.32,15.44,15.44,1025,49,2.36,337,0,0.0,Clear,clear sky,13
Barcs,45.951944,17.446944,2026-03-05 13:15:16.487324,15.52,14.41,15.52,15.52,1025,49,2.31,335,0,0.0,Clear,clear sky,13
Barcs felső,45.958333,17.486389,2026-03-05 13:15:17.684168,15.42,14.3,15.42,15.42,1025,49,2.34,334,0,0.0,Clear,clear sky,13
Középrigóc,45.970556,17.525,2026-03-05 13:15:18.889229,15.33,14.2,15.33,15.33,1025,49,2.37,333,0,0.0,Clear,clear sky,13
Darány,45.992222,17.598611,2026-03-05 13:15:20.089863,15.28,14.2,15.28,15.28,1025,51,2.45,332,0,0.0,Clear,clear sky,13
Kisdobsza,46.012222,17.668056,2026-03-05 13:15:21.288853,15.1,14.02,15.1,15.1,1025,52,2.47,331,0,0.0,Clear,clear sky,13
Nemeske,46.023333,17.705278,2026-03-05 13:15:22.497124,15.1,14.02,15.1,15.1,1025,52,2.48,331,0,0.0,Clear,clear sky,13
Molvány,46.035278,17.748611,2026-03-05 13:15:23.700149,15.02,13.96,15.02,15.02,1025,53,2.47,329,0,0.0,Clear,clear sky,13
Szigetvár,46.043333,17.801944,2026-03-05 13:15:24.901519,14.97,13.91,14.97,14.97,1025,53,2.47,328,0,0.0,Clear,clear sky,13
Nagypeterd,46.039444,17.871667,2026-03-05 13:15:26.108143,15.53,14.55,15.53,15.53,1025,54,2.48,325,0,0.0,Clear,clear sky,13
Szentdénes,46.036667,17.926944,2026-03-05 13:15:27.308192,15.48,14.49,15.48,15.48,1025,54,2.49,323,0,0.0,Clear,clear sky,13
Háros,47.412222,19.035,2026-03-05 13:15:28.504532,16.48,15.1,14.3,17.19,1025,35,2.57,0,0,0.0,Clear,clear sky,13
Nagytétény-Diósd,47.398333,18.974444,2026-03-05 13:15:29.707183,16.41,14.99,14.33,17.23,1025,34,1.4,328,0,0.0,Clear,clear sky,13
Érdliget,47.390278,18.937778,2026-03-05 13:15:30.909955,16.17,14.73,14.25,17.14,1025,34,1.45,325,0,0.0,Clear,clear sky,13
Érd felső,47.381111,18.922222,2026-03-05 13:15:32.103725,16.09,14.64,14.21,17.11,1025,34,1.54,321,0,0.0,Clear,clear sky,13
Érd,47.369722,18.900833,2026-03-05 13:15:33.298208,15.99,14.53,14.18,17.07,1025,34,1.67,324,0,0.0,Clear,clear sky,13
Százhalombatta,47.322222,18.899167,2026-03-05 13:15:34.491929,16.14,15.01,14.16,17.06,1025,46,1.93,327,0,0.0,Clear,clear sky,13
Dunai Finomító,47.294444,18.878889,2026-03-05 13:15:35.695727,15.29,14.08,15.29,16.9,1025,46,2.14,322,0,0.0,Clear,clear sky,13
Ercsi,47.247222,18.875278,2026-03-05 13:15:36.901028,15.52,14.33,15.52,17.12,1025,46,2.19,324,0,0.0,Clear,clear sky,13
Iváncsa,47.177778,18.811944,2026-03-05 13:15:38.102818,14.23,12.91,14.23,14.23,1025,46,2.37,322,0,0.0,Clear,clear sky,13
Pusztaszabolcs,47.139722,18.761667,2026-03-05 13:15:39.296737,14.35,13.04,14.35,14.35,1025,46,2.41,322,0,0.0,Clear,clear sky,13
Szabadegyháza,47.082778,18.704167,2026-03-05 13:15:40.494576,14.36,13.05,14.36,14.36,1025,46,2.51,323,0,0.0,Clear,clear sky,13
Sárosd,47.039722,18.660278,2026-03-05 13:15:41.691930,14.43,13.13,14.43,14.43,1025,46,2.66,325,0,0.0,Clear,clear sky,13
Nagylók,46.979444,18.635833,2026-03-05 13:15:42.887901,14.32,13.06,14.32,14.32,1025,48,2.63,328,0,0.0,Clear,clear sky,13
Sárbogárd,46.896944,18.611944,2026-03-05 13:15:44.091294,14.59,13.36,14.59,14.59,1025,48,2.73,333,0,0.0,Clear,clear sky,13
Rétszilas,46.814167,18.601389,2026-03-05 13:15:45.286238,14.68,13.48,14.68,14.68,1025,49,2.77,334,0,0.0,Clear,clear sky,13
Nagyatád,46.228611,17.354167,2026-03-05 13:15:46.492687,15.02,13.88,15.02,15.02,1025,50,2.61,337,0,0.0,Clear,clear sky,13
Budapest-Keleti,47.500278,19.084167,2026-03-05 13:15:47.685525,16.62,15.2,14.25,17.14,1025,33,2.57,0,0,0.0,Clear,clear sky,13
Ferencváros,47.468611,19.088056,2026-03-05 13:15:48.879431,16.56,15.16,14.27,17.16,1025,34,2.57,0,0,0.0,Clear,clear sky,13
Budapest-Nyugati,47.510833,19.0575,2026-03-05 13:15:50.084347,16.5,15.07,14.26,17.16,1025,33,2.57,0,0,0.0,Clear,clear sky,13
Kőbánya felső,47.491944,19.133889,2026-03-05 13:15:51.288745,16.35,14.95,14.19,17.08,1025,35,2.57,0,0,0.0,Clear,clear sky,13
Rákos,47.488889,19.174722,2026-03-05 13:15:52.483804,16.07,14.67,14.15,17.04,1025,36,2.57,0,0,0.0,Clear,clear sky,13
Rákosrendező,47.525556,19.089444,2026-03-05 13:15:53.679110,16.64,15.2,14.29,17.19,1025,32,2.57,0,0,0.0,Clear,clear sky,13
Zugló,47.511389,19.101389,2026-03-05 13:15:54.874189,16.61,15.19,14.25,17.15,1025,33,2.57,0,0,0.0,Clear,clear sky,13
Mezőtárkány,47.725,20.480278,2026-03-05 13:15:56.072854,10.7,9.39,10.7,10.7,1024,60,1.09,173,3,0.0,Clear,clear sky,13
Istvántelek,47.550278,19.106389,2026-03-05 13:15:57.268230,16.63,15.18,14.28,17.17,1025,32,2.57,0,0,0.0,Clear,clear sky,13
Rákospalota-Újpest,47.565833,19.111944,2026-03-05 13:15:58.464457,16.6,15.13,14.82,17.17,1024,31,2.57,0,0,0.0,Clear,clear sky,13
Kőbánya alsó,47.483056,19.127222,2026-03-05 13:15:59.660121,16.37,14.98,14.2,17.1,1025,35,2.57,0,0,0.0,Clear,clear sky,13
Kőbánya-Kispest,47.463889,19.149444,2026-03-05 13:16:00.855598,16.15,14.76,14.2,17.1,1025,36,2.57,0,0,0.0,Clear,clear sky,13
Pestszentlőrinc,47.454722,19.182778,2026-03-05 13:16:02.058634,15.88,14.49,14.14,17.04,1025,37,2.57,0,0,0.0,Clear,clear sky,13
Kispest,47.448135,19.157552,2026-03-05 13:16:03.251791,16.05,14.68,14.21,17.1,1025,37,2.57,0,0,0.0,Clear,clear sky,13
Újpest,47.558889,19.079722,2026-03-05 13:16:04.448005,16.48,15.02,14.28,17.17,1025,32,2.57,0,0,0.0,Clear,clear sky,13
Pestszentimre felső,47.413611,19.173333,2026-03-05 13:16:05.653832,15.91,14.52,14.23,17.13,1025,37,2.57,0,0,0.0,Clear,clear sky,13
Dunakeszi,47.626111,19.136111,2026-03-05 13:16:06.845896,16.4,14.93,14.18,17.07,1025,32,2.24,289,4,0.0,Clear,clear sky,13
Dunakeszi-Gyártelep,47.643611,19.135,2026-03-05 13:16:08.053160,16.36,14.89,14.22,17.12,1025,32,0.66,186,5,0.0,Clear,clear sky,13
Alsógöd,47.676944,19.134444,2026-03-05 13:16:09.246898,16.2,14.66,14.21,17.11,1025,30,0.78,183,6,0.0,Clear,clear sky,13
Göd,47.687778,19.1375,2026-03-05 13:16:10.444830,16.2,14.66,14.23,17.13,1025,30,0.78,183,6,0.0,Clear,clear sky,13
Felsőgöd,47.705556,19.143333,2026-03-05 13:16:11.644875,16.66,15.16,15.57,17.17,1025,30,0.87,181,7,0.0,Clear,clear sky,13
Sződ-Sződliget,47.728056,19.154722,2026-03-05 13:16:12.845635,16.65,15.15,15.56,17.17,1025,30,0.95,181,7,0.0,Clear,clear sky,13
Vác,47.782778,19.133056,2026-03-05 13:16:14.045277,16.62,15.77,14.25,16.62,1025,55,1.06,182,7,0.0,Clear,clear sky,13
Verőce,47.823889,19.029444,2026-03-05 13:16:15.248874,16.46,15.57,14.08,16.46,1025,54,0.72,218,4,0.0,Clear,clear sky,13
Kismaros,47.8275,19.010278,2026-03-05 13:16:16.445655,14.21,13.1,14.21,14.21,1025,54,0.71,228,4,0.0,Clear,clear sky,13
Nagymaros-Visegrád,47.791389,18.959167,2026-03-05 13:16:17.644905,14.23,13.12,14.23,16.61,1025,54,0.7,235,4,0.0,Clear,clear sky,13
Nagymaros,47.780278,18.952222,2026-03-05 13:16:18.840656,14.31,13.21,14.31,16.68,1025,54,0.7,235,4,0.0,Clear,clear sky,13
Zebegény,47.801389,18.908889,2026-03-05 13:16:20.045068,14.28,13.17,14.28,16.66,1025,54,0.76,246,4,0.0,Clear,clear sky,13
Szob,47.821111,18.861944,2026-03-05 13:16:21.241200,14.24,13.1,14.24,14.24,1025,53,0.91,259,5,0.0,Clear,clear sky,13
Alagimajor,47.601944,19.153889,2026-03-05 13:16:22.443575,16.61,15.16,14.22,17.12,1025,32,2.57,0,0,0.0,Clear,clear sky,13
Fót,47.611389,19.181667,2026-03-05 13:16:23.640503,16.49,15.03,14.12,17.01,1025,32,0.59,186,4,0.0,Clear,clear sky,13
Fótújfalu,47.615,19.192778,2026-03-05 13:16:24.841139,16.36,14.89,14.01,16.91,1025,32,0.59,186,4,0.0,Clear,clear sky,13
Csomád,47.635556,19.222778,2026-03-05 13:16:26.038323,16.05,14.49,13.74,16.64,1025,30,0.67,180,5,0.0,Clear,clear sky,13
Veresegyház,47.649167,19.288611,2026-03-05 13:16:27.242009,16.06,14.5,14.84,16.79,1025,30,1.11,163,6,0.0,Clear,clear sky,13
Erdőkertes,47.662222,19.295833,2026-03-05 13:16:28.438596,16.03,15.1,14.8,16.74,1025,54,1.11,163,6,0.0,Clear,clear sky,13
Őrbottyán,47.685833,19.283611,2026-03-05 13:16:29.639007,16.14,15.22,14.71,16.66,1025,54,1.24,163,8,0.0,Clear,clear sky,13
Váchartyán,47.725833,19.248889,2026-03-05 13:16:30.834969,16.5,15.64,16.5,16.5,1025,55,1.36,168,10,0.0,Clear,clear sky,13
Magyarkút-Verőce,47.826111,19.044444,2026-03-05 13:16:32.032940,16.62,15.75,16.62,16.62,1025,54,0.72,218,4,0.0,Clear,clear sky,13
Szokolya,47.871111,19.030556,2026-03-05 13:16:33.238358,11.96,10.62,11.96,11.96,1025,54,0.76,222,4,0.0,Clear,clear sky,13
Berkenye,47.885278,19.071944,2026-03-05 13:16:34.446990,12.64,11.37,12.64,12.64,1025,54,0.82,213,3,0.0,Clear,clear sky,13
Nógrád,47.901944,19.0475,2026-03-05 13:16:35.639350,12.27,10.94,12.27,12.27,1025,53,0.78,224,4,0.0,Clear,clear sky,13
Diósjenő,47.94,19.049444,2026-03-05 13:16:36.842791,11.86,10.49,11.86,11.86,1025,53,0.81,225,4,0.0,Clear,clear sky,13
Borsosberény,47.971389,19.093056,2026-03-05 13:16:38.037554,12.45,11.13,12.45,12.45,1025,53,1.17,202,2,0.0,Clear,clear sky,13
Nagyoroszi,47.993611,19.101111,2026-03-05 13:16:39.239910,12.26,10.93,12.26,12.26,1025,53,1.22,202,3,0.0,Clear,clear sky,13
Drégelyvár,48.001944,19.079444,2026-03-05 13:16:40.441003,12.52,11.19,12.52,12.52,1025,52,1.02,212,5,0.0,Clear,clear sky,13
Drégely,48.042222,19.056111,2026-03-05 13:16:41.642353,12.86,11.56,12.86,12.86,1025,52,1.11,209,6,0.0,Clear,clear sky,13
Drégelypalánk,48.055,19.046111,2026-03-05 13:16:42.878186,13.02,11.71,13.02,13.02,1025,51,1.13,210,7,0.0,Clear,clear sky,13
Ipolyvece,48.056944,19.106389,2026-03-05 13:16:44.082651,12.91,11.64,12.91,12.91,1025,53,1.42,197,11,0.0,Clouds,few clouds,13
Dejtár,48.045556,19.196389,2026-03-05 13:16:45.280368,12.78,11.52,12.78,12.78,1025,54,1.63,195,12,0.0,Clouds,few clouds,13
Ipolyszög,48.054444,19.221944,2026-03-05 13:16:46.477808,12.74,11.48,12.74,12.74,1025,54,1.83,193,20,0.0,Clouds,few clouds,13
Iklad-Domony,47.658056,19.444444,2026-03-05 13:16:47.674686,15.1,14.13,15.1,15.1,1025,56,1.67,146,2,0.0,Clear,clear sky,13
Iklad-Domony felső,47.667778,19.428056,2026-03-05 13:16:48.885965,15.09,14.12,15.09,16.51,1025,56,1.66,151,5,0.0,Clear,clear sky,13
Galgamácsa,47.693889,19.3925,2026-03-05 13:16:50.080210,16.5,15.67,16.5,16.5,1025,56,1.56,159,8,0.0,Clear,clear sky,13
Vácrátót,47.732778,19.217778,2026-03-05 13:16:51.296320,16.42,15.53,16.42,16.42,1025,54,1.17,173,9,0.0,Clear,clear sky,13
Csörög,47.735833,19.196389,2026-03-05 13:16:52.493166,16.41,15.52,14.05,16.94,1025,54,1.06,176,8,0.0,Clear,clear sky,13
Galgagyörk,47.735278,19.372222,2026-03-05 13:16:53.701243,16.4,15.56,16.4,16.4,1025,56,1.64,160,10,0.0,Clear,clear sky,13
Püspökhatvan,47.768611,19.366944,2026-03-05 13:16:54.895812,12.71,11.5,12.71,12.71,1025,56,1.75,165,13,0.0,Clouds,few clouds,13
Acsa-Erdőkürt,47.801111,19.386111,2026-03-05 13:16:56.106709,12.51,11.3,12.51,12.51,1025,57,1.79,169,14,0.0,Clouds,few clouds,13
Galgaguta,47.848611,19.385556,2026-03-05 13:16:57.301797,12.14,10.9,12.14,12.14,1025,57,1.9,176,18,0.0,Clouds,few clouds,13
Nógrádkövesd,47.879444,19.371111,2026-03-05 13:16:58.505262,12.27,11.04,12.27,12.27,1025,57,1.95,179,20,0.0,Clouds,few clouds,13
Magyarnándor,47.970833,19.356667,2026-03-05 13:16:59.704337,12.11,10.84,12.11,12.11,1025,56,2.04,189,21,0.0,Clouds,few clouds,13
Mohora,47.995556,19.347778,2026-03-05 13:17:00.902743,12.21,10.95,12.21,12.21,1025,56,2.07,191,24,0.0,Clouds,few clouds,13
Szügy,48.036389,19.333056,2026-03-05 13:17:02.110762,12.4,11.16,12.4,12.4,1025,56,2.12,195,32,0.0,Clouds,scattered clouds,13
Balassagyarmat,48.071111,19.293611,2026-03-05 13:17:03.316507,12.53,11.27,12.53,12.53,1025,55,2.1,194,32,0.0,Clouds,scattered clouds,13
Őrhalom,48.078773,19.403936,2026-03-05 13:17:04.511810,12.13,10.86,12.13,12.13,1025,56,2.18,204,55,0.0,Clouds,broken clouds,13
Hugyag,48.083056,19.421111,2026-03-05 13:17:05.721511,12.13,10.86,12.13,12.13,1025,56,2.18,204,55,0.0,Clouds,broken clouds,13
Szécsény,48.093056,19.521111,2026-03-05 13:17:06.920811,12.19,10.93,12.19,12.19,1025,56,2.08,214,68,0.0,Clouds,broken clouds,13
Ludányhalászi,48.1325,19.529444,2026-03-05 13:17:08.118978,12.17,10.88,12.17,12.17,1025,55,2.12,220,64,0.0,Clouds,broken clouds,13
Nógrádszakál,48.178333,19.521667,2026-03-05 13:17:09.314969,12.14,10.85,12.14,12.14,1025,55,2.12,222,61,0.0,Clouds,broken clouds,13
Ráróspuszta,48.207222,19.541389,2026-03-05 13:17:10.522532,11.61,10.24,11.61,11.61,1025,54,2.09,223,57,0.0,Clouds,broken clouds,13
Litke,48.215833,19.598611,2026-03-05 13:17:11.715888,12.02,10.69,12.02,12.02,1024,54,2.08,236,63,0.0,Clouds,broken clouds,13
Nyíregyháza külső,47.943056,21.740278,2026-03-05 13:17:12.920137,12.3,10.76,12.3,12.3,1025,45,4.98,3,3,0.0,Clear,clear sky,13
Oros,47.945833,21.806389,2026-03-05 13:17:14.125176,12.38,10.8,12.38,12.38,1025,43,5.39,360,2,0.0,Clear,clear sky,13
Napkor,47.948889,21.873056,2026-03-05 13:17:15.327687,12.45,10.82,12.45,12.45,1025,41,5.83,354,1,0.0,Clear,clear sky,13
Apagy,47.953775,21.939044,2026-03-05 13:17:16.550568,12.49,10.87,12.49,12.49,1025,41,5.91,353,1,0.0,Clear,clear sky,13
Levelek-Magy,47.948056,21.993611,2026-03-05 13:17:17.758282,12.53,10.88,12.53,12.53,1025,40,6.0,349,0,0.0,Clear,clear sky,13
Ófehértó,47.940556,22.041389,2026-03-05 13:17:18.957725,12.49,10.81,12.49,12.49,1025,39,6.03,348,1,0.0,Clear,clear sky,13
Ligettanya,47.951667,22.071389,2026-03-05 13:17:20.163153,12.49,10.81,12.49,12.49,1025,39,6.03,346,0,0.0,Clear,clear sky,13
Baktalórántháza,47.988611,22.083333,2026-03-05 13:17:21.359789,12.49,10.81,12.49,12.49,1025,39,6.01,346,0,0.0,Clear,clear sky,13
Vaja-Rohod,48.006389,22.164167,2026-03-05 13:17:22.555687,12.59,10.92,12.59,12.59,1025,39,5.92,344,0,0.0,Clear,clear sky,13
Rákóczitanya,48.022222,22.178333,2026-03-05 13:17:23.757111,12.61,10.92,12.61,12.61,1024,38,5.86,343,0,0.0,Clear,clear sky,13
Nyírmada,48.059167,22.203056,2026-03-05 13:17:24.963108,12.61,10.94,12.61,12.61,1024,39,5.81,342,1,0.0,Clear,clear sky,13
Tunyogmatolcs,47.960244,22.442247,2026-03-05 13:17:26.167022,13.11,11.44,13.11,13.11,1024,37,5.23,335,0,0.0,Clear,clear sky,13
Tunyogmatolcs alsó,47.966025,22.464713,2026-03-05 13:17:27.386461,13.14,11.48,13.14,13.14,1024,37,5.15,334,0,0.0,Clear,clear sky,13
Fehérgyarmat,47.979167,22.524444,2026-03-05 13:17:28.583188,13.24,11.59,13.24,13.24,1024,37,4.92,330,0,0.0,Clear,clear sky,13
Penyige,47.995278,22.566944,2026-03-05 13:17:29.778063,13.3,11.63,13.3,13.3,1024,36,4.86,328,0,0.0,Clear,clear sky,13
Nagyszekeres,47.976111,22.6125,2026-03-05 13:17:30.976126,13.35,11.68,13.35,13.35,1024,36,4.79,327,0,0.0,Clear,clear sky,13
Kisszekeres,47.965833,22.629444,2026-03-05 13:17:32.184212,13.35,11.68,13.35,13.35,1024,36,4.82,327,0,0.0,Clear,clear sky,13
Jánkmajtis,47.941944,22.657222,2026-03-05 13:17:33.379458,13.4,11.74,13.4,13.4,1024,36,4.79,325,0,0.0,Clear,clear sky,13
Gacsály,47.926111,22.745,2026-03-05 13:17:34.589372,15.04,13.54,15.03,15.04,1024,36,4.57,322,1,0.0,Clear,clear sky,13
Zajta,47.9025,22.796111,2026-03-05 13:17:35.794761,15.03,13.53,15.03,15.03,1024,36,4.44,320,3,0.0,Clear,clear sky,13
Eperjeske alsó,48.360556,22.19,2026-03-05 13:17:36.994363,12.67,10.98,12.67,12.67,1024,38,5.44,338,8,0.0,Clear,clear sky,13
Mándok,48.326944,22.196389,2026-03-05 13:17:38.199865,12.64,10.98,12.64,12.64,1024,39,5.52,339,8,0.0,Clear,clear sky,13
Tornyospálca,48.268333,22.201944,2026-03-05 13:17:39.402007,12.68,11.02,12.68,12.68,1024,39,5.57,340,7,0.0,Clear,clear sky,13
Aranyosapáti,48.211303,22.253534,2026-03-05 13:17:40.601881,12.81,11.16,12.81,12.81,1024,39,5.37,338,6,0.0,Clear,clear sky,13
Gyüre,48.171389,22.269167,2026-03-05 13:17:41.809351,12.81,11.16,12.81,12.81,1024,39,5.43,339,4,0.0,Clear,clear sky,13
Varsány,48.151722,22.290047,2026-03-05 13:17:43.006089,12.86,11.19,12.86,12.86,1024,38,5.38,338,4,0.0,Clear,clear sky,13
Vásárosnamény,48.126667,22.306111,2026-03-05 13:17:44.202927,12.87,11.2,12.87,12.87,1024,38,5.41,338,3,0.0,Clear,clear sky,13
Vitka,48.095556,22.308056,2026-03-05 13:17:45.498218,12.87,11.2,12.87,12.87,1024,38,5.44,339,2,0.0,Clear,clear sky,13
Nagydobos,48.054167,22.311111,2026-03-05 13:17:46.703763,12.82,11.15,12.82,12.82,1024,38,5.46,339,1,0.0,Clear,clear sky,13
Ópályi,47.997778,22.318333,2026-03-05 13:17:47.904796,12.84,11.17,12.84,12.84,1024,38,5.55,340,0,0.0,Clear,clear sky,13
Nyírcsaholy,47.908056,22.348333,2026-03-05 13:17:49.108437,12.98,11.3,12.98,12.98,1024,37,5.55,339,0,0.0,Clear,clear sky,13
Nagyecsed,47.864722,22.385556,2026-03-05 13:17:50.306994,13.09,11.42,13.09,13.09,1024,37,5.44,337,0,0.0,Clear,clear sky,13
Tiborszállás,47.815278,22.402778,2026-03-05 13:17:51.504349,13.12,11.43,13.12,13.12,1024,36,5.48,337,0,0.0,Clear,clear sky,13
Kiskunhalas,46.434444,19.493611,2026-03-05 13:17:52.699378,14.71,13.46,14.71,14.71,1024,47,2.65,317,0,0.0,Clear,clear sky,13
Kecskemét alsó,46.895833,19.692222,2026-03-05 13:17:53.904897,17.81,16.85,17.1,17.81,1024,46,1.79,298,0,0.0,Clear,clear sky,13
Putnok,48.286667,20.4375,2026-03-05 13:17:55.102969,11.02,9.72,11.02,11.02,1024,59,1.41,267,1,0.0,Clear,clear sky,13
Bánréve,48.299722,20.351944,2026-03-05 13:17:56.309721,11.17,9.86,11.17,11.17,1024,58,1.3,264,0,0.0,Clear,clear sky,13
Ipolytarnóc,48.236667,19.629167,2026-03-05 13:17:57.512931,11.94,10.6,11.94,11.94,1024,54,2.05,239,62,0.0,Clouds,broken clouds,13
Rákosliget,47.486111,19.257778,2026-03-05 13:17:58.723127,15.66,14.25,14.07,16.97,1025,37,2.57,0,0,0.0,Clear,clear sky,13
Ikrény,47.657778,17.524167,2026-03-05 13:17:59.918065,15.08,13.9,15.08,15.08,1025,48,1.75,314,0,0.0,Clear,clear sky,13
Rábapatona,47.648889,17.461944,2026-03-05 13:18:01.128485,15.1,13.92,15.1,15.1,1025,48,1.71,312,0,0.0,Clear,clear sky,13
Enese,47.644167,17.425278,2026-03-05 13:18:02.323434,15.1,13.92,15.1,15.1,1025,48,1.68,313,0,0.0,Clear,clear sky,13
Kóny,47.632222,17.357222,2026-03-05 13:18:03.530501,14.58,13.37,14.58,14.58,1025,49,1.7,314,0,0.0,Clear,clear sky,13
Farád,47.595278,17.195833,2026-03-05 13:18:04.738503,14.64,13.44,14.64,14.64,1025,49,2.0,322,0,0.0,Clear,clear sky,13
Rábatamási,47.592778,17.161389,2026-03-05 13:18:05.939416,14.64,13.44,14.64,14.64,1025,49,2.0,322,0,0.0,Clear,clear sky,13
Szárföld,47.589167,17.123889,2026-03-05 13:18:07.135469,14.65,13.45,14.65,14.65,1025,49,2.05,323,0,0.0,Clear,clear sky,13
Veszkény,47.586944,17.101389,2026-03-05 13:18:08.338637,14.66,13.46,14.66,14.66,1025,49,2.08,324,0,0.0,Clear,clear sky,13
Kapuvár,47.581944,17.046944,2026-03-05 13:18:09.531326,14.65,13.45,14.65,14.65,1025,49,2.04,329,0,0.0,Clear,clear sky,13
Vitnyéd-Csermajor,47.5825,16.987222,2026-03-05 13:18:10.749433,14.66,13.46,14.66,14.66,1025,49,1.99,335,0,0.0,Clear,clear sky,13
Petőháza,47.595278,16.893056,2026-03-05 13:18:11.949489,14.67,13.47,14.67,14.67,1025,49,1.76,349,0,0.0,Clear,clear sky,13
Fertőszentmiklós,47.6,16.858889,2026-03-05 13:18:13.148821,16.16,15.11,16.16,16.16,1025,49,1.66,357,0,0.0,Clear,clear sky,13
Pinnye,47.600278,16.768611,2026-03-05 13:18:14.344367,16.04,14.98,16.04,16.04,1025,49,1.49,40,0,0.0,Clear,clear sky,13
Fertőboz,47.625,16.691667,2026-03-05 13:18:15.551466,15.88,14.8,15.88,15.88,1025,49,1.66,61,0,0.0,Clear,clear sky,13
Sopron,47.677778,16.587222,2026-03-05 13:18:16.752510,15.58,14.47,15.58,15.58,1025,49,2.02,77,0,0.0,Clear,clear sky,13
Fertőszéplak-Fertőd,47.618889,16.850833,2026-03-05 13:18:17.957686,16.18,15.13,16.18,16.18,1025,49,1.54,6,0,0.0,Clear,clear sky,13
Nyúl,47.587778,17.698056,2026-03-05 13:18:19.153028,15.02,13.52,14.14,15.02,1025,36,3.6,300,0,0.0,Clear,clear sky,13
Pannonhalma,47.547778,17.740833,2026-03-05 13:18:20.348808,14.96,13.45,14.08,14.96,1025,36,3.6,300,0,0.0,Clear,clear sky,13
Tarjánpuszta,47.504722,17.789167,2026-03-05 13:18:21.551456,14.73,13.2,13.84,14.73,1025,36,3.6,300,0,0.0,Clear,clear sky,13
Győrasszonyfa,47.4925,17.799167,2026-03-05 13:18:22.760701,14.66,13.12,13.77,14.66,1025,36,3.6,300,0,0.0,Clear,clear sky,13
Veszprémvarsány,47.443333,17.818333,2026-03-05 13:18:23.967993,14.71,13.52,13.83,14.71,1025,49,2.54,319,0,0.0,Clear,clear sky,13
Bakonyszentlászló,47.395556,17.8175,2026-03-05 13:18:25.171714,13.58,12.35,13.58,14.47,1025,52,2.62,320,0,0.0,Clear,clear sky,13
Porva-Csesznek,47.326944,17.841111,2026-03-05 13:18:26.367295,12.59,11.29,12.59,12.59,1025,53,2.66,322,0,0.0,Clear,clear sky,13
Zirc,47.266667,17.878056,2026-03-05 13:18:27.565024,13.12,11.9,13.12,13.12,1025,54,2.74,328,0,0.0,Clear,clear sky,13
Eplény,47.192778,17.921667,2026-03-05 13:18:28.761058,13.25,12.04,13.25,13.25,1025,54,2.59,333,0,0.0,Clear,clear sky,13
Marcaltő,47.4275,17.348889,2026-03-05 13:18:29.963137,14.17,13.05,14.17,14.17,1025,54,2.06,350,0,0.0,Clear,clear sky,13
Szany-Rábaszentandrás,47.460833,17.315278,2026-03-05 13:18:31.160766,14.17,13.05,14.17,14.17,1025,54,2.06,350,0,0.0,Clear,clear sky,13
Egyed-Rábacsanak,47.521944,17.316389,2026-03-05 13:18:32.367951,14.18,12.93,14.18,14.18,1025,49,1.69,318,0,0.0,Clear,clear sky,13
Rábapordány,47.557222,17.315,2026-03-05 13:18:33.566967,14.18,12.93,14.18,14.18,1025,49,1.7,317,0,0.0,Clear,clear sky,13
Albertfalva,47.440784,19.033965,2026-03-05 13:18:34.769061,16.57,15.17,14.32,17.22,1025,34,2.57,0,0,0.0,Clear,clear sky,13
Budafok,47.425833,19.041389,2026-03-05 13:18:35.969309,16.55,15.17,14.33,17.23,1025,35,2.57,0,0,0.0,Clear,clear sky,13
Tétényliget,47.384722,18.955278,2026-03-05 13:18:37.173139,16.38,14.99,14.35,17.25,1025,35,1.45,325,0,0.0,Clear,clear sky,13
Érd alsó,47.379722,18.923056,2026-03-05 13:18:38.360265,16.09,14.64,14.21,17.11,1025,34,1.54,321,0,0.0,Clear,clear sky,13
Tárnok,47.365556,18.873889,2026-03-05 13:18:39.566791,15.99,14.56,14.28,17.17,1025,35,1.9,317,0,0.0,Clear,clear sky,13
Martonvásár,47.321389,18.781667,2026-03-05 13:18:40.771371,15.73,14.53,14.21,17.1,1025,45,2.28,316,0,0.0,Clear,clear sky,13
Baracska,47.297222,18.753333,2026-03-05 13:18:41.972098,15.6,14.36,15.6,15.6,1025,44,2.4,316,0,0.0,Clear,clear sky,13
Pettend,47.26,18.708889,2026-03-05 13:18:43.183448,14.3,12.88,14.3,14.3,1025,42,2.6,316,0,0.0,Clear,clear sky,13
Kápolnásnyék,47.245556,18.692222,2026-03-05 13:18:44.384867,14.39,12.96,14.39,14.39,1025,41,2.67,317,0,0.0,Clear,clear sky,13
Velence,47.226944,18.663889,2026-03-05 13:18:45.580716,14.47,13.02,14.47,14.47,1025,40,2.76,318,0,0.0,Clear,clear sky,13
Velencefürdő,47.218611,18.648056,2026-03-05 13:18:46.784365,14.47,13.04,14.47,14.47,1025,41,2.76,318,0,0.0,Clear,clear sky,13
Gárdony,47.205833,18.624722,2026-03-05 13:18:47.986279,14.51,13.06,14.51,14.51,1025,40,2.84,320,0,0.0,Clear,clear sky,13
Agárd,47.197666,18.604907,2026-03-05 13:18:49.184005,14.51,13.06,14.51,14.51,1025,40,2.84,320,0,0.0,Clear,clear sky,13
Dinnyés,47.179722,18.560833,2026-03-05 13:18:50.390272,14.5,13.02,14.5,14.5,1025,39,3.0,324,0,0.0,Clear,clear sky,13
Székesfehérvár,47.183611,18.424722,2026-03-05 13:18:51.594692,14.5,13.0,14.5,14.5,1025,38,3.26,333,0,0.0,Clear,clear sky,13
Szabadbattyán,47.105278,18.388333,2026-03-05 13:18:52.789230,14.52,13.07,14.52,14.52,1025,40,3.29,337,0,0.0,Clear,clear sky,13
Kiscséripuszta,47.048056,18.355,2026-03-05 13:18:54.007894,14.35,12.91,14.35,14.35,1025,41,3.28,339,0,0.0,Clear,clear sky,13
Lepsény,46.9875,18.248056,2026-03-05 13:18:55.210502,14.9,13.57,14.9,14.9,1025,43,3.18,343,0,0.0,Clear,clear sky,13
Balatonaliga,46.984444,18.171389,2026-03-05 13:18:56.409085,14.71,13.41,14.71,14.71,1025,45,2.92,346,0,0.0,Clear,clear sky,13
Balatonvilágos,46.964167,18.157222,2026-03-05 13:18:57.613679,14.75,13.48,14.75,14.75,1025,46,2.75,347,0,0.0,Clear,clear sky,13
Szabadifürdő,46.926111,18.103333,2026-03-05 13:18:58.816588,14.92,13.56,14.92,14.92,1025,42,2.53,348,0,0.0,Clear,clear sky,13
Ózd alsó,48.227778,20.306111,2026-03-05 13:19:00.010315,10.73,9.37,10.73,10.73,1024,58,1.08,270,12,0.0,Clouds,few clouds,13
Ózd,48.2225,20.294722,2026-03-05 13:19:01.215767,10.73,9.37,10.73,10.73,1024,58,1.08,270,12,0.0,Clouds,few clouds,13
Alsóboldva,48.212778,20.792222,2026-03-05 13:19:02.418265,11.72,10.23,11.72,12.1,1024,49,0.79,291,22,0.0,Clouds,few clouds,13
Boldva,48.223333,20.790278,2026-03-05 13:19:03.614876,11.71,10.22,11.71,12.09,1024,49,0.79,291,22,0.0,Clouds,few clouds,13
Borsodszirák,48.259167,20.770556,2026-03-05 13:19:04.819300,11.66,10.16,11.66,11.66,1024,49,1.18,261,30,0.0,Clouds,scattered clouds,13
Edelény alsó,48.279167,20.760833,2026-03-05 13:19:06.023471,11.64,10.48,11.64,11.64,1024,62,1.18,261,30,0.0,Clouds,scattered clouds,13
Edelény,48.299722,20.749444,2026-03-05 13:19:07.225218,11.62,10.43,11.62,11.62,1024,61,1.39,254,33,0.0,Clouds,scattered clouds,13
Szendrőlád,48.334444,20.731944,2026-03-05 13:19:08.436793,11.53,10.28,11.53,11.53,1024,59,1.87,245,40,0.0,Clouds,scattered clouds,13
Szendrő,48.400725,20.721346,2026-03-05 13:19:09.638566,11.49,10.16,11.49,11.49,1024,56,2.19,239,46,0.0,Clouds,scattered clouds,13
Szendrő felső,48.409907,20.720148,2026-03-05 13:19:10.847839,11.49,10.16,11.49,11.49,1024,56,2.19,239,46,0.0,Clouds,scattered clouds,13
Szalonna,48.449444,20.722222,2026-03-05 13:19:12.049144,11.75,10.36,11.75,11.75,1024,53,2.36,235,49,0.0,Clouds,scattered clouds,13
Perkupa,48.471389,20.691111,2026-03-05 13:19:13.254174,11.1,9.62,11.1,11.1,1024,52,2.44,240,50,0.0,Clouds,scattered clouds,13
Szemeretelep,47.443056,19.214167,2026-03-05 13:19:14.451982,15.7,14.32,14.14,17.03,1025,38,2.57,0,0,0.0,Clear,clear sky,13
Jósvafő-Aggtelek,48.489722,20.693889,2026-03-05 13:19:15.656224,11.48,9.99,11.48,11.48,1024,50,2.38,240,50,0.0,Clouds,scattered clouds,13
Bódvaszilas,48.5375,20.738056,2026-03-05 13:19:16.855805,11.17,9.6,11.17,11.17,1024,48,2.16,234,47,0.0,Clouds,scattered clouds,13
Komjáti,48.5475,20.759722,2026-03-05 13:19:18.053286,10.8,9.14,10.8,10.8,1024,46,1.91,231,42,0.0,Clouds,scattered clouds,13
Tornanádaska,48.558333,20.787222,2026-03-05 13:19:19.260126,12.0,10.46,12.0,12.0,1024,46,1.85,225,40,0.0,Clouds,scattered clouds,13
Onga,48.121111,20.906667,2026-03-05 13:19:20.465287,11.77,10.28,11.77,12.15,1024,49,1.75,359,5,0.0,Clear,clear sky,13
Szikszó-Vásártér,48.193056,20.934722,2026-03-05 13:19:21.659155,11.73,10.24,11.73,12.12,1024,49,1.34,344,10,0.0,Clear,clear sky,13
Szikszó,48.201667,20.941667,2026-03-05 13:19:22.860911,11.75,10.26,11.75,12.13,1024,49,1.54,347,7,0.0,Clear,clear sky,13
Aszaló,48.219867,20.961466,2026-03-05 13:19:24.057823,11.73,10.24,11.73,12.11,1024,49,1.35,342,9,0.0,Clear,clear sky,13
Halmaj,48.246667,20.991667,2026-03-05 13:19:25.260345,11.71,10.5,11.71,11.71,1024,60,1.28,340,7,0.0,Clear,clear sky,13
Csobád,48.277222,21.033889,2026-03-05 13:19:26.470174,11.68,10.42,11.68,11.68,1024,58,1.17,340,7,0.0,Clear,clear sky,13
Ináncs,48.291111,21.057778,2026-03-05 13:19:27.673482,11.68,10.34,11.68,11.68,1024,55,1.29,347,5,0.0,Clear,clear sky,13
Forró-Encs,48.3275,21.117778,2026-03-05 13:19:28.868847,11.83,10.45,11.83,11.83,1024,53,1.27,352,5,0.0,Clear,clear sky,13
Méra,48.363056,21.140278,2026-03-05 13:19:30.088889,11.85,10.37,11.85,11.85,1024,49,1.12,7,7,0.0,Clear,clear sky,13
Novajidrány,48.404444,21.170556,2026-03-05 13:19:31.284990,14.5,13.23,14.5,14.5,1024,47,1.3,13,7,0.0,Clear,clear sky,13
Hernádszurdok,48.487222,21.213889,2026-03-05 13:19:32.481222,14.41,12.51,13.03,14.42,1024,23,4.12,40,0,0.0,Clear,clear sky,13
Hidasnémeti,48.508333,21.229722,2026-03-05 13:19:33.684903,14.42,12.52,13.03,14.43,1024,23,4.12,40,0,0.0,Clear,clear sky,13
Mád,48.19,21.268889,2026-03-05 13:19:34.889904,11.49,10.08,11.49,11.49,1024,53,2.46,345,4,0.0,Clear,clear sky,13
Rátka,48.215,21.230278,2026-03-05 13:19:36.083889,11.83,10.45,11.83,11.83,1024,53,2.49,345,4,0.0,Clear,clear sky,13
Tállya,48.226944,21.225278,2026-03-05 13:19:37.291814,11.83,10.45,11.83,11.83,1024,53,2.49,345,4,0.0,Clear,clear sky,13
Golop,48.242778,21.204167,2026-03-05 13:19:38.497193,11.86,10.51,11.86,11.86,1024,54,2.31,346,3,0.0,Clear,clear sky,13
Abaújszántó,48.286944,21.181667,2026-03-05 13:19:39.695037,11.72,10.31,11.72,11.72,1024,52,1.99,351,4,0.0,Clear,clear sky,13
Abaújszántói fürdő,48.268333,21.179722,2026-03-05 13:19:40.905320,11.91,10.54,11.91,11.91,1024,53,2.16,348,4,0.0,Clear,clear sky,13
Abaújkér,48.309444,21.198333,2026-03-05 13:19:42.109851,11.8,10.37,11.8,11.8,1024,51,1.81,355,5,0.0,Clear,clear sky,13
Boldogkőváralja,48.345,21.208889,2026-03-05 13:19:43.309025,11.9,10.4,11.9,11.9,1024,48,2.07,1,5,0.0,Clear,clear sky,13
Korlát-Vizsoly,48.365,21.219167,2026-03-05 13:19:44.517559,12.09,10.56,12.09,12.09,1024,46,1.97,5,6,0.0,Clear,clear sky,13
Fony,48.411389,21.242778,2026-03-05 13:19:45.716730,14.3,12.93,11.94,14.3,1024,44,1.82,15,7,0.0,Clear,clear sky,13
Hejce-Vilmány,48.419444,21.245556,2026-03-05 13:19:46.925443,14.27,12.9,11.9,14.27,1024,44,1.82,15,7,0.0,Clear,clear sky,13
Göncruszka,48.445,21.246944,2026-03-05 13:19:48.133137,14.12,12.71,11.99,14.36,1024,43,1.79,19,7,0.0,Clear,clear sky,13
Gönc,48.470556,21.261389,2026-03-05 13:19:49.339584,13.87,12.38,11.9,14.26,1024,41,2.01,20,7,0.0,Clear,clear sky,13
Zsujta,48.4925,21.265,2026-03-05 13:19:50.536890,13.81,11.85,11.92,14.28,1024,23,4.12,40,0,0.0,Clear,clear sky,13
Bodrogkeresztúr,48.175556,21.354167,2026-03-05 13:19:51.741082,11.23,9.74,11.23,11.23,1024,51,2.3,349,4,0.0,Clear,clear sky,13
Szegi,48.201944,21.387778,2026-03-05 13:19:52.943563,12.43,11.01,12.43,12.43,1024,49,2.32,360,3,0.0,Clear,clear sky,13
Erdőbénye,48.218056,21.401944,2026-03-05 13:19:54.146297,12.4,10.95,12.4,12.4,1024,48,2.4,5,3,0.0,Clear,clear sky,13
Olaszliszka-Tolcsva,48.258333,21.448056,2026-03-05 13:19:55.355851,12.43,10.9,12.43,12.43,1024,45,2.51,8,2,0.0,Clear,clear sky,13
Bodrogolaszi,48.286944,21.512778,2026-03-05 13:19:56.558198,12.37,11.15,12.37,12.37,1024,57,2.62,11,2,0.0,Clear,clear sky,13
Sárospatak,48.325833,21.566111,2026-03-05 13:19:57.759274,12.32,11.1,12.32,12.32,1024,57,3.25,12,4,0.0,Clear,clear sky,13
Sátoraljaújhely,48.385833,21.657778,2026-03-05 13:19:58.970859,12.4,11.18,12.4,12.4,1024,57,3.84,9,6,0.0,Clear,clear sky,13
Vecsés,47.40855,19.25652,2026-03-05 13:20:00.172039,15.26,13.91,15.13,17.07,1025,41,2.57,0,0,0.0,Clear,clear sky,13
Vecsés-Kertekalja,47.403333,19.271389,2026-03-05 13:20:01.365987,15.29,13.97,15.17,17.11,1025,42,2.57,0,0,0.0,Clear,clear sky,13
Üllő,47.390833,19.348889,2026-03-05 13:20:02.574556,15.24,13.97,15.12,17.06,1025,44,2.57,0,0,0.0,Clear,clear sky,13
Monor,47.34545,19.43701,2026-03-05 13:20:03.778640,15.07,13.78,15.07,15.07,1025,44,2.57,0,0,0.0,Clear,clear sky,13
Pilis,47.279722,19.536389,2026-03-05 13:20:04.977150,15.86,14.81,15.03,15.86,1024,50,0.39,305,0,0.0,Clear,clear sky,13
Albertirsa,47.240278,19.606389,2026-03-05 13:20:06.188528,15.95,14.7,15.95,15.95,1024,42,0.2,233,0,0.0,Clear,clear sky,13
Ceglédbercel-Cserő,47.210278,19.686944,2026-03-05 13:20:07.384114,16.02,14.77,16.02,16.02,1024,42,0.35,173,0,0.0,Clear,clear sky,13
Cegléd,47.182778,19.806111,2026-03-05 13:20:08.580670,16.12,14.88,15.07,16.12,1024,42,0.9,142,2,0.0,Clear,clear sky,13
Abony,47.173056,20.016389,2026-03-05 13:20:09.791498,15.94,14.82,14.97,16.19,1024,47,2.06,60,0,0.0,Clear,clear sky,13
Szolnok,47.179167,20.175833,2026-03-05 13:20:10.998180,15.49,14.3,14.99,16.21,1024,46,2.06,60,0,0.0,Clear,clear sky,13
Szajol,47.170556,20.295278,2026-03-05 13:20:12.192305,15.01,13.72,15.01,16.1,1024,44,2.06,60,0,0.0,Clear,clear sky,13
Törökszentmiklós,47.170278,20.413611,2026-03-05 13:20:13.395971,15.0,13.7,15.0,16.1,1024,44,2.06,60,0,0.0,Clear,clear sky,13
Rákoscsaba-Újtelep,47.4875,19.271944,2026-03-05 13:20:14.593289,15.64,14.23,14.07,16.97,1025,37,2.57,0,0,0.0,Clear,clear sky,13
Rákoscsaba,47.492222,19.284722,2026-03-05 13:20:15.796596,15.28,13.88,15.02,16.96,1025,39,2.57,0,0,0.0,Clear,clear sky,13
Pécel,47.493889,19.338889,2026-03-05 13:20:16.998962,15.12,13.84,14.9,16.84,1025,44,2.57,0,0,0.0,Clear,clear sky,13
Isaszeg,47.537719,19.388955,2026-03-05 13:20:18.209511,14.83,13.52,14.81,16.75,1025,44,2.57,0,0,0.0,Clear,clear sky,13
Gödöllő,47.592222,19.358611,2026-03-05 13:20:19.420025,15.18,13.9,14.58,16.53,1025,44,2.57,0,0,0.0,Clear,clear sky,13
Máriabesnyő,47.595556,19.389722,2026-03-05 13:20:20.622604,14.98,13.94,14.73,16.67,1025,54,1.06,155,3,0.0,Clear,clear sky,13
Bag,47.641111,19.471667,2026-03-05 13:20:21.818804,15.08,14.11,15.08,15.08,1025,56,1.67,146,2,0.0,Clear,clear sky,13
Aszód,47.647467,19.492882,2026-03-05 13:20:23.021717,15.16,14.22,15.16,15.16,1025,57,1.74,143,1,0.0,Clear,clear sky,13
Hévízgyörk,47.638611,19.526667,2026-03-05 13:20:24.224121,12.76,11.58,12.76,12.76,1025,57,1.8,141,0,0.0,Clear,clear sky,13
Galgahévíz,47.6325,19.558333,2026-03-05 13:20:25.430711,12.93,11.77,12.93,12.93,1025,57,1.83,132,0,0.0,Clear,clear sky,13
Tura,47.626389,19.5975,2026-03-05 13:20:26.622802,12.76,11.55,12.76,12.76,1025,56,1.86,128,0,0.0,Clear,clear sky,13
Hatvan,47.663611,19.671389,2026-03-05 13:20:27.861071,12.54,11.34,12.54,12.54,1025,57,1.86,132,0,0.0,Clear,clear sky,13
Vámosgyörk,47.686111,19.927778,2026-03-05 13:20:29.072469,11.88,10.61,11.88,11.88,1025,57,1.4,133,0,0.0,Clear,clear sky,13
Adács,47.696389,19.975278,2026-03-05 13:20:30.305154,11.65,10.36,11.65,11.65,1024,57,1.33,148,0,0.0,Clear,clear sky,13
Karácsond,47.718056,20.048611,2026-03-05 13:20:31.513498,11.38,10.09,11.38,11.38,1024,58,1.35,160,2,0.0,Clear,clear sky,13
Ludas,47.723889,20.095556,2026-03-05 13:20:32.716633,11.37,10.08,11.37,11.37,1024,58,1.37,167,2,0.0,Clear,clear sky,13
Nagyút,47.72666666666667,20.161388888888887,2026-03-05 13:20:33.911815,11.24,9.93,11.24,11.24,1024,58,1.39,169,2,0.0,Clear,clear sky,13
Kál-Kápolna,47.734167,20.254167,2026-03-05 13:20:35.105076,10.98,9.65,10.98,10.98,1024,58,1.45,172,0,0.0,Clear,clear sky,13
Füzesabony,47.751389,20.415278,2026-03-05 13:20:36.302128,10.64,9.33,10.64,10.64,1024,60,1.36,182,5,0.0,Clear,clear sky,13
Szihalom,47.766944,20.491944,2026-03-05 13:20:37.504929,15.17,14.34,15.17,15.17,1024,61,1.17,192,9,0.0,Clear,clear sky,13
Mezőkövesd,47.797222,20.5675,2026-03-05 13:20:38.707002,15.18,14.4,15.18,15.18,1024,63,0.69,213,10,0.0,Clear,clear sky,13
Mezőkövesd felső,47.807222,20.591389,2026-03-05 13:20:39.909539,15.16,14.38,15.16,15.16,1024,63,0.69,213,10,0.0,Clear,clear sky,13
Mezőkeresztes-Mezőnyárád,47.845556,20.670278,2026-03-05 13:20:41.111904,12.14,11.11,11.75,12.14,1024,65,0.33,299,8,0.0,Clear,clear sky,13
Csincse,47.890833,20.764167,2026-03-05 13:20:42.318091,12.16,10.58,11.77,12.16,1024,44,0.88,359,3,0.0,Clear,clear sky,13
Emőd,47.930556,20.822778,2026-03-05 13:20:43.525930,12.17,10.59,11.79,12.17,1024,44,1.07,12,2,0.0,Clear,clear sky,13
Nyékládháza,47.9925,20.840556,2026-03-05 13:20:44.732954,12.2,10.62,11.82,12.2,1024,44,1.3,16,2,0.0,Clear,clear sky,13
Miskolc-Tiszai,48.098611,20.811389,2026-03-05 13:20:45.940280,11.74,10.25,11.74,12.12,1023,49,0.79,9,8,0.0,Clear,clear sky,13
Felsőzsolca,48.083611,20.866111,2026-03-05 13:20:47.144344,11.77,10.28,11.77,12.15,1024,49,1.34,7,6,0.0,Clear,clear sky,13
Hernádnémeti-Bőcs,48.051389,20.985,2026-03-05 13:20:48.355304,12.15,10.57,11.77,12.15,1024,44,2.26,357,4,0.0,Clear,clear sky,13
Tiszalúc,48.039722,21.0575,2026-03-05 13:20:49.550140,12.19,10.61,11.81,12.19,1024,44,2.47,347,6,0.0,Clear,clear sky,13
Taktaharkány,48.091667,21.128611,2026-03-05 13:20:50.750334,12.24,10.67,11.86,12.24,1024,44,2.52,344,5,0.0,Clear,clear sky,13
Taktaszada,48.1125,21.149444,2026-03-05 13:20:51.954506,12.25,11.07,11.87,12.25,1024,59,2.55,341,4,0.0,Clear,clear sky,13
Szerencs,48.155556,21.214444,2026-03-05 13:20:53.164306,12.25,10.97,12.25,12.25,1024,55,2.5,342,4,0.0,Clear,clear sky,13
Mezőzombor,48.156944,21.267778,2026-03-05 13:20:54.367277,11.83,10.45,11.83,11.83,1024,53,2.45,343,4,0.0,Clear,clear sky,13
Tarcal,48.125,21.34,2026-03-05 13:20:55.569898,12.01,10.62,12.01,12.01,1024,52,2.2,347,5,0.0,Clear,clear sky,13
Tokaj,48.112778,21.406667,2026-03-05 13:20:56.767211,11.6,10.12,11.6,11.6,1024,50,2.27,4,4,0.0,Clear,clear sky,13
Rakamaz,48.12,21.475,2026-03-05 13:20:57.961954,12.18,10.73,12.18,12.18,1024,49,2.42,9,4,0.0,Clear,clear sky,13
Görögszállás,48.04,21.555,2026-03-05 13:20:59.165952,12.18,10.71,12.18,12.18,1024,48,2.87,14,5,0.0,Clear,clear sky,13
Nyírtelek,48.005,21.615556,2026-03-05 13:21:00.373736,12.23,10.74,12.23,12.23,1025,47,3.79,13,4,0.0,Clear,clear sky,13
Rákoshegy,47.468611,19.245556,2026-03-05 13:21:01.588900,15.57,14.12,14.02,16.91,1025,36,2.57,0,0,0.0,Clear,clear sky,13
Ecser,47.439444,19.318056,2026-03-05 13:21:02.796124,15.15,13.87,15.02,16.96,1025,44,2.57,0,0,0.0,Clear,clear sky,13
Maglód,47.438889,19.340833,2026-03-05 13:21:03.991602,15.1,13.81,14.96,16.9,1025,44,2.57,0,0,0.0,Clear,clear sky,13
Maglódi nyaraló,47.434167,19.363611,2026-03-05 13:21:05.185146,15.0,13.7,14.86,16.8,1025,44,2.57,0,0,0.0,Clear,clear sky,13
Gyömrő,47.429722,19.393333,2026-03-05 13:21:06.379205,14.85,13.54,14.82,16.77,1025,44,2.57,0,0,0.0,Clear,clear sky,13
Mende,47.426944,19.439722,2026-03-05 13:21:07.588505,14.79,13.47,14.79,16.73,1025,44,2.57,0,0,0.0,Clear,clear sky,13
Szőlősnyaraló,47.450278,19.561111,2026-03-05 13:21:08.789317,15.02,13.99,15.02,15.85,1024,54,1.17,121,5,0.0,Clear,clear sky,13
Sülysáp,47.451944,19.5275,2026-03-05 13:21:09.995765,15.0,13.94,15.0,15.83,1024,53,0.86,129,3,0.0,Clear,clear sky,13
Tápiószecső,47.443056,19.614722,2026-03-05 13:21:11.189975,15.93,14.99,15.1,15.93,1024,54,1.32,118,5,0.0,Clear,clear sky,13
Szentmártonkáta,47.431944,19.680556,2026-03-05 13:21:12.399680,15.96,14.71,15.96,15.96,1024,42,1.57,111,7,0.0,Clear,clear sky,13
Nagykáta,47.409722,19.737778,2026-03-05 13:21:13.602925,16.03,14.79,16.03,16.03,1024,42,1.6,110,7,0.0,Clear,clear sky,13
Farmos,47.355278,19.8375,2026-03-05 13:21:14.818619,16.14,14.91,16.14,16.14,1024,42,0.45,66,7,0.0,Clear,clear sky,13
Tápiószele,47.346313,19.873504,2026-03-05 13:21:16.021738,16.12,14.88,16.12,16.12,1024,42,0.45,66,7,0.0,Clear,clear sky,13
Tápiógyörgye,47.325,19.95,2026-03-05 13:21:17.234428,16.18,14.95,16.06,16.18,1024,42,0.45,66,10,0.0,Clear,clear sky,13
Újszász,47.285833,20.066944,2026-03-05 13:21:18.437018,16.22,14.99,15.01,16.22,1024,42,2.26,107,11,0.0,Clouds,few clouds,13
Szurdokpüspöki,47.851944,19.690278,2026-03-05 13:21:19.642710,12.1,10.88,12.1,12.1,1025,58,1.64,175,39,0.0,Clouds,scattered clouds,13
Lőrinci,47.739444,19.673611,2026-03-05 13:21:20.853018,12.37,11.15,12.37,12.37,1025,57,1.79,143,0,0.0,Clear,clear sky,13
Selyp,47.759167,19.670833,2026-03-05 13:21:22.055452,12.31,11.08,12.31,12.31,1025,57,1.75,149,2,0.0,Clear,clear sky,13
Apc-Zagyvaszántó,47.791328,19.66822,2026-03-05 13:21:23.261459,12.28,11.05,12.28,12.28,1025,57,1.71,155,9,0.0,Clear,clear sky,13
Pásztó,47.918889,19.688889,2026-03-05 13:21:24.463844,11.92,10.68,11.92,11.92,1025,58,1.62,189,61,0.0,Clouds,broken clouds,13
Mátraszőlős-Hasznos,47.938506,19.706122,2026-03-05 13:21:25.659887,11.82,10.57,11.82,11.82,1024,58,1.6,198,73,0.0,Clouds,broken clouds,13
Tar,47.956111,19.746389,2026-03-05 13:21:26.862534,11.3,10.03,11.3,11.3,1024,59,1.58,209,84,0.0,Clouds,broken clouds,13
Mátraverebély,47.968333,19.778611,2026-03-05 13:21:28.133088,11.3,10.03,11.3,11.3,1024,59,1.58,209,84,0.0,Clouds,broken clouds,13
Nagybátony,47.981111,19.82,2026-03-05 13:21:29.414339,11.38,10.11,11.38,11.38,1024,59,1.59,217,92,0.0,Clouds,overcast clouds,13
Kisterenye,48.009444,19.831944,2026-03-05 13:21:30.775880,11.38,10.11,11.38,11.38,1024,59,1.61,224,96,0.0,Clouds,overcast clouds,13
Kisterenye-Bányatelep,48.021389,19.831944,2026-03-05 13:21:31.976324,11.38,10.11,11.38,11.38,1024,59,1.61,224,96,0.0,Clouds,overcast clouds,13
Salgótarján külső,48.089444,19.790833,2026-03-05 13:21:33.179946,11.01,9.68,11.01,11.01,1024,58,1.72,243,95,0.0,Clouds,overcast clouds,13
Balatonfenyves GV,46.7125,17.479167,2026-03-05 13:21:34.393672,15.08,14.13,15.08,15.08,1025,57,2.11,340,0,0.0,Clear,clear sky,13
Várhegyalja,47.737778,18.366667,2026-03-05 13:21:35.597277,14.1,12.56,14.1,14.1,1025,38,2.33,314,5,0.0,Clear,clear sky,13
Imremajor,46.680556,17.499722,2026-03-05 13:21:36.802824,15.11,14.14,15.11,15.11,1025,56,2.13,341,0,0.0,Clear,clear sky,13
Rákospalota-Kertváros,47.578333,19.122778,2026-03-05 13:21:38.006939,16.68,15.19,15.22,17.16,1025,30,3.13,264,0,0.0,Clear,clear sky,13
Vicziántelep,47.675833,19.286111,2026-03-05 13:21:39.209081,16.01,15.08,14.69,16.63,1025,54,1.24,163,8,0.0,Clear,clear sky,13
Pálmajor,46.662831,17.457526,2026-03-05 13:21:40.413039,15.1,14.1,15.1,15.1,1025,55,2.19,344,0,0.0,Clear,clear sky,13
Somogyszentpál felső,46.649758,17.471404,2026-03-05 13:21:41.608910,15.07,14.09,15.07,15.07,1025,56,2.16,342,0,0.0,Clear,clear sky,13
Somogyszentpál,46.638611,17.478611,2026-03-05 13:21:42.811203,15.06,14.06,15.06,15.06,1025,55,2.21,343,0,0.0,Clear,clear sky,13
Rudnaykert,47.7175,19.257778,2026-03-05 13:21:44.016436,16.46,15.6,16.46,16.97,1025,55,1.36,168,10,0.0,Clear,clear sky,13
Maroshegy,47.158333,18.406667,2026-03-05 13:21:45.223573,14.5,13.0,14.5,14.5,1025,38,3.26,333,0,0.0,Clear,clear sky,13
Bánhida,47.573703,18.371737,2026-03-05 13:21:46.425529,13.93,12.34,13.93,13.93,1025,37,2.72,322,4,0.0,Clear,clear sky,13
Magyarkút,47.850278,19.045,2026-03-05 13:21:47.621776,12.79,11.53,12.79,12.79,1025,54,0.74,221,4,0.0,Clear,clear sky,13
Becske alsó,47.897222,19.364722,2026-03-05 13:21:48.831581,11.8,10.52,11.8,11.8,1025,57,1.99,183,22,0.0,Clouds,few clouds,13
Hosszúberek-Péteri,47.370556,19.389722,2026-03-05 13:21:50.041501,15.1,13.81,15.1,17.04,1025,44,2.57,0,0,0.0,Clear,clear sky,13
Monorierdő,47.308889,19.499167,2026-03-05 13:21:51.252970,15.01,13.87,15.01,15.84,1025,50,0.4,312,0,0.0,Clear,clear sky,13
Ceglédbercel,47.215833,19.658611,2026-03-05 13:21:52.458243,16.01,14.76,16.01,16.01,1024,42,0.24,218,0,0.0,Clear,clear sky,13
Budai út,47.208333,19.731389,2026-03-05 13:21:53.667076,16.05,14.81,16.05,16.05,1024,42,0.55,155,0,0.0,Clear,clear sky,13
Büdöskútpuszta,48.373056,20.726111,2026-03-05 13:21:54.863127,11.52,10.22,11.52,11.52,1024,57,2.04,242,43,0.0,Clouds,scattered clouds,13
Bánrévei Vízmű,48.282778,20.368333,2026-03-05 13:21:56.057180,11.13,9.81,11.13,11.13,1024,58,1.32,265,0,0.0,Clear,clear sky,13
Rákoskert,47.456389,19.296111,2026-03-05 13:21:57.261799,15.04,13.64,14.89,16.83,1025,40,2.57,0,0,0.0,Clear,clear sky,13
Szirmabesenyő,48.146944,20.783056,2026-03-05 13:21:58.465746,11.67,10.17,11.67,12.05,1023,49,0.52,329,14,0.0,Clouds,few clouds,13
Kitérőgyár,47.766944,19.935278,2026-03-05 13:21:59.671669,11.44,10.15,11.44,11.44,1024,58,1.44,167,12,0.0,Clouds,few clouds,13
Tápiószentmárton,47.373333,19.797778,2026-03-05 13:22:00.878783,16.08,14.84,16.08,16.08,1024,42,0.45,66,6,0.0,Clear,clear sky,13
Zagyvarékas,47.244229,20.097435,2026-03-05 13:22:02.074593,15.64,14.46,15.01,16.23,1024,46,2.06,60,0,0.0,Clear,clear sky,13
Abonyi út,47.206401,20.125204,2026-03-05 13:22:03.287233,15.58,14.39,15.01,16.23,1024,46,2.06,60,0,0.0,Clear,clear sky,13
Jászkisér felső,47.438056,20.202222,2026-03-05 13:22:04.482145,12.14,10.79,12.14,12.14,1025,53,2.2,101,7,0.0,Clear,clear sky,13
Szellőhát,47.425556,20.188889,2026-03-05 13:22:05.685789,16.22,15.28,16.22,16.22,1024,53,2.27,100,8,0.0,Clear,clear sky,13
Szilvásvárad-Szalajkavölgy,48.0956,20.38272,2026-03-05 13:22:06.903957,8.73,8.25,8.73,8.73,1024,57,1.46,240,45,0.0,Clouds,scattered clouds,13
Vásárosnamény külső,48.084444,22.255556,2026-03-05 13:22:08.111736,12.72,11.04,12.72,12.72,1024,38,5.53,340,2,0.0,Clear,clear sky,13
Újváros,46.660556,20.536111,2026-03-05 13:22:09.309325,15.53,14.39,14.99,15.53,1024,48,1.15,358,2,0.0,Clear,clear sky,13
Városi park,46.697778,19.864722,2026-03-05 13:22:10.598749,17.21,16.11,17.21,18.25,1024,43,1.6,319,0,0.0,Clear,clear sky,13
Belsőkamaráspuszta,46.341944,20.848889,2026-03-05 13:22:11.793473,17.25,16.31,17.25,17.25,1024,49,2.04,333,6,0.0,Clear,clear sky,13
Sajószöged,47.945278,20.981667,2026-03-05 13:22:12.997226,12.25,10.68,11.86,12.25,1024,44,2.22,356,5,0.0,Clear,clear sky,13
Kazincbarcika alsó,48.255278,20.649167,2026-03-05 13:22:14.199546,11.63,10.49,11.63,11.63,1024,63,1.29,264,20,0.0,Clouds,few clouds,13
Nyárjas,46.857778,19.923611,2026-03-05 13:22:15.513264,17.17,16.07,17.17,18.2,1024,43,0.92,317,0,0.0,Clear,clear sky,13
Pogonyipuszta,48.296389,20.381667,2026-03-05 13:22:16.713695,11.13,9.81,11.13,11.13,1024,58,1.32,265,0,0.0,Clear,clear sky,13
Sióvölgy,46.911103,18.076964,2026-03-05 13:22:17.908885,14.97,13.62,14.97,14.97,1025,42,2.22,348,0,0.0,Clear,clear sky,13
Répáspuszta,46.430278,17.847222,2026-03-05 13:22:19.118692,14.48,13.39,14.48,14.48,1025,54,2.54,336,0,0.0,Clear,clear sky,13
Virányos,48.066667,21.527222,2026-03-05 13:22:20.322252,12.21,10.74,12.21,12.21,1024,48,2.86,14,4,0.0,Clear,clear sky,13
Füzesbokor,47.988611,21.6475,2026-03-05 13:22:21.528946,12.27,10.75,12.27,12.27,1025,46,4.13,10,4,0.0,Clear,clear sky,13
Kunfehértó,46.355833,19.417222,2026-03-05 13:22:22.731136,14.8,13.59,14.8,14.8,1024,48,2.82,315,0,0.0,Clear,clear sky,13
Erdőszél,46.329444,19.395,2026-03-05 13:22:23.929588,14.69,13.47,14.69,14.69,1025,48,2.9,314,0,0.0,Clear,clear sky,13
Jánoshalma,46.293056,19.330278,2026-03-05 13:22:25.125941,14.86,13.68,14.86,14.86,1025,49,2.99,314,0,0.0,Clear,clear sky,13
Mélykút,46.213056,19.370556,2026-03-05 13:22:26.324100,14.95,13.78,14.95,14.95,1025,49,3.09,312,0,0.0,Clear,clear sky,13
Bácsalmás,46.118056,19.346389,2026-03-05 13:22:27.525795,15.03,13.87,15.03,15.03,1025,49,3.19,312,0,0.0,Clear,clear sky,13
Almás,46.116216,19.328803,2026-03-05 13:22:28.735293,15.03,13.87,15.03,15.03,1025,49,3.19,312,0,0.0,Clear,clear sky,13
Bácsbokod-Bácsborsód,46.115833,19.16,2026-03-05 13:22:29.937811,15.0,13.86,15.0,15.0,1025,50,3.18,318,0,0.0,Clear,clear sky,13
Baja,46.187014,18.957602,2026-03-05 13:22:31.134035,15.19,14.1,15.19,15.19,1025,51,3.09,323,0,0.0,Clear,clear sky,13
Harkakötöny,46.458333,19.601944,2026-03-05 13:22:32.332239,13.73,12.36,13.73,13.73,1024,46,2.43,316,0,0.0,Clear,clear sky,13
Tajó,46.473056,19.650556,2026-03-05 13:22:33.531855,13.77,12.4,13.77,13.77,1024,46,2.37,316,0,0.0,Clear,clear sky,13
Kiskunmajsa,46.501667,19.728056,2026-03-05 13:22:34.734594,17.16,16.13,17.16,17.16,1024,46,2.21,315,0,0.0,Clear,clear sky,13
Jászszentlászló,46.565833,19.753611,2026-03-05 13:22:35.940591,17.18,16.08,17.18,17.18,1024,43,2.03,317,0,0.0,Clear,clear sky,13
Galambos,46.625,19.801111,2026-03-05 13:22:37.146002,17.21,16.11,17.21,18.24,1024,43,1.9,318,0,0.0,Clear,clear sky,13
Pestszentimre,47.402222,19.188611,2026-03-05 13:22:38.344242,15.52,14.15,15.18,17.12,1025,39,2.57,0,0,0.0,Clear,clear sky,13
Gyál felső,47.390278,19.204722,2026-03-05 13:22:39.540885,15.46,14.08,15.19,17.13,1025,39,2.57,0,0,0.0,Clear,clear sky,13
Gyál,47.376667,19.219444,2026-03-05 13:22:40.735103,15.46,14.08,15.21,17.16,1025,39,2.57,0,0,0.0,Clear,clear sky,13
Ócsa,47.301389,19.232222,2026-03-05 13:22:41.952853,15.4,14.14,15.23,17.17,1025,44,2.57,0,0,0.0,Clear,clear sky,13
Inárcs-Kakucs,47.247222,19.317778,2026-03-05 13:22:43.163079,15.23,14.09,15.23,15.23,1025,49,1.94,326,0,0.0,Clear,clear sky,13
Dabas,47.194722,19.328889,2026-03-05 13:22:44.364039,15.24,14.1,15.24,15.24,1025,49,2.08,324,0,0.0,Clear,clear sky,13
Gyón,47.178333,19.355556,2026-03-05 13:22:45.558906,15.21,14.07,15.21,15.21,1025,49,2.2,324,0,0.0,Clear,clear sky,13
Hernád,47.161389,19.4025,2026-03-05 13:22:46.753373,13.82,12.51,13.82,13.82,1024,48,1.89,317,0,0.0,Clear,clear sky,13
Bakonygyirót,47.416389,17.811944,2026-03-05 13:22:47.948955,14.59,13.44,13.71,14.59,1025,51,2.48,318,0,0.0,Clear,clear sky,13
Vinye,47.360317,17.819635,2026-03-05 13:22:49.156096,13.03,11.75,13.03,13.91,1025,52,2.65,321,0,0.0,Clear,clear sky,13
Nemesgörzsöny,47.402924,17.376385,2026-03-05 13:22:50.360074,14.16,13.04,14.16,14.16,1025,54,2.06,350,0,0.0,Clear,clear sky,13
Rábahíd,47.438618,17.337525,2026-03-05 13:22:51.562850,14.15,13.03,14.15,14.15,1025,54,2.06,350,0,0.0,Clear,clear sky,13
Öskü,47.162222,18.076389,2026-03-05 13:22:52.765128,14.11,12.88,14.11,14.11,1025,50,3.04,339,0,0.0,Clear,clear sky,13
Márkó,47.1275,17.813889,2026-03-05 13:22:53.964898,13.72,12.58,13.72,13.75,1025,55,2.02,333,0,0.0,Clear,clear sky,13
Nemeskocs,47.203333,17.188889,2026-03-05 13:22:55.161833,14.11,12.93,14.11,14.11,1025,52,1.8,348,0,0.0,Clear,clear sky,13
Zalagyömörő,47.011111,17.220833,2026-03-05 13:22:56.364066,14.65,13.55,14.65,14.65,1025,53,2.0,353,0,0.0,Clear,clear sky,13
Rigács,47.061667,17.199167,2026-03-05 13:22:57.568169,14.6,13.5,14.6,14.6,1025,53,1.98,352,0,0.0,Clear,clear sky,13
Kemenespálfa,47.139722,17.183056,2026-03-05 13:22:58.774855,14.69,13.6,14.69,14.69,1025,53,1.88,351,0,0.0,Clear,clear sky,13
Lentiszombathely,46.611389,16.5725,2026-03-05 13:22:59.973380,14.02,12.76,14.02,14.02,1025,49,0.12,20,0,0.0,Clear,clear sky,13
Ortaháza,46.626667,16.685833,2026-03-05 13:23:01.171779,14.72,13.58,14.72,14.72,1025,51,0.54,350,0,0.0,Clear,clear sky,13
Rádiháza,46.654722,16.765833,2026-03-05 13:23:02.375359,14.65,13.5,14.65,14.65,1025,51,0.81,353,0,0.0,Clear,clear sky,13
Baktüttös,46.690833,16.826389,2026-03-05 13:23:03.581256,14.6,13.5,14.6,14.6,1025,53,1.32,354,0,0.0,Clear,clear sky,13
Budafa,46.851667,16.624722,2026-03-05 13:23:04.784328,14.67,13.5,14.67,14.67,1025,50,0.48,11,0,0.0,Clear,clear sky,13
Zalapatakalja,46.845556,16.603889,2026-03-05 13:23:05.999980,14.67,13.5,14.67,14.67,1025,50,0.17,65,0,0.0,Clear,clear sky,13
Tormásliget,47.430556,16.781667,2026-03-05 13:23:07.194702,15.86,14.99,15.86,15.86,1025,57,1.47,12,0,0.0,Clear,clear sky,13
Belecska,46.64,18.411389,2026-03-05 13:23:08.402156,14.84,13.63,14.84,14.84,1025,48,2.86,341,0,0.0,Clear,clear sky,13
Almár,47.956111,20.356944,2026-03-05 13:23:09.606328,14.7,13.77,14.7,14.7,1024,59,1.99,215,58,0.0,Clouds,broken clouds,13
Vasútmúzeum,47.543889,19.099444,2026-03-05 13:23:10.810267,16.71,15.22,15.23,17.17,1025,30,3.13,264,0,0.0,Clear,clear sky,13
Abda,47.690833,17.540556,2026-03-05 13:23:12.018367,15.09,13.88,15.09,15.09,1025,47,1.7,320,0,0.0,Clear,clear sky,13
Vadaspark,47.526111,18.949167,2026-03-05 13:23:13.223821,14.73,13.07,13.42,15.36,1025,31,3.13,264,0,0.0,Clear,clear sky,13
Barosstelep,47.398889,18.989167,2026-03-05 13:23:14.417763,16.72,15.26,15.29,17.23,1025,31,1.4,328,0,0.0,Clear,clear sky,13
Fegyvernek-Örményes,47.194444,20.5575,2026-03-05 13:23:15.614440,15.02,13.88,15.02,15.02,1025,50,2.43,81,5,0.0,Clear,clear sky,13
Zagyvapálfalva,48.068889,19.785,2026-03-05 13:23:16.810702,11.19,9.88,11.19,11.19,1024,58,1.68,237,98,0.0,Clouds,overcast clouds,13
Salgótarján,48.105556,19.807222,2026-03-05 13:23:18.018277,10.6,9.2,10.6,10.6,1024,57,1.77,248,91,0.0,Clouds,overcast clouds,13
Szabadisóstó,46.933889,18.118056,2026-03-05 13:23:19.220949,14.95,13.6,14.95,14.95,1025,42,2.57,348,0,0.0,Clear,clear sky,13
Siófok,46.907778,18.053889,2026-03-05 13:23:20.425718,14.95,13.6,14.95,14.95,1025,42,2.22,348,0,0.0,Clear,clear sky,13
Balatonszéplak felső,46.898056,18.018056,2026-03-05 13:23:21.621979,14.95,13.6,14.95,14.95,1025,42,2.05,347,0,0.0,Clear,clear sky,13
Balatonszéplak alsó,46.891944,17.993333,2026-03-05 13:23:22.817946,14.95,13.6,14.95,14.95,1025,42,3.58,225,0,0.0,Clear,clear sky,13
Zamárdi felső,46.886111,17.969444,2026-03-05 13:23:24.017879,14.96,13.61,14.93,14.96,1025,42,3.58,225,0,0.0,Clear,clear sky,13
Zamárdi,46.88,17.944722,2026-03-05 13:23:25.218434,14.9,13.54,14.86,14.9,1025,42,3.58,225,0,0.0,Clear,clear sky,13
Szántód,46.861944,17.899167,2026-03-05 13:23:26.426707,14.97,13.62,14.94,14.97,1025,42,3.58,225,0,0.0,Clear,clear sky,13
Szőny-Déli,47.735278,18.141944,2026-03-05 13:23:27.633251,15.12,13.71,15.12,16.73,1025,39,2.8,327,4,0.0,Clear,clear sky,13
Várpalota,47.194444,18.149167,2026-03-05 13:23:28.829981,13.87,12.49,13.87,13.87,1025,45,3.36,339,0,0.0,Clear,clear sky,13
Pétfürdő,47.1675,18.121389,2026-03-05 13:23:30.036199,14.3,13.01,14.3,14.3,1025,47,3.27,339,0,0.0,Clear,clear sky,13
Hajmáskér,47.141111,18.009444,2026-03-05 13:23:31.231671,14.55,13.39,14.51,14.55,1025,51,2.94,338,0,0.0,Clear,clear sky,13
Veszprém,47.118889,17.91,2026-03-05 13:23:32.435830,14.31,13.23,14.31,14.34,1025,55,2.3,336,0,0.0,Clear,clear sky,13
Herend,47.136944,17.760278,2026-03-05 13:23:33.644268,13.49,12.33,13.49,13.53,1025,55,1.97,332,0,0.0,Clear,clear sky,13
Városlőd,47.144167,17.652778,2026-03-05 13:23:34.845459,13.66,12.52,12.98,13.66,1025,55,2.05,332,0,0.0,Clear,clear sky,13
Városlőd-Kislőd,47.133889,17.631111,2026-03-05 13:23:36.043121,13.77,12.64,13.09,13.77,1025,55,2.05,333,0,0.0,Clear,clear sky,13
Ajka,47.105902,17.572938,2026-03-05 13:23:37.238553,14.07,12.97,13.39,14.07,1025,55,2.24,336,0,0.0,Clear,clear sky,13
Ajka-Gyártelep,47.096806,17.555219,2026-03-05 13:23:38.435087,14.12,13.02,13.44,14.12,1025,55,2.24,336,0,0.0,Clear,clear sky,13
Devecser,47.1125,17.435278,2026-03-05 13:23:39.644745,14.53,13.47,13.84,14.53,1025,55,2.31,339,0,0.0,Clear,clear sky,13
Somlóvásárhely,47.124444,17.369167,2026-03-05 13:23:40.860647,14.64,13.54,13.95,14.64,1025,53,2.08,343,0,0.0,Clear,clear sky,13
Tüskevár,47.128611,17.331389,2026-03-05 13:23:42.065784,14.67,13.58,13.99,14.67,1025,53,2.01,344,0,0.0,Clear,clear sky,13
Karakószörcsök,47.133611,17.287778,2026-03-05 13:23:43.271474,14.62,13.52,14.62,14.62,1025,53,1.96,346,0,0.0,Clear,clear sky,13
Kerta,47.151944,17.237222,2026-03-05 13:23:44.466853,14.73,13.64,14.73,14.73,1025,53,1.85,349,0,0.0,Clear,clear sky,13
Boba,47.183333,17.191389,2026-03-05 13:23:45.663708,14.7,13.58,14.7,14.7,1025,52,1.82,349,0,0.0,Clear,clear sky,13
Börgönd,47.140278,18.515,2026-03-05 13:23:46.882112,14.41,12.95,14.41,14.41,1025,40,3.06,327,0,0.0,Clear,clear sky,13
Belsőbáránd,47.102778,18.499722,2026-03-05 13:23:48.091669,14.39,12.93,14.39,14.39,1025,40,3.11,329,0,0.0,Clear,clear sky,13
Zichyújfalu,47.124444,18.6725,2026-03-05 13:23:49.299044,14.37,13.01,14.37,14.37,1025,44,2.63,321,0,0.0,Clear,clear sky,13
Seregélyes,47.121111,18.580556,2026-03-05 13:23:50.577624,14.54,13.12,14.54,14.54,1025,41,2.97,325,0,0.0,Clear,clear sky,13
Polgárdi-Ipartelepek,47.079167,18.314444,2026-03-05 13:23:51.771949,14.19,12.74,14.19,14.19,1025,41,3.28,340,0,0.0,Clear,clear sky,13
Polgárdi,47.07,18.284167,2026-03-05 13:23:52.967425,14.19,12.74,14.19,14.19,1025,41,3.28,340,0,0.0,Clear,clear sky,13
Füle,47.05,18.255278,2026-03-05 13:23:54.173086,14.18,12.75,14.18,14.18,1025,42,3.23,342,0,0.0,Clear,clear sky,13
Zánka-Erzsébettábor,46.8775,17.709167,2026-03-05 13:23:55.375632,14.9,13.54,14.87,14.9,1025,42,1.71,327,0,0.0,Clear,clear sky,13
Csajág,47.033889,18.186389,2026-03-05 13:23:56.576381,14.79,13.5,14.79,14.79,1025,45,2.96,346,0,0.0,Clear,clear sky,13
Balatonakarattya,47.017222,18.167778,2026-03-05 13:23:57.771531,14.64,13.33,14.64,14.64,1025,45,2.96,346,0,0.0,Clear,clear sky,13
Csittényhegy,47.025278,18.1375,2026-03-05 13:23:58.966683,14.86,13.6,14.86,14.86,1025,46,2.84,346,0,0.0,Clear,clear sky,13
Balatonkenese,47.0325,18.105556,2026-03-05 13:24:00.170263,14.94,13.72,14.94,14.94,1025,47,2.72,346,0,0.0,Clear,clear sky,13
Balatonfűzfő,47.060278,18.0425,2026-03-05 13:24:01.381554,14.97,13.62,14.93,14.97,1025,42,2.4,345,0,0.0,Clear,clear sky,13
Balatonalmádi,47.028333,18.015,2026-03-05 13:24:02.584839,14.94,13.59,14.91,14.94,1025,42,2.29,346,0,0.0,Clear,clear sky,13
Káptalanfüred,47.008889,18.003889,2026-03-05 13:24:03.787839,14.97,13.62,14.93,14.97,1025,42,2.05,346,0,0.0,Clear,clear sky,13
Alsóörs,46.985278,17.974722,2026-03-05 13:24:04.985277,14.98,13.63,14.95,14.98,1025,42,3.58,225,0,0.0,Clear,clear sky,13
Csopak,46.974722,17.931111,2026-03-05 13:24:06.179831,14.85,13.49,14.82,14.85,1025,42,3.58,225,0,0.0,Clear,clear sky,13
Balatonarács,46.9625,17.8975,2026-03-05 13:24:07.375440,14.75,13.38,14.72,14.75,1025,42,3.58,225,0,0.0,Clear,clear sky,13
Balatonfüred,46.955833,17.883056,2026-03-05 13:24:08.579374,14.82,13.45,14.79,14.82,1025,42,3.58,225,0,0.0,Clear,clear sky,13
Aszófő,46.925556,17.8325,2026-03-05 13:24:09.774911,14.92,13.56,14.88,14.92,1025,42,3.58,225,0,0.0,Clear,clear sky,13
Örvényes,46.9125,17.818056,2026-03-05 13:24:10.976846,14.94,13.59,14.9,14.94,1025,42,3.58,225,0,0.0,Clear,clear sky,13
Balatonudvari,46.904722,17.808056,2026-03-05 13:24:12.194032,14.97,13.62,14.94,14.97,1025,42,3.58,225,0,0.0,Clear,clear sky,13
Fövenyes,46.893611,17.789444,2026-03-05 13:24:13.403124,14.99,13.64,14.95,14.99,1025,42,3.58,225,0,0.0,Clear,clear sky,13
Balatonakali-Dörgicse,46.88,17.747778,2026-03-05 13:24:14.598770,14.98,13.63,14.95,14.98,1025,42,1.55,329,0,0.0,Clear,clear sky,13
Zánka-Köveskál,46.872778,17.687778,2026-03-05 13:24:15.802597,14.97,13.62,14.94,14.97,1025,42,1.79,327,0,0.0,Clear,clear sky,13
Balatonszepezd,46.851111,17.663056,2026-03-05 13:24:16.998030,14.97,13.62,14.94,14.97,1025,42,1.8,326,0,0.0,Clear,clear sky,13
Szepezdfürdő,46.839722,17.649444,2026-03-05 13:24:18.212675,14.94,13.95,14.91,14.94,1025,56,1.88,328,0,0.0,Clear,clear sky,13
Révfülöp,46.829167,17.632222,2026-03-05 13:24:19.413076,14.95,13.96,14.92,14.95,1025,56,1.88,328,0,0.0,Clear,clear sky,13
Balatonrendes,46.824722,17.582778,2026-03-05 13:24:20.643967,14.95,13.99,14.92,14.95,1025,57,2.09,333,0,0.0,Clear,clear sky,13
Ábrahámhegy,46.815,17.572222,2026-03-05 13:24:21.840764,14.92,13.96,14.88,14.92,1025,57,2.09,333,0,0.0,Clear,clear sky,13
Badacsonyörs,46.805556,17.531667,2026-03-05 13:24:23.046046,14.94,13.98,14.94,14.94,1025,57,2.13,335,0,0.0,Clear,clear sky,13
Kisújszállás,47.223889,20.751111,2026-03-05 13:24:24.243761,12.46,11.01,12.46,12.46,1025,48,2.49,71,6,0.0,Clear,clear sky,13
Karcag,47.303333,20.928056,2026-03-05 13:24:25.499899,12.24,10.77,12.24,12.24,1025,48,2.44,60,6,0.0,Clear,clear sky,13
Püspökladány,47.3275,21.128889,2026-03-05 13:24:26.699549,12.37,10.89,12.37,12.37,1025,47,2.56,43,6,0.0,Clear,clear sky,13
Kaba,47.368889,21.259444,2026-03-05 13:24:27.902670,14.1,12.77,14.1,14.1,1025,46,2.85,28,7,0.0,Clear,clear sky,13
Hajdúszoboszló,47.429444,21.406944,2026-03-05 13:24:29.111234,14.09,12.34,14.09,14.09,1025,30,2.57,350,0,0.0,Clear,clear sky,13
Ebes,47.462778,21.488889,2026-03-05 13:24:30.317181,14.04,12.28,14.04,14.04,1025,30,2.57,350,0,0.0,Clear,clear sky,13
Debrecen,47.520278,21.628611,2026-03-05 13:24:31.516049,13.92,12.15,13.92,13.92,1025,30,2.57,350,0,0.0,Clear,clear sky,13
Debrecen-Csapókert,47.540556,21.648056,2026-03-05 13:24:32.730813,13.87,12.1,13.87,13.87,1025,30,2.57,350,0,0.0,Clear,clear sky,13
Apafa,47.584045,21.655858,2026-03-05 13:24:33.927089,13.83,12.05,13.83,13.83,1025,30,2.57,350,0,0.0,Clear,clear sky,13
Bocskaikert,47.6425,21.666389,2026-03-05 13:24:35.130602,13.76,11.97,13.76,13.76,1025,30,2.57,350,0,0.0,Clear,clear sky,13
Hajdúhadház,47.686944,21.679167,2026-03-05 13:24:36.336968,13.73,12.33,13.73,13.73,1025,45,4.59,2,7,0.0,Clear,clear sky,13
Téglás,47.714722,21.684722,2026-03-05 13:24:37.539421,13.8,12.41,13.8,13.8,1025,45,4.58,2,6,0.0,Clear,clear sky,13
Újfehértó,47.814444,21.706389,2026-03-05 13:24:38.735129,12.24,10.72,12.24,12.24,1025,46,4.53,4,5,0.0,Clear,clear sky,13
Nyíregyháza,47.946667,21.705556,2026-03-05 13:24:39.937597,12.26,10.72,12.26,12.26,1025,45,4.46,7,3,0.0,Clear,clear sky,13
Sóstó,47.998051,21.729047,2026-03-05 13:24:41.139126,12.28,10.71,12.28,12.28,1025,44,4.96,4,2,0.0,Clear,clear sky,13
Sóstóhegy,48.012222,21.742778,2026-03-05 13:24:42.341781,12.37,10.81,12.37,12.37,1025,44,4.95,5,2,0.0,Clear,clear sky,13
Kemecse,48.065556,21.801667,2026-03-05 13:24:43.547066,12.46,10.88,12.46,12.46,1025,43,5.36,1,1,0.0,Clear,clear sky,13
Nyírbogdány,48.082222,21.855278,2026-03-05 13:24:44.748510,12.47,10.87,12.47,12.47,1025,42,5.51,359,2,0.0,Clear,clear sky,13
Kék,48.093333,21.883889,2026-03-05 13:24:45.949160,12.52,10.92,12.52,12.52,1025,42,5.75,355,1,0.0,Clear,clear sky,13
Demecser,48.111667,21.926667,2026-03-05 13:24:47.157331,12.57,10.95,12.57,12.57,1025,41,5.78,353,2,0.0,Clear,clear sky,13
Gégény,48.128333,21.951944,2026-03-05 13:24:48.353766,12.58,10.96,12.58,12.58,1025,41,5.79,351,2,0.0,Clear,clear sky,13
Pátroha,48.158611,21.996667,2026-03-05 13:24:49.557519,12.64,11.0,12.64,12.64,1025,40,5.79,349,3,0.0,Clear,clear sky,13
Ajak,48.1865,22.048972,2026-03-05 13:24:50.762263,12.67,11.04,12.67,12.67,1025,40,5.77,347,4,0.0,Clear,clear sky,13
Kisvárda,48.208333,22.078333,2026-03-05 13:24:51.968115,12.7,11.07,12.7,12.7,1025,40,5.73,344,5,0.0,Clear,clear sky,13
Kisvárda-Hármasút,48.228333,22.091944,2026-03-05 13:24:53.173140,12.7,11.07,12.7,12.7,1025,40,5.73,344,5,0.0,Clear,clear sky,13
Fényeslitke,48.267222,22.107222,2026-03-05 13:24:54.376074,12.67,11.01,12.67,12.67,1024,39,5.66,342,6,0.0,Clear,clear sky,13
Komoró,48.305278,22.118056,2026-03-05 13:24:55.571061,12.69,11.03,12.69,12.69,1024,39,5.64,342,7,0.0,Clear,clear sky,13
Tuzsér,48.342222,22.131667,2026-03-05 13:24:56.791306,12.64,10.98,12.64,12.64,1024,39,5.58,341,8,0.0,Clear,clear sky,13
Tiszabezdéd,48.371389,22.145,2026-03-05 13:24:57.994941,12.67,10.98,12.67,12.67,1024,38,5.51,339,8,0.0,Clear,clear sky,13
Záhony,48.402222,22.183611,2026-03-05 13:24:59.198088,12.67,10.98,12.67,12.67,1024,38,5.39,338,9,0.0,Clear,clear sky,13
Karcag-Vásártér,47.3225,20.9075,2026-03-05 13:25:00.400541,12.24,10.77,12.24,12.24,1025,48,2.44,60,6,0.0,Clear,clear sky,13
Berekfürdő,47.374722,20.827222,2026-03-05 13:25:01.601607,12.04,10.61,12.04,12.04,1025,50,2.28,69,6,0.0,Clear,clear sky,13
Kunmadaras,47.415278,20.793056,2026-03-05 13:25:02.796025,11.84,10.44,11.84,11.84,1025,52,2.1,72,6,0.0,Clear,clear sky,13
Tiszaszentimre,47.490833,20.733056,2026-03-05 13:25:03.999905,11.57,10.22,11.57,11.57,1024,55,1.7,79,6,0.0,Clear,clear sky,13
Tiszaszőlős,47.555556,20.728056,2026-03-05 13:25:05.206246,11.38,10.06,11.38,11.38,1024,57,1.33,75,6,0.0,Clear,clear sky,13
Hosszúhát,47.235556,21.101944,2026-03-05 13:25:06.417334,12.62,11.11,12.62,12.62,1025,45,2.65,48,6,0.0,Clear,clear sky,13
Szerep,47.234444,21.145833,2026-03-05 13:25:07.616457,12.64,11.11,12.64,12.64,1025,44,2.68,45,6,0.0,Clear,clear sky,13
Sárrétudvari,47.231667,21.180833,2026-03-05 13:25:08.823907,12.66,11.13,12.66,12.66,1025,44,2.72,43,6,0.0,Clear,clear sky,13
Biharnagybajom,47.208889,21.221944,2026-03-05 13:25:10.022374,12.73,11.18,12.73,12.73,1025,43,2.86,39,7,0.0,Clear,clear sky,13
Füzesgyarmat,47.113056,21.194444,2026-03-05 13:25:11.227889,12.9,11.37,12.9,12.9,1025,43,2.89,45,6,0.0,Clear,clear sky,13
Füzesgyarmatfürdő,47.093787,21.201582,2026-03-05 13:25:12.435724,12.9,11.37,12.9,12.9,1025,43,2.89,45,6,0.0,Clear,clear sky,13
Báránd,47.299722,21.235278,2026-03-05 13:25:13.645369,12.56,11.05,12.56,12.56,1025,45,2.79,34,7,0.0,Clear,clear sky,13
Sáp,47.259722,21.360556,2026-03-05 13:25:14.839992,12.73,11.18,12.73,12.73,1025,43,3.01,31,7,0.0,Clear,clear sky,13
Berettyóújfalu,47.211944,21.535556,2026-03-05 13:25:16.042712,12.89,11.25,12.89,12.89,1025,39,3.55,22,7,0.0,Clear,clear sky,13
Mezőpeterd,47.176111,21.625278,2026-03-05 13:25:17.247754,14.17,12.63,14.17,14.28,1025,38,3.76,17,7,0.0,Clear,clear sky,13
Biharkeresztes,47.135556,21.721389,2026-03-05 13:25:18.449616,14.14,12.55,14.14,14.25,1025,36,3.09,340,7,0.0,Clear,clear sky,13
Tócóvölgy,47.529444,21.588889,2026-03-05 13:25:19.659515,13.97,12.21,13.97,13.97,1025,30,2.57,350,0,0.0,Clear,clear sky,13
Sáregres,46.7825,18.588889,2026-03-05 13:25:20.855189,14.72,13.53,14.72,14.72,1025,49,2.78,334,0,0.0,Clear,clear sky,13
Simontornya,46.756582,18.540674,2026-03-05 13:25:22.050421,14.69,13.47,14.69,14.69,1025,48,2.88,339,0,0.0,Clear,clear sky,13
Tolnanémedi,46.727778,18.475833,2026-03-05 13:25:23.250642,14.78,13.57,14.78,14.78,1025,48,2.9,340,0,0.0,Clear,clear sky,13
Pincehely,46.681389,18.43,2026-03-05 13:25:24.441641,14.7,13.45,14.7,14.7,1025,47,2.92,342,0,0.0,Clear,clear sky,13
Keszőhidegkút-Gyönk,46.597778,18.426111,2026-03-05 13:25:25.642884,14.76,13.57,14.76,14.76,1025,49,2.84,340,0,0.0,Clear,clear sky,13
Szárazd,46.575556,18.420833,2026-03-05 13:25:26.846251,14.8,13.62,14.8,14.8,1025,49,2.82,338,0,0.0,Clear,clear sky,13
Regöly,46.568889,18.396111,2026-03-05 13:25:28.039133,14.8,13.62,14.8,14.8,1025,49,2.82,338,0,0.0,Clear,clear sky,13
Szakály-Hőgyész,46.523611,18.389444,2026-03-05 13:25:29.249980,14.73,13.56,14.73,14.73,1025,50,2.78,336,0,0.0,Clear,clear sky,13
Dúzs,46.493889,18.377222,2026-03-05 13:25:30.455476,14.77,13.63,14.77,14.77,1025,51,2.77,335,0,0.0,Clear,clear sky,13
Csibrák,46.466667,18.336389,2026-03-05 13:25:31.651159,14.84,13.71,14.84,14.84,1025,51,2.75,334,0,0.0,Clear,clear sky,13
Kurd,46.449167,18.319167,2026-03-05 13:25:32.858755,14.5,13.36,14.5,14.5,1025,52,2.75,333,0,0.0,Clear,clear sky,13
Döbrököz,46.418889,18.255,2026-03-05 13:25:34.073887,14.82,13.74,14.82,14.82,1025,53,2.7,332,0,0.0,Clear,clear sky,13
Dombóvár,46.37,18.149722,2026-03-05 13:25:35.269111,14.83,13.78,14.83,14.83,1025,54,2.58,329,0,0.0,Clear,clear sky,13
Dombóvár alsó,46.363889,18.134167,2026-03-05 13:25:36.465262,14.83,13.78,14.83,14.83,1025,54,2.58,329,0,0.0,Clear,clear sky,13
Somoskőújfalu,48.154722,19.815556,2026-03-05 13:25:37.672308,9.55,8.8,9.55,9.55,1024,57,1.85,255,79,0.0,Clouds,broken clouds,13
Jászfényszaru,47.593056,19.754444,2026-03-05 13:25:38.869151,12.51,11.28,12.51,12.51,1025,56,1.81,112,0,0.0,Clear,clear sky,13
Pusztamonostor,47.564444,19.794167,2026-03-05 13:25:40.074245,16.05,15.17,16.05,16.05,1025,56,1.82,107,0,0.0,Clear,clear sky,13
Jászberény,47.494444,19.893333,2026-03-05 13:25:41.277336,16.15,15.26,16.15,16.15,1024,55,1.92,100,6,0.0,Clear,clear sky,13
Meggyespele,47.441944,19.938889,2026-03-05 13:25:42.476632,16.17,14.94,16.17,16.17,1024,42,2.07,102,8,0.0,Clear,clear sky,13
Portelek,47.418056,19.958889,2026-03-05 13:25:43.677810,16.19,14.96,16.19,16.19,1025,42,2.12,104,9,0.0,Clear,clear sky,13
Jászboldogháza-Jánoshida,47.366944,20.001389,2026-03-05 13:25:44.879734,16.18,14.95,16.18,16.18,1024,42,2.22,107,10,0.0,Clear,clear sky,13
Jászárokszállás,47.635556,19.971111,2026-03-05 13:25:46.080799,12.02,10.74,12.02,12.02,1025,56,1.46,119,0,0.0,Clear,clear sky,13
Jászdózsa,47.563056,20.028056,2026-03-05 13:25:47.275450,12.0,10.72,12.0,12.0,1025,56,1.57,111,0,0.0,Clear,clear sky,13
Jászapáti,47.513611,20.155,2026-03-05 13:25:48.478035,11.92,10.6,11.92,11.92,1024,55,1.83,107,3,0.0,Clear,clear sky,13
Jászkisér,47.456111,20.203333,2026-03-05 13:25:49.672786,12.04,10.71,12.04,12.04,1024,54,2.1,102,7,0.0,Clear,clear sky,13
Jászladány,47.373333,20.159167,2026-03-05 13:25:50.867824,16.23,15.27,15.01,16.23,1025,52,2.36,101,9,0.0,Clear,clear sky,13
Szászberek,47.320556,20.090833,2026-03-05 13:25:52.071804,16.21,14.98,15.01,16.22,1024,42,2.34,104,10,0.0,Clear,clear sky,13
Gyöngyöshalász,47.743056,19.932222,2026-03-05 13:25:53.269574,11.67,10.41,11.67,11.67,1024,58,1.41,159,5,0.0,Clear,clear sky,13
Gyöngyös,47.783056,19.937222,2026-03-05 13:25:54.470365,11.17,9.86,11.17,11.17,1024,58,1.44,170,13,0.0,Clouds,few clouds,13
Erdőtelek,47.683333,20.3025,2026-03-05 13:25:55.678367,11.06,9.74,11.06,11.06,1024,58,1.42,155,0,0.0,Clear,clear sky,13
Heves,47.609444,20.306111,2026-03-05 13:25:56.873919,11.38,10.04,11.38,11.38,1024,56,1.59,127,0,0.0,Clear,clear sky,13
Hevesvezekény,47.562222,20.365833,2026-03-05 13:25:58.073513,11.4,10.06,11.4,11.4,1024,56,1.69,121,2,0.0,Clear,clear sky,13
Tarnaszentmiklós,47.546944,20.390833,2026-03-05 13:25:59.287962,11.49,10.13,11.49,11.49,1024,55,1.8,115,3,0.0,Clear,clear sky,13
Kisköre,47.495556,20.481667,2026-03-05 13:26:00.582448,11.58,10.23,11.58,11.58,1024,55,1.93,102,6,0.0,Clear,clear sky,13
Abádszalók,47.455278,20.553056,2026-03-05 13:26:01.782474,11.63,10.26,11.63,11.63,1024,54,2.01,97,7,0.0,Clear,clear sky,13
Kunhegyes,47.376667,20.641111,2026-03-05 13:26:02.990008,11.89,10.49,11.89,11.89,1025,52,2.19,84,7,0.0,Clear,clear sky,13
Kenderes,47.254444,20.686111,2026-03-05 13:26:04.203504,12.38,10.95,12.38,12.38,1025,49,2.43,76,6,0.0,Clear,clear sky,13
Maklár,47.808056,20.404722,2026-03-05 13:26:05.501901,10.4,9.09,10.4,10.4,1024,61,1.52,196,15,0.0,Clouds,few clouds,13
Andornaktálya,47.852203,20.402295,2026-03-05 13:26:06.708446,14.98,14.13,14.98,14.98,1024,61,1.7,208,28,0.0,Clouds,scattered clouds,13
Eger,47.891667,20.381667,2026-03-05 13:26:07.906119,14.89,14.03,14.89,14.89,1024,61,1.93,208,39,0.0,Clouds,scattered clouds,13
Egervár,47.908056,20.380556,2026-03-05 13:26:09.101008,14.71,13.8,14.71,14.71,1024,60,1.98,211,45,0.0,Clouds,scattered clouds,13
Eger-Felnémet,47.936667,20.370556,2026-03-05 13:26:10.312754,14.76,13.86,14.76,14.76,1024,60,2.0,215,51,0.0,Clouds,broken clouds,13
Szarvaskő,47.988611,20.3325,2026-03-05 13:26:11.511363,9.33,8.47,9.33,9.33,1024,59,1.93,218,60,0.0,Clouds,broken clouds,13
Mónosbél,48.031944,20.33,2026-03-05 13:26:12.708219,9.43,8.79,9.43,9.43,1024,58,1.71,226,58,0.0,Clouds,broken clouds,13
Bélapátfalva,48.055556,20.340556,2026-03-05 13:26:13.917209,9.2,8.66,9.2,9.2,1024,58,1.57,231,54,0.0,Clouds,broken clouds,13
Bélapátfalvi Cementgyár,48.058056,20.355,2026-03-05 13:26:15.111343,9.2,8.66,9.2,9.2,1024,58,1.57,231,54,0.0,Clouds,broken clouds,13
Szilvásvárad,48.11345,20.37919,2026-03-05 13:26:16.308444,8.88,8.56,8.88,8.88,1024,58,1.34,247,37,0.0,Clouds,scattered clouds,13
Hejőkeresztúr,47.960278,20.869444,2026-03-05 13:26:17.508946,12.21,10.64,11.83,12.21,1024,44,1.58,11,1,0.0,Clear,clear sky,13
Tiszaújváros,47.926111,21.030556,2026-03-05 13:26:18.705635,12.26,10.69,11.88,12.26,1024,44,2.25,352,6,0.0,Clear,clear sky,13
Miskolc-Gömöri,48.106667,20.800278,2026-03-05 13:26:19.904166,11.73,10.24,11.73,12.11,1023,49,0.72,358,10,0.0,Clear,clear sky,13
Sajókeresztúr,48.168008,20.774014,2026-03-05 13:26:21.104015,11.68,10.18,11.68,12.06,1024,49,0.58,309,17,0.0,Clouds,few clouds,13
Sajóecseg,48.186111,20.766667,2026-03-05 13:26:22.295791,11.72,10.23,11.72,12.1,1024,49,0.7,294,19,0.0,Clouds,few clouds,13
Sajószentpéter,48.222222,20.708056,2026-03-05 13:26:23.503624,11.62,10.12,11.62,15.03,1024,49,0.9,274,23,0.0,Clouds,few clouds,13
Kazincbarcika,48.264444,20.6275,2026-03-05 13:26:24.709757,11.62,10.46,11.62,11.62,1024,62,1.47,262,19,0.0,Clouds,few clouds,13
Sajókaza,48.272778,20.581944,2026-03-05 13:26:25.901312,11.61,10.42,11.61,11.61,1024,61,1.48,264,15,0.0,Clouds,few clouds,13
Vadna,48.276389,20.555278,2026-03-05 13:26:27.109130,11.6,10.41,11.6,11.6,1024,61,1.48,264,15,0.0,Clouds,few clouds,13
Dubicsány,48.280833,20.504722,2026-03-05 13:26:28.306324,11.42,10.18,11.42,11.42,1024,60,1.5,266,6,0.0,Clear,clear sky,13
Raposka,46.851389,17.412778,2026-03-05 13:26:29.503657,15.06,14.08,15.06,15.06,1025,56,2.16,343,0,0.0,Clear,clear sky,13
Ivacs,47.641944,19.273889,2026-03-05 13:26:30.702519,16.11,14.53,14.85,16.79,1025,29,1.0,167,7,0.0,Clear,clear sky,13
Kisköre-Tiszahíd,47.480835,20.507698,2026-03-05 13:26:31.908236,11.67,10.3,11.67,11.67,1024,54,2.03,98,7,0.0,Clear,clear sky,13
Rozsály,47.912778,22.7825,2026-03-05 13:26:33.105212,15.03,13.53,15.03,15.03,1023,36,4.53,321,2,0.0,Clear,clear sky,13
Pusztakettős,47.453611,20.749722,2026-03-05 13:26:34.303991,11.74,10.35,11.74,11.74,1025,53,1.99,76,6,0.0,Clear,clear sky,13
Kisvác,47.795278,19.113611,2026-03-05 13:26:35.505634,16.61,15.76,14.23,16.61,1025,55,0.97,189,5,0.0,Clear,clear sky,13
Tiszafüred-Gyártelep,47.6075,20.736111,2026-03-05 13:26:36.700673,11.2,9.92,11.2,11.2,1024,59,0.92,63,6,0.0,Clear,clear sky,13
Újkenéz,48.251111,22.221667,2026-03-05 13:26:37.898574,12.71,11.05,12.71,12.71,1024,39,5.44,339,6,0.0,Clear,clear sky,13
Püspökladány-Vásártér,47.319167,21.096111,2026-03-05 13:26:39.101581,12.44,10.97,12.44,12.44,1025,47,2.58,45,6,0.0,Clear,clear sky,13
Végegyháza alsó,46.3675,20.866944,2026-03-05 13:26:40.297282,14.51,13.32,14.51,14.51,1024,50,2.02,334,6,0.0,Clear,clear sky,13
Orosháza felső,46.553611,20.655278,2026-03-05 13:26:41.499432,15.51,14.42,15.51,15.51,1024,50,1.6,342,5,0.0,Clear,clear sky,13
Ambrózfalva,46.353056,20.740556,2026-03-05 13:26:42.701782,14.57,13.36,14.57,14.57,1024,49,2.03,331,6,0.0,Clear,clear sky,13
Alsónyék,46.199444,18.738056,2026-03-05 13:26:43.900070,17.49,16.63,17.49,17.49,1025,51,2.99,328,0,0.0,Clear,clear sky,13
Tompapuszta,46.321389,20.966389,2026-03-05 13:26:45.095063,15.06,13.93,15.06,15.06,1024,50,2.06,335,7,0.0,Clear,clear sky,13
Halászlak,46.911879,20.56228,2026-03-05 13:26:46.298955,15.54,14.48,15.54,15.54,1024,51,1.82,76,0,0.0,Clear,clear sky,13
Sirató,46.840556,20.61,2026-03-05 13:26:47.496260,15.55,14.47,15.55,15.55,1024,50,1.51,63,1,0.0,Clear,clear sky,13
Csabacsűd felső,46.829167,20.649167,2026-03-05 13:26:48.693046,15.54,14.46,15.54,15.54,1024,50,1.61,63,2,0.0,Clear,clear sky,13
Orosháza-Üveggyár,46.579979,20.683644,2026-03-05 13:26:49.894151,15.5,14.41,15.5,15.5,1024,50,1.53,348,5,0.0,Clear,clear sky,13
Gyulai városerdő,46.69482,21.32281,2026-03-05 13:26:51.090152,13.53,12.27,13.53,13.53,1024,51,2.39,32,5,0.0,Clear,clear sky,13
Kórógyszentgyörgy,46.564377,20.224998,2026-03-05 13:26:52.288898,15.01,13.82,15.01,15.55,1024,48,1.39,332,3,0.0,Clear,clear sky,13
Kunszállás,46.784444,19.767222,2026-03-05 13:26:53.492919,17.72,16.67,17.72,17.72,1024,43,1.71,316,0,0.0,Clear,clear sky,13
Selymes,46.655321,19.8534,2026-03-05 13:26:54.697939,17.78,16.74,17.78,17.78,1024,43,1.79,319,0,0.0,Clear,clear sky,13
Petőfiszállási tanyák,46.587805,19.874509,2026-03-05 13:26:55.895326,17.82,16.78,17.82,17.82,1024,43,1.81,317,0,0.0,Clear,clear sky,13
Kisteleki szőlők,46.514199,19.92868,2026-03-05 13:26:57.099951,17.81,16.85,17.81,17.81,1024,46,1.85,313,1,0.0,Clear,clear sky,13
Kapitányság,46.435336,19.987564,2026-03-05 13:26:58.294916,13.91,12.69,13.91,13.91,1024,51,1.94,311,3,0.0,Clear,clear sky,13
Őszeszék,46.39025,20.016017,2026-03-05 13:26:59.489498,13.94,12.72,13.94,13.94,1024,51,2.07,310,4,0.0,Clear,clear sky,13
Vilmaszállás,46.366389,20.030833,2026-03-05 13:27:00.694568,13.92,12.7,13.92,13.92,1024,51,1.79,312,4,0.0,Clear,clear sky,13
Jánosszállás,46.334359,20.051199,2026-03-05 13:27:01.898684,13.95,12.73,13.95,13.95,1024,51,2.22,308,4,0.0,Clear,clear sky,13
Felsőpakony,47.343056,19.230556,2026-03-05 13:27:03.102851,15.51,14.27,15.25,17.19,1025,44,2.57,0,0,0.0,Clear,clear sky,13
Felsőméntelek,46.987074,19.557745,2026-03-05 13:27:04.304947,14.88,13.57,14.88,14.88,1024,44,1.54,0,0,0.0,Clear,clear sky,13
Alsóméntelek,46.961558,19.579121,2026-03-05 13:27:05.548924,14.91,13.61,14.91,14.91,1024,44,1.54,0,0,0.0,Clear,clear sky,13
Nagynyír,46.943319,19.585447,2026-03-05 13:27:06.745837,14.9,13.59,14.9,14.9,1024,44,1.54,0,0,0.0,Clear,clear sky,13
Úrihegy,46.917778,19.621389,2026-03-05 13:27:07.951624,17.6,16.67,17.6,17.6,1024,48,1.95,312,0,0.0,Clear,clear sky,13
Miklóstelep,46.913412,19.630913,2026-03-05 13:27:09.158177,17.62,16.69,17.62,17.62,1024,48,1.81,311,0,0.0,Clear,clear sky,13
Tiszajenő alsó,47.016944,20.134444,2026-03-05 13:27:10.361536,16.12,15.04,15.02,16.12,1024,48,2.06,60,0,0.0,Clear,clear sky,13
Óbög,46.987222,20.111111,2026-03-05 13:27:11.565204,15.77,14.6,15.01,16.1,1024,46,2.06,60,0,0.0,Clear,clear sky,13
Árpádszállás,46.866456,19.989163,2026-03-05 13:27:12.766148,16.76,15.61,15.1,17.77,1024,43,1.54,0,0,0.0,Clear,clear sky,13
Tőserdő,46.851111,19.980278,2026-03-05 13:27:13.962260,17.0,15.88,15.12,17.79,1024,43,1.54,0,0,0.0,Clear,clear sky,13
Tiszaalpár felső,46.836256,19.976753,2026-03-05 13:27:15.168869,17.2,16.1,14.95,17.82,1024,43,1.54,0,0,0.0,Clear,clear sky,13
Borsihalom,46.773056,19.92,2026-03-05 13:27:16.374803,17.58,16.52,14.94,17.81,1024,43,1.23,320,0,0.0,Clear,clear sky,13
Petőfiváros,46.725556,19.848611,2026-03-05 13:27:17.571190,17.77,16.73,17.77,17.77,1024,43,1.62,319,0,0.0,Clear,clear sky,13
Csorna,47.601944,17.248889,2026-03-05 13:27:18.765857,16.11,15.03,16.11,16.11,1025,48,1.87,320,0,0.0,Clear,clear sky,13
Szorgalmatos,47.986667,21.366389,2026-03-05 13:27:19.968024,11.9,10.53,11.9,11.9,1024,53,2.07,357,6,0.0,Clear,clear sky,13
Fótfürdő,47.6225,19.200556,2026-03-05 13:27:21.164286,16.31,14.75,14.85,16.79,1025,29,0.59,186,4,0.0,Clear,clear sky,13
Fenyveshegy,47.818333,19.068056,2026-03-05 13:27:22.370455,16.68,15.84,16.68,16.68,1025,55,0.76,206,4,0.0,Clear,clear sky,13
Hűvösvölgy,47.541202,18.96351,2026-03-05 13:27:23.575585,15.72,14.16,14.39,16.33,1025,31,1.79,349,0,0.0,Clear,clear sky,13
Hárshegy,47.535318,18.961433,2026-03-05 13:27:24.782797,15.72,14.16,14.39,16.33,1025,31,1.79,349,0,0.0,Clear,clear sky,13
Szépjuhászné,47.528277,18.955246,2026-03-05 13:27:25.980833,14.81,13.16,13.5,15.44,1025,31,1.79,349,0,0.0,Clear,clear sky,13
Jánoshegy,47.51433,18.95047,2026-03-05 13:27:27.175695,14.71,13.05,13.41,15.35,1025,31,1.79,349,0,0.0,Clear,clear sky,13
Virágvölgy,47.505965,18.95876,2026-03-05 13:27:28.379999,14.4,12.71,13.1,15.04,1025,31,1.79,349,0,0.0,Clear,clear sky,13
Csillebérc,47.498196,18.961694,2026-03-05 13:27:29.584457,14.16,12.44,12.86,14.81,1025,31,1.79,349,0,0.0,Clear,clear sky,13
Normafa,47.5,18.970558,2026-03-05 13:27:30.787498,14.22,12.51,12.92,14.86,1025,31,1.79,349,0,0.0,Clear,clear sky,13
Széchenyihegy,47.49413,18.977049,2026-03-05 13:27:31.989581,14.24,12.53,12.94,14.88,1025,31,1.79,349,0,0.0,Clear,clear sky,13
Balatonfőkajár felső,47.031389,18.215278,2026-03-05 13:27:33.185593,14.06,12.67,14.06,14.06,1025,44,3.07,345,0,0.0,Clear,clear sky,13
Piroska,47.148333,20.129722,2026-03-05 13:27:34.380273,15.64,14.46,15.02,16.23,1024,46,2.06,60,0,0.0,Clear,clear sky,13
Somodor,46.4725,17.836667,2026-03-05 13:27:35.568862,14.55,13.47,14.55,14.55,1025,54,2.54,336,0,0.0,Clear,clear sky,13
Középmező,45.995833,18.668889,2026-03-05 13:27:36.776185,17.48,16.51,16.17,17.48,1025,47,2.73,323,0,0.0,Clear,clear sky,13
Jobbágyi,47.828889,19.6875,2026-03-05 13:27:37.982008,12.12,10.9,12.12,12.12,1025,58,1.66,168,28,0.0,Clouds,scattered clouds,13
Ferihegy,47.437222,19.223889,2026-03-05 13:27:39.188628,15.26,13.86,15.08,17.03,1025,39,2.57,0,0,0.0,Clear,clear sky,13
Máriapócs,47.852778,22.019167,2026-03-05 13:27:40.387874,12.45,10.77,12.45,12.45,1024,39,6.0,348,2,0.0,Clear,clear sky,13
Máriaudvar,47.751944,19.165,2026-03-05 13:27:41.589292,16.64,15.8,14.26,16.64,1025,55,1.01,181,7,0.0,Clear,clear sky,13
Nagyberki,46.353333,18.004167,2026-03-05 13:27:42.783618,14.65,13.58,14.65,14.65,1025,54,2.47,330,0,0.0,Clear,clear sky,13
Badacsonytomaj,46.804722,17.518056,2026-03-05 13:27:43.984958,14.47,13.46,14.47,14.47,1025,57,2.13,335,0,0.0,Clear,clear sky,13
Badacsony,46.788611,17.506389,2026-03-05 13:27:45.204034,15.11,14.16,15.11,15.11,1025,57,2.13,338,0,0.0,Clear,clear sky,13
Badacsonylábdihegy,46.793889,17.470833,2026-03-05 13:27:46.409481,15.08,14.13,15.08,15.08,1025,57,2.13,338,0,0.0,Clear,clear sky,13
Badacsonytördemic-Szigliget,46.809722,17.469167,2026-03-05 13:27:47.614118,15.03,14.08,15.03,15.03,1025,57,2.17,337,0,0.0,Clear,clear sky,13
Nemesgulács-Kisapáti,46.836944,17.476389,2026-03-05 13:27:48.829428,14.92,13.96,14.92,15.07,1025,57,2.2,337,0,0.0,Clear,clear sky,13
Tapolca,46.877778,17.428611,2026-03-05 13:27:50.043648,14.83,13.83,14.83,14.99,1025,56,2.2,343,0,0.0,Clear,clear sky,13
Uzsabánya alsó,46.898333,17.345278,2026-03-05 13:27:51.240547,14.79,13.76,14.79,14.79,1025,55,2.12,347,0,0.0,Clear,clear sky,13
Uzsa,46.920278,17.331667,2026-03-05 13:27:52.448559,14.75,13.72,14.75,14.75,1025,55,2.15,347,0,0.0,Clear,clear sky,13
Sümegi Bazaltbánya,46.9525,17.2925,2026-03-05 13:27:53.653052,14.48,13.39,14.48,14.48,1025,54,2.1,348,0,0.0,Clear,clear sky,13
Sümeg,46.981111,17.270833,2026-03-05 13:27:54.851219,14.66,13.59,14.66,14.66,1025,54,2.04,352,0,0.0,Clear,clear sky,13
Gógánfa,47.021111,17.207778,2026-03-05 13:27:56.055842,14.65,13.55,14.65,14.65,1025,53,2.0,353,0,0.0,Clear,clear sky,13
Ukk,47.041944,17.195833,2026-03-05 13:27:57.255519,14.7,13.61,14.7,14.7,1025,53,1.97,353,0,0.0,Clear,clear sky,13
Nemeskeresztúr,47.093611,17.183611,2026-03-05 13:27:58.450572,14.63,13.53,14.63,14.63,1025,53,1.92,352,0,0.0,Clear,clear sky,13
Jánosháza,47.115833,17.171667,2026-03-05 13:27:59.665525,14.69,13.6,14.69,14.69,1025,53,1.88,351,0,0.0,Clear,clear sky,13
Keszthely,46.758333,17.248056,2026-03-05 13:28:00.872788,15.08,14.08,15.08,15.08,1025,55,2.06,360,0,0.0,Clear,clear sky,13
Alsógyenes,46.765844,17.276435,2026-03-05 13:28:02.075533,15.08,14.08,15.08,15.08,1025,55,2.06,360,0,0.0,Clear,clear sky,13
Gyenesdiás,46.763333,17.292778,2026-03-05 13:28:03.285257,15.08,14.08,15.08,15.08,1025,55,2.06,360,0,0.0,Clear,clear sky,13
Vonyarcvashegy,46.755278,17.318333,2026-03-05 13:28:04.491532,15.09,14.09,15.09,15.09,1025,55,2.06,360,0,0.0,Clear,clear sky,13
Balatongyörök,46.751944,17.354444,2026-03-05 13:28:05.688457,15.11,14.11,15.11,15.11,1025,55,2.06,360,0,0.0,Clear,clear sky,13
Becehegy,46.776111,17.372778,2026-03-05 13:28:06.894686,15.08,14.08,15.08,15.08,1025,55,2.06,360,0,0.0,Clear,clear sky,13
Balatonederics,46.8025,17.385,2026-03-05 13:28:08.104380,15.03,14.05,15.03,15.03,1025,56,2.08,346,0,0.0,Clear,clear sky,13
Dabronc,47.025766,17.167006,2026-03-05 13:28:09.301562,14.69,13.6,14.69,14.69,1025,53,1.99,354,0,0.0,Clear,clear sky,13
Türje,46.994444,17.093611,2026-03-05 13:28:10.506260,14.7,13.61,14.7,14.7,1025,53,2.01,356,0,0.0,Clear,clear sky,13
Zalabér-Batyk,46.983056,17.040833,2026-03-05 13:28:11.700229,14.82,13.74,14.82,14.82,1025,53,2.01,357,0,0.0,Clear,clear sky,13
Pakod,46.959167,16.996667,2026-03-05 13:28:12.897370,14.73,13.64,14.73,14.73,1025,53,2.0,357,0,0.0,Clear,clear sky,13
Pókaszepetk,46.924444,16.972222,2026-03-05 13:28:14.108860,14.85,13.77,14.85,14.85,1025,53,2.05,356,0,0.0,Clear,clear sky,13
Kemendollár,46.905833,16.946667,2026-03-05 13:28:15.318377,14.91,13.84,14.91,14.91,1025,53,2.01,356,0,0.0,Clear,clear sky,13
Zalaegerszeg,46.833056,16.848333,2026-03-05 13:28:16.514463,14.73,13.62,14.73,14.73,1025,52,1.54,357,0,0.0,Clear,clear sky,13
Bocfölde,46.780278,16.853611,2026-03-05 13:28:17.730180,14.79,13.71,14.79,14.79,1025,53,1.65,355,0,0.0,Clear,clear sky,13
Sárhida,46.755833,16.851389,2026-03-05 13:28:18.931230,14.75,13.66,14.75,14.75,1025,53,1.43,356,0,0.0,Clear,clear sky,13
Bak,46.7325,16.849167,2026-03-05 13:28:20.136914,14.77,13.69,14.77,14.77,1025,53,1.39,355,0,0.0,Clear,clear sky,13
Tófej,46.670833,16.801944,2026-03-05 13:28:21.345147,14.61,13.48,14.61,14.61,1025,52,1.14,354,0,0.0,Clear,clear sky,13
Gutorfölde,46.646944,16.739722,2026-03-05 13:28:22.565514,14.65,13.5,14.65,14.65,1025,51,0.81,353,0,0.0,Clear,clear sky,13
Csömödér-Páka,46.608056,16.641111,2026-03-05 13:28:23.766653,14.07,12.84,14.07,14.07,1025,50,0.45,351,0,0.0,Clear,clear sky,13
Iklódbördőce,46.603056,16.604722,2026-03-05 13:28:24.975472,14.07,12.81,14.07,14.07,1025,49,0.22,357,0,0.0,Clear,clear sky,13
Lenti,46.621389,16.528611,2026-03-05 13:28:26.171878,14.01,12.75,14.01,14.01,1025,49,0.1,135,0,0.0,Clear,clear sky,13
Rédics,46.618056,16.471111,2026-03-05 13:28:27.373427,14.01,12.75,14.01,14.01,1025,49,0.23,149,0,0.0,Clear,clear sky,13
Zalalövő,46.845556,16.576389,2026-03-05 13:28:28.581350,14.63,13.43,14.63,14.63,1025,49,0.22,126,0,0.0,Clear,clear sky,13
Zalaegerszeg-Ola,46.849167,16.844722,2026-03-05 13:28:29.788629,14.71,13.59,14.71,14.71,1025,52,1.54,357,0,0.0,Clear,clear sky,13
Andráshida,46.863116,16.7792,2026-03-05 13:28:30.990111,14.67,13.55,14.67,14.67,1025,52,1.41,358,0,0.0,Clear,clear sky,13
Bagod,46.875,16.746111,2026-03-05 13:28:32.197596,14.79,13.66,14.79,14.79,1025,51,1.08,360,0,0.0,Clear,clear sky,13
Zalaszentgyörgy,46.872222,16.7125,2026-03-05 13:28:33.394281,14.75,13.61,14.75,14.75,1025,51,0.9,3,0,0.0,Clear,clear sky,13
Zalacséb-Salomvár,46.858056,16.662222,2026-03-05 13:28:34.581208,14.26,13.05,14.26,14.26,1025,50,0.51,14,0,0.0,Clear,clear sky,13
Kópháza,47.631389,16.6375,2026-03-05 13:28:35.790328,15.11,13.93,15.11,15.77,1025,48,1.78,69,0,0.0,Clear,clear sky,13
Nagycenk,47.601111,16.690278,2026-03-05 13:28:36.997610,15.22,14.05,15.22,15.88,1025,48,1.64,61,0,0.0,Clear,clear sky,13
Sopronkövesd,47.548333,16.748056,2026-03-05 13:28:38.200219,15.71,14.82,15.05,15.71,1025,57,1.48,37,0,0.0,Clear,clear sky,13
Lövő,47.509444,16.7775,2026-03-05 13:28:39.407379,15.75,14.87,15.09,15.75,1025,57,1.54,15,0,0.0,Clear,clear sky,13
Újkér,47.457778,16.786667,2026-03-05 13:28:40.624242,15.77,14.89,15.77,15.77,1025,57,1.51,13,0,0.0,Clear,clear sky,13
Bük,47.388611,16.752222,2026-03-05 13:28:41.819641,15.83,14.96,15.83,15.83,1025,57,1.1,27,0,0.0,Clear,clear sky,13
Acsád,47.308333,16.734722,2026-03-05 13:28:43.024079,15.58,14.68,15.58,15.58,1025,57,0.65,29,0,0.0,Clear,clear sky,13
Salköveskút-Vassurány,47.291389,16.704167,2026-03-05 13:28:44.229271,15.59,14.69,15.59,15.59,1025,57,0.6,23,0,0.0,Clear,clear sky,13
Zalaszentiván,46.8875,16.909444,2026-03-05 13:28:45.435998,14.89,13.82,14.89,14.89,1025,53,1.85,357,0,0.0,Clear,clear sky,13
Alsónemesapáti,46.854167,16.936389,2026-03-05 13:28:46.637129,14.88,13.81,14.88,14.88,1025,53,2.04,356,0,0.0,Clear,clear sky,13
Józsa,47.600833,21.584444,2026-03-05 13:28:47.836778,13.86,12.08,13.86,13.86,1025,30,2.57,350,0,0.0,Clear,clear sky,13
Hajdúszentgyörgy,47.608056,21.578333,2026-03-05 13:28:49.035550,13.83,12.05,13.83,13.83,1025,30,2.57,350,0,0.0,Clear,clear sky,13
Zelemér,47.627778,21.578333,2026-03-05 13:28:50.244198,13.78,12.0,13.78,13.78,1025,30,2.57,350,0,0.0,Clear,clear sky,13
Hajdúböszörmény,47.668056,21.524167,2026-03-05 13:28:51.443704,13.85,12.6,13.85,13.85,1025,50,3.36,3,6,0.0,Clear,clear sky,13
Hajdúvid,47.749444,21.508056,2026-03-05 13:28:52.640976,12.07,10.66,12.07,12.07,1025,51,3.15,3,6,0.0,Clear,clear sky,13
Hajdúdorog,47.805556,21.493056,2026-03-05 13:28:53.839160,12.04,10.63,12.04,12.04,1025,51,3.02,4,6,0.0,Clear,clear sky,13
Hajdúnánás,47.831944,21.426667,2026-03-05 13:28:55.037814,11.97,10.63,11.97,11.97,1024,54,2.48,360,6,0.0,Clear,clear sky,13
Hajdúnánás-Vásártér,47.843056,21.407222,2026-03-05 13:28:56.231901,11.97,10.63,11.97,11.97,1024,54,2.48,360,6,0.0,Clear,clear sky,13
Tedej,47.903611,21.404444,2026-03-05 13:28:57.442311,11.95,10.58,11.95,11.95,1024,53,2.31,1,6,0.0,Clear,clear sky,13
Tiszavasvári,47.945278,21.374722,2026-03-05 13:28:58.649439,11.87,10.52,11.87,11.87,1024,54,2.1,356,6,0.0,Clear,clear sky,13
Egyházerdő,47.9725,21.365,2026-03-05 13:28:59.847660,11.9,10.56,11.9,11.9,1024,54,2.08,356,6,0.0,Clear,clear sky,13
Tiszalök,48.013056,21.369167,2026-03-05 13:29:01.046449,11.9,10.53,11.9,11.9,1024,53,2.08,357,6,0.0,Clear,clear sky,13
Hajnalos,47.998889,21.414167,2026-03-05 13:29:02.246342,11.99,10.6,11.99,11.99,1024,52,2.23,3,6,0.0,Clear,clear sky,13
Kisfástanya,47.989167,21.47,2026-03-05 13:29:03.445478,12.03,10.62,12.03,12.03,1024,51,2.43,7,6,0.0,Clear,clear sky,13
Tiszaeszlár,48.010556,21.491944,2026-03-05 13:29:04.648806,12.13,10.7,12.13,12.13,1024,50,2.65,11,5,0.0,Clear,clear sky,13
Bashalom,48.026111,21.514722,2026-03-05 13:29:05.853313,12.18,10.73,12.18,12.18,1024,49,2.62,12,5,0.0,Clear,clear sky,13
Sáránd,47.415556,21.625,2026-03-05 13:29:07.055615,14.01,12.25,14.01,14.01,1025,30,2.57,350,0,0.0,Clear,clear sky,13
Derecske,47.365,21.584167,2026-03-05 13:29:08.259178,14.08,12.33,14.08,14.08,1025,30,2.57,350,0,0.0,Clear,clear sky,13
Derecske-Vásártér,47.352222,21.58,2026-03-05 13:29:09.458285,14.08,12.33,14.08,14.08,1025,30,2.57,350,0,0.0,Clear,clear sky,13
Konyár,47.323611,21.666111,2026-03-05 13:29:10.645914,14.05,12.29,14.05,14.05,1025,30,2.57,350,0,0.0,Clear,clear sky,13
Konyári Sóstófürdő,47.324167,21.744444,2026-03-05 13:29:11.850445,14.06,12.54,14.06,14.06,1025,39,4.31,6,7,0.0,Clear,clear sky,13
Pocsaj-Esztár,47.288333,21.793056,2026-03-05 13:29:13.053060,14.05,12.48,14.05,14.13,1025,37,4.4,5,7,0.0,Clear,clear sky,13
Kismarja,47.243889,21.813889,2026-03-05 13:29:14.251606,14.13,12.56,14.13,14.24,1024,37,4.28,6,7,0.0,Clear,clear sky,13
Nagykereki,47.191667,21.8,2026-03-05 13:29:15.455919,14.12,12.53,14.12,14.23,1024,36,4.14,8,7,0.0,Clear,clear sky,13
Debrecen-Szabadságtelep,47.527778,21.658611,2026-03-05 13:29:16.650915,13.89,12.12,13.89,13.89,1025,30,2.57,350,0,0.0,Clear,clear sky,13
Kondoroskert,47.525556,21.713889,2026-03-05 13:29:17.845357,13.92,12.15,13.92,13.92,1025,30,2.57,350,0,0.0,Clear,clear sky,13
Nagycsere,47.523889,21.763056,2026-03-05 13:29:19.051798,13.9,12.13,13.9,13.9,1025,30,2.57,350,0,0.0,Clear,clear sky,13
Haláp,47.521667,21.818333,2026-03-05 13:29:20.264604,13.9,12.13,13.9,13.9,1025,30,2.57,350,0,0.0,Clear,clear sky,13
Vámospércs,47.518056,21.893889,2026-03-05 13:29:21.463597,13.84,12.3,13.84,13.84,1024,39,5.33,355,7,0.0,Clear,clear sky,13
Szentannapuszta,47.52,21.965833,2026-03-05 13:29:22.662651,13.79,12.22,13.79,13.79,1024,38,5.47,353,7,0.0,Clear,clear sky,13
Nyírábrány,47.523889,22.016944,2026-03-05 13:29:23.864789,12.74,11.06,12.74,12.74,1024,38,5.51,352,6,0.0,Clear,clear sky,13
Dombostanya,47.602778,21.706389,2026-03-05 13:29:25.060771,13.82,12.04,13.82,13.82,1025,30,2.57,350,0,0.0,Clear,clear sky,13
Hajdúsámson,47.608056,21.755278,2026-03-05 13:29:26.265766,13.82,12.04,13.82,13.82,1025,30,2.57,350,0,0.0,Clear,clear sky,13
Tamásipuszta,47.632778,21.796111,2026-03-05 13:29:27.477659,13.77,12.3,13.77,13.77,1025,42,5.18,358,7,0.0,Clear,clear sky,13
Aradványpuszta,47.662778,21.8425,2026-03-05 13:29:28.678676,13.72,12.24,13.72,13.72,1025,42,5.34,357,7,0.0,Clear,clear sky,13
Nyíradony,47.699444,21.903333,2026-03-05 13:29:29.882986,12.37,10.71,12.37,12.37,1025,40,5.72,353,7,0.0,Clear,clear sky,13
Nyírmihálydi,47.7375,21.958889,2026-03-05 13:29:31.078615,12.38,10.72,12.38,12.38,1024,40,5.81,351,6,0.0,Clear,clear sky,13
Nyírgelse,47.750833,21.987778,2026-03-05 13:29:32.273771,12.36,10.67,12.36,12.36,1024,39,5.88,350,5,0.0,Clear,clear sky,13
Nyírbogát,47.793056,22.066389,2026-03-05 13:29:33.480509,12.5,10.8,12.5,12.5,1024,38,6.0,346,3,0.0,Clear,clear sky,13
Nagykálló,47.871111,21.825833,2026-03-05 13:29:34.688367,12.36,10.75,12.36,12.36,1025,42,5.53,358,3,0.0,Clear,clear sky,13
Kállósemjén,47.854722,21.935,2026-03-05 13:29:35.895496,12.4,10.77,12.4,12.4,1025,41,5.86,353,3,0.0,Clear,clear sky,13
Nyírbátor,47.8425,22.131111,2026-03-05 13:29:37.099245,12.49,10.79,12.49,12.49,1024,38,6.01,345,2,0.0,Clear,clear sky,13
Nyírcsászári,47.865556,22.179167,2026-03-05 13:29:38.295885,12.62,10.93,12.62,12.62,1024,38,5.96,343,0,0.0,Clear,clear sky,13
Hodász,47.896111,22.213611,2026-03-05 13:29:39.500745,12.62,10.93,12.62,12.62,1024,38,5.82,342,0,0.0,Clear,clear sky,13
Nyírmeggyes,47.9225,22.256667,2026-03-05 13:29:40.702548,12.72,11.04,12.72,12.72,1024,38,5.69,341,0,0.0,Clear,clear sky,13
Mátészalka,47.951389,22.313333,2026-03-05 13:29:41.913186,12.8,11.13,12.8,12.8,1024,38,5.57,340,0,0.0,Clear,clear sky,13
Kocsord,47.941944,22.375833,2026-03-05 13:29:43.115780,13.03,11.35,13.03,13.03,1024,37,5.35,337,0,0.0,Clear,clear sky,13
Kocsord alsó,47.946389,22.400556,2026-03-05 13:29:44.316541,13.03,11.35,13.03,13.03,1024,37,5.35,337,0,0.0,Clear,clear sky,13
Győrtelek,47.936667,22.424722,2026-03-05 13:29:45.523063,13.09,11.42,13.09,13.09,1024,37,5.27,335,0,0.0,Clear,clear sky,13
Győrtelek alsó,47.921111,22.443333,2026-03-05 13:29:46.720728,13.15,11.46,13.15,13.15,1024,36,5.22,334,0,0.0,Clear,clear sky,13
Ököritófülpös,47.911389,22.495,2026-03-05 13:29:47.930874,13.2,11.52,13.2,13.2,1024,36,5.15,333,0,0.0,Clear,clear sky,13
Porcsalma-Tyukod,47.868056,22.568333,2026-03-05 13:29:49.133983,15.06,13.56,15.05,15.06,1023,36,5.02,329,0,0.0,Clear,clear sky,13
Csenger,47.826111,22.666389,2026-03-05 13:29:50.338928,15.05,13.52,15.04,15.05,1023,35,4.92,325,0,0.0,Clear,clear sky,13
Kisfái,46.888303,19.807366,2026-03-05 13:29:51.537445,17.7,16.75,17.7,17.7,1024,47,1.28,311,0,0.0,Clear,clear sky,13
Nyárlőrinci szőlők,46.8775,19.828333,2026-03-05 13:29:52.734657,17.7,16.65,17.62,17.7,1024,43,1.27,313,0,0.0,Clear,clear sky,13
Nyárlőrinc alsó,46.863889,19.878889,2026-03-05 13:29:53.930691,17.72,16.67,17.64,17.72,1024,43,1.15,314,0,0.0,Clear,clear sky,13
Tiszaug-Tiszahídfő,46.866106,20.052098,2026-03-05 13:29:55.142228,17.44,16.13,15.01,17.88,1024,34,0.63,326,0,0.0,Clear,clear sky,13
Csongrádi úti tanyák,46.690278,19.921667,2026-03-05 13:29:56.350758,17.82,16.73,14.97,17.83,1024,41,1.51,320,0,0.0,Clear,clear sky,13
Kettőshalom,46.689167,20.0225,2026-03-05 13:29:57.558954,17.83,16.69,15.54,17.86,1024,39,1.35,323,1,0.0,Clear,clear sky,13
Csongrád alsó,46.711389,20.126389,2026-03-05 13:29:58.755927,17.74,16.51,15.54,17.86,1024,36,1.14,331,1,0.0,Clear,clear sky,13
Dónát,46.66988,20.368168,2026-03-05 13:29:59.953337,15.36,14.18,15.02,17.81,1024,47,0.45,1,1,0.0,Clear,clear sky,13
Pusztatemplom,46.676667,20.407222,2026-03-05 13:30:01.275927,15.37,14.19,15.01,17.79,1024,47,0.45,1,0,0.0,Clear,clear sky,13
Előhát,47.364722,20.653611,2026-03-05 13:30:02.488250,11.72,10.2,11.72,11.72,1024,48,1.8,78,6,0.0,Clear,clear sky,13
Polgárdi-Tekerespuszta,47.017778,18.297778,2026-03-05 13:30:03.711841,14.18,12.7,14.18,14.18,1025,40,2.93,339,2,0.0,Clear,clear sky,13
Szatina-Kishajmás,46.202778,18.083611,2026-03-05 13:30:04.913805,15.25,14.27,15.25,15.25,1025,55,2.19,327,0,0.0,Clear,clear sky,13
Márok,45.886944,18.499167,2026-03-05 13:30:06.120584,16.09,15.16,15.47,17.25,1025,54,1.79,256,2,0.0,Clear,clear sky,13
Nagynyárád,45.953333,18.564722,2026-03-05 13:30:07.314291,16.69,15.77,15.53,17.32,1024,52,2.51,321,3,0.0,Clear,clear sky,13
Szászvár,46.2875,18.369722222222222,2026-03-05 13:30:08.512591,16.91,16.07,16.91,16.91,1025,54,2.55,328,1,0.0,Clear,clear sky,13
Cikó,46.263514,18.557605,2026-03-05 13:30:09.717084,17.23,16.39,17.23,17.23,1025,53,2.75,330,2,0.0,Clear,clear sky,13
Gyöngyfa-Magyarmecske,45.983889,17.958889,2026-03-05 13:30:10.918446,15.57,14.57,15.57,15.57,1025,53,2.23,329,0,0.0,Clear,clear sky,13
Nagyhát,47.581389,21.445,2026-03-05 13:30:12.119539,13.92,12.15,13.92,13.92,1025,30,2.57,350,0,0.0,Clear,clear sky,13
Balmazújváros,47.613889,21.348056,2026-03-05 13:30:13.333526,14.1,12.95,14.1,14.1,1025,53,2.17,354,6,0.0,Clear,clear sky,13
Kónya,47.600833,21.2375,2026-03-05 13:30:14.526577,11.62,10.25,11.62,11.62,1025,54,2.02,357,6,0.0,Clear,clear sky,13
Hortobágy,47.586111,21.154722,2026-03-05 13:30:15.732698,11.49,10.13,11.49,11.49,1024,55,1.85,1,6,0.0,Clear,clear sky,13
Hortobágyi Halastó,47.604167,21.074167,2026-03-05 13:30:16.931135,11.33,9.95,11.33,11.33,1024,55,1.74,5,6,0.0,Clear,clear sky,13
Ohat-Pusztakócs,47.623333,20.951111,2026-03-05 13:30:18.132729,11.01,9.6,11.01,11.01,1024,55,1.54,4,6,0.0,Clear,clear sky,13
Egyek,47.616944,20.883611,2026-03-05 13:30:19.348618,10.87,9.45,10.87,10.87,1024,55,1.22,6,6,0.0,Clear,clear sky,13
Tiszafüred,47.627778,20.756111,2026-03-05 13:30:20.547838,10.67,9.23,10.67,10.67,1024,55,0.75,8,5,0.0,Clear,clear sky,13
Poroszló,47.657778,20.654444,2026-03-05 13:30:21.742009,10.49,9.03,10.49,10.49,1024,55,0.03,288,2,0.0,Clear,clear sky,13
Kétútköz,47.694167,20.565,2026-03-05 13:30:22.936964,10.19,8.7,10.19,10.19,1024,55,0.59,219,1,0.0,Clear,clear sky,13
Egerfarmos,47.711667,20.5225,2026-03-05 13:30:24.130470,10.19,8.7,10.19,10.19,1024,55,0.88,204,0,0.0,Clear,clear sky,13
Piliscsaba,47.638056,18.829722,2026-03-05 13:30:25.343478,15.6,14.08,15.36,16.42,1024,33,1.14,297,4,0.0,Clear,clear sky,13
Pilisjászfalu,47.656111,18.797778,2026-03-05 13:30:26.548648,15.85,14.74,15.61,16.67,1024,48,1.27,299,4,0.0,Clear,clear sky,13
Leányvár,47.687594,18.772553,2026-03-05 13:30:27.748330,13.94,12.25,13.94,16.32,1025,33,1.27,297,4,0.0,Clear,clear sky,13
Dorog,47.723333,18.732778,2026-03-05 13:30:28.936178,14.03,12.77,14.03,14.03,1025,49,1.34,281,5,0.0,Clear,clear sky,13
Esztergom-Kertváros,47.743333,18.719167,2026-03-05 13:30:30.135093,14.23,12.94,14.23,14.23,1025,47,1.18,292,6,0.0,Clear,clear sky,13
Esztergom,47.7775,18.743611,2026-03-05 13:30:31.336825,14.29,13.08,14.29,14.29,1025,50,1.03,287,5,0.0,Clear,clear sky,13
Dunaalmás,47.733056,18.326389,2026-03-05 13:30:32.536606,13.58,11.91,13.58,13.58,1025,35,2.21,317,5,0.0,Clear,clear sky,13
Neszmély,47.734444,18.345278,2026-03-05 13:30:33.750743,13.58,11.91,13.58,13.58,1025,35,2.21,317,5,0.0,Clear,clear sky,13
Süttő,47.761111,18.455,2026-03-05 13:30:34.946151,14.12,12.63,14.12,14.12,1025,40,1.85,306,5,0.0,Clear,clear sky,13
Piszke,47.75307,18.478017,2026-03-05 13:30:36.142304,13.48,11.88,13.48,13.48,1025,38,1.62,308,5,0.0,Clear,clear sky,13
Lábatlan,47.751944,18.513333,2026-03-05 13:30:37.335788,13.44,11.86,13.44,13.44,1025,39,1.54,306,5,0.0,Clear,clear sky,13
Eternitgyár,47.755544,18.530014,2026-03-05 13:30:38.531617,13.44,11.86,13.44,13.44,1025,39,1.54,306,5,0.0,Clear,clear sky,13
Nyergesújfalu felső,47.762222,18.540556,2026-03-05 13:30:39.734009,13.44,11.86,13.44,13.44,1025,39,1.54,306,5,0.0,Clear,clear sky,13
Nyergesújfalu,47.761111,18.561667,2026-03-05 13:30:40.931087,14.03,12.59,14.03,14.03,1025,42,1.58,297,5,0.0,Clear,clear sky,13
Tokod,47.735,18.675,2026-03-05 13:30:42.132797,14.25,12.91,14.25,14.25,1025,45,1.31,296,5,0.0,Clear,clear sky,13
Környe,47.541667,18.330278,2026-03-05 13:30:43.327344,13.33,11.63,13.33,13.33,1025,35,2.53,324,5,0.0,Clear,clear sky,13
Kecskéd alsó,47.519722,18.316667,2026-03-05 13:30:44.528798,13.38,11.71,13.38,13.38,1025,36,2.6,326,5,0.0,Clear,clear sky,13
Oroszlány,47.486944,18.308611,2026-03-05 13:30:45.717175,13.93,12.37,13.93,13.93,1025,38,2.95,327,4,0.0,Clear,clear sky,13
Győrszabadhegy,47.663056,17.648056,2026-03-05 13:30:46.924645,15.08,13.58,15.08,15.08,1025,36,3.6,300,0,0.0,Clear,clear sky,13
Ménfőcsanak felső,47.638333,17.615,2026-03-05 13:30:48.135657,15.08,13.58,15.08,15.08,1025,36,3.6,300,0,0.0,Clear,clear sky,13
Gyömöre-Tét,47.501672,17.559596,2026-03-05 13:30:49.333513,14.03,12.9,14.03,14.91,1025,54,2.06,350,0,0.0,Clear,clear sky,13
Szerecseny,47.469167,17.5475,2026-03-05 13:30:50.523250,14.02,12.89,14.02,14.9,1025,54,2.06,350,0,0.0,Clear,clear sky,13
Gecse-Gyarmat,47.456111,17.515,2026-03-05 13:30:51.718462,14.05,12.92,14.05,14.94,1025,54,2.06,350,0,0.0,Clear,clear sky,13
