station_name,station_lat,station_lon,observation_time,temp,feels_like,temp_min,temp_max,pressure,humidity,wind_speed,wind_deg,clouds,precipitation_1h,weather_main,weather_description,collection_hour
Búcsúszentlászló,46.793056,16.932778,2026-03-04 19:01:00.225460,8.84,7.28,8.84,8.84,1026,79,2.74,353,27,0.0,Clouds,scattered clouds,19
Angyalföld,47.549722,19.09,2026-03-04 19:01:01.431936,12.01,10.96,9.82,13.28,1025,65,1.34,253,100,0.0,Clouds,overcast clouds,19
Felsőjánosfa,46.841389,16.544167,2026-03-04 19:01:02.639246,7.96,6.51,7.96,7.96,1026,82,2.37,14,32,0.0,Clouds,scattered clouds,19
Pankasz,46.835833,16.496111,2026-03-04 19:01:03.843424,7.65,6.12,7.65,7.65,1026,82,2.4,15,28,0.0,Clouds,scattered clouds,19
Nagyrákos,46.827222,16.455556,2026-03-04 19:01:05.041024,7.59,6.03,7.59,7.59,1026,82,2.42,16,27,0.0,Clouds,scattered clouds,19
Őriszentpéter,46.828889,16.415278,2026-03-04 19:01:06.242228,7.69,6.16,7.69,7.69,1026,81,2.41,16,27,0.0,Clouds,scattered clouds,19
Törökbálint,47.45,18.908611,2026-03-04 19:01:07.442533,11.48,10.43,9.6,11.85,1025,67,1.34,253,99,0.0,Clouds,overcast clouds,19
Bicske alsó,47.486389,18.642778,2026-03-04 19:01:08.643517,9.71,9.71,9.49,11.73,1025,70,1.33,329,100,0.0,Clouds,overcast clouds,19
Bajánsenye,46.818056,16.358056,2026-03-04 19:01:09.848561,7.8,6.25,7.8,7.8,1026,81,2.46,15,26,0.0,Clouds,scattered clouds,19
Aquincum,47.566218,19.048273,2026-03-04 19:01:11.050721,11.79,10.77,9.85,13.3,1025,67,1.34,253,100,0.17,Rain,light rain,19
Piliscsév,47.673889,18.791389,2026-03-04 19:01:12.253384,11.27,10.33,11.26,12.89,1025,72,1.79,343,100,0.0,Clouds,overcast clouds,19
Tát,47.741201,18.64783,2026-03-04 19:01:13.452563,9.84,9.41,9.84,9.84,1025,75,1.55,351,91,0.0,Clouds,overcast clouds,19
Süttő felső,47.756667,18.437222,2026-03-04 19:01:14.644173,8.12,7.66,8.12,8.12,1025,77,1.37,9,82,0.0,Clouds,broken clouds,19
Budatétény,47.405,19.016389,2026-03-04 19:01:15.851504,12.31,11.22,9.89,13.34,1025,62,1.34,287,99,0.0,Clouds,overcast clouds,19
Seregélyes-Szőlőhegy,47.119444,18.612222,2026-03-04 19:01:17.054829,8.17,8.17,8.17,8.17,1025,72,1.07,302,99,0.0,Clouds,overcast clouds,19
Gödöllő-Állami telepek,47.564444,19.375556,2026-03-04 19:01:18.246847,12.26,11.08,11.16,12.79,1025,59,1.11,293,100,0.0,Clouds,overcast clouds,19
Dunakeszi alsó,47.607778,19.128889,2026-03-04 19:01:19.448972,11.83,10.79,9.82,13.27,1025,66,1.11,311,100,0.0,Clouds,overcast clouds,19
Vác-Alsóváros,47.773056,19.149722,2026-03-04 19:01:20.652454,11.62,10.69,9.8,11.62,1025,71,1.58,309,97,0.0,Clouds,overcast clouds,19
Szob alsó,47.816667,18.8725,2026-03-04 19:01:21.870201,9.83,9.5,9.83,9.83,1025,73,1.46,324,100,0.0,Clouds,overcast clouds,19
Zalaszentmihály-Pacsa,46.7225,16.951944,2026-03-04 19:01:23.072416,8.75,7.29,8.75,8.75,1026,93,2.57,340,75,0.0,Clouds,broken clouds,19
Pötréte,46.682778,16.9575,2026-03-04 19:01:24.285316,8.75,7.29,8.75,8.75,1026,93,2.57,340,75,0.0,Clouds,broken clouds,19
Felsőrajk,46.667222,16.982778,2026-03-04 19:01:25.501044,8.81,7.36,8.81,8.81,1026,93,2.57,340,75,0.0,Clouds,broken clouds,19
Gelse,46.600556,16.982778,2026-03-04 19:01:26.707003,8.81,7.36,8.81,8.81,1026,93,2.57,340,75,0.0,Clouds,broken clouds,19
Őrtilos,46.297778,16.887778,2026-03-04 19:01:27.906717,8.92,8.92,8.92,8.92,1025,73,0.8,356,46,0.0,Clouds,scattered clouds,19
Zákány,46.251944,16.9425,2026-03-04 19:01:29.154057,8.79,8.79,8.79,8.79,1025,72,0.86,359,21,0.19,Rain,light rain,19
Berzence,46.201389,17.143611,2026-03-04 19:01:30.651269,9.3,9.3,9.3,9.3,1025,70,0.6,14,3,0.0,Clear,clear sky,19
Somogyudvarhely,46.163333,17.179722,2026-03-04 19:01:32.220628,9.3,9.3,9.3,9.3,1025,70,0.47,16,5,0.0,Clear,clear sky,19
Bélavár,46.122778,17.207778,2026-03-04 19:01:33.687193,9.39,9.39,9.39,9.39,1025,71,0.32,7,6,0.0,Clear,clear sky,19
Vízvár,46.101389,17.239444,2026-03-04 19:01:35.248010,9.3,9.3,9.3,9.3,1025,71,0.26,16,7,0.0,Clear,clear sky,19
Babócsa,46.028359,17.342276,2026-03-04 19:01:36.438914,9.28,9.28,9.28,9.28,1025,73,0.36,82,4,0.0,Clear,clear sky,19
Péterhida-Komlósd,46.006667,17.358056,2026-03-04 19:01:38.167293,9.33,9.33,9.33,9.33,1025,73,0.42,91,3,0.0,Clear,clear sky,19
Barcs,45.951944,17.446944,2026-03-04 19:01:39.797320,9.32,9.32,9.32,9.32,1025,74,0.59,113,1,0.0,Clear,clear sky,19
Barcs felső,45.958333,17.486389,2026-03-04 19:01:41.228284,9.23,9.23,9.23,9.23,1025,74,0.69,114,1,0.0,Clear,clear sky,19
Középrigóc,45.970556,17.525,2026-03-04 19:01:42.716347,9.14,9.14,9.14,9.14,1025,75,0.77,114,0,0.0,Clear,clear sky,19
Darány,45.992222,17.598611,2026-03-04 19:01:44.307260,9.1,9.1,9.1,9.1,1025,75,1.0,103,0,0.12,Rain,light rain,19
Kisdobsza,46.012222,17.668056,2026-03-04 19:01:46.090804,9.12,9.12,9.12,9.12,1025,76,1.04,94,0,0.21,Rain,light rain,19
Nemeske,46.023333,17.705278,2026-03-04 19:01:47.453240,9.15,9.15,9.15,9.15,1025,76,1.0,91,0,0.24,Rain,light rain,19
Molvány,46.035278,17.748611,2026-03-04 19:01:48.644600,9.11,9.11,9.11,9.11,1025,76,0.9,84,1,0.0,Clear,clear sky,19
Szigetvár,46.043333,17.801944,2026-03-04 19:01:49.838601,9.09,9.09,9.09,9.09,1025,76,0.85,81,1,0.0,Clear,clear sky,19
Nagypeterd,46.039444,17.871667,2026-03-04 19:01:51.038287,11.53,10.7,11.53,11.53,1025,75,0.76,78,1,0.0,Clear,clear sky,19
Szentdénes,46.036667,17.926944,2026-03-04 19:01:52.246327,11.48,10.64,11.48,11.48,1025,75,0.71,77,2,0.0,Clear,clear sky,19
Háros,47.412222,19.035,2026-03-04 19:01:53.439432,12.31,11.22,9.85,13.3,1025,62,1.34,287,99,0.0,Clouds,overcast clouds,19
Nagytétény-Diósd,47.398333,18.974444,2026-03-04 19:01:54.642002,12.2,11.09,9.88,13.34,1025,62,1.34,287,100,0.0,Clouds,overcast clouds,19
Érdliget,47.390278,18.937778,2026-03-04 19:01:55.832715,12.03,10.88,9.8,13.25,1025,61,1.34,287,100,0.0,Clouds,overcast clouds,19
Érd felső,47.381111,18.922222,2026-03-04 19:01:57.032662,11.88,10.77,9.76,12.01,1025,63,1.34,287,100,0.0,Clouds,overcast clouds,19
Érd,47.369722,18.900833,2026-03-04 19:01:58.244564,11.82,10.7,9.73,11.98,1025,63,1.18,324,100,0.0,Clouds,overcast clouds,19
Százhalombatta,47.322222,18.899167,2026-03-04 19:01:59.439665,11.84,10.67,9.71,11.96,1025,61,1.16,320,100,0.0,Clouds,overcast clouds,19
Dunai Finomító,47.294444,18.878889,2026-03-04 19:02:00.638927,11.8,10.63,11.4,13.01,1025,61,1.2,320,100,0.0,Clouds,overcast clouds,19
Ercsi,47.247222,18.875278,2026-03-04 19:02:01.837808,12.03,11.14,11.63,13.23,1025,71,1.18,318,100,0.0,Clouds,overcast clouds,19
Iváncsa,47.177778,18.811944,2026-03-04 19:02:03.042839,8.0,8.0,8.0,8.0,1025,72,1.1,312,100,0.0,Clouds,overcast clouds,19
Pusztaszabolcs,47.139722,18.761667,2026-03-04 19:02:04.236720,8.1,8.1,8.1,8.1,1025,72,1.04,303,99,0.0,Clouds,overcast clouds,19
Szabadegyháza,47.082778,18.704167,2026-03-04 19:02:05.440301,8.11,8.11,8.11,8.11,1025,73,1.06,289,100,0.0,Clouds,overcast clouds,19
Sárosd,47.039722,18.660278,2026-03-04 19:02:06.645534,8.2,8.2,8.2,8.2,1025,73,1.12,283,100,0.0,Clouds,overcast clouds,19
Nagylók,46.979444,18.635833,2026-03-04 19:02:07.841051,8.08,8.08,8.08,8.08,1025,75,1.24,267,100,0.0,Clouds,overcast clouds,19
Sárbogárd,46.896944,18.611944,2026-03-04 19:02:09.041239,8.32,8.32,8.32,8.32,1025,76,1.33,256,99,0.0,Clouds,overcast clouds,19
Rétszilas,46.814167,18.601389,2026-03-04 19:02:10.243268,8.4,7.94,8.4,8.4,1025,76,1.4,246,98,0.0,Clouds,overcast clouds,19
Nagyatád,46.228611,17.354167,2026-03-04 19:02:11.433686,9.17,9.17,9.17,9.17,1025,74,0.86,103,7,11.98,Rain,heavy intensity rain,19
Budapest-Keleti,47.500278,19.084167,2026-03-04 19:02:12.633266,12.39,11.33,9.8,13.25,1025,63,1.34,253,100,0.0,Clouds,overcast clouds,19
Ferencváros,47.468611,19.088056,2026-03-04 19:02:13.822786,12.46,11.38,9.82,13.27,1025,62,1.34,287,99,0.0,Clouds,overcast clouds,19
Budapest-Nyugati,47.510833,19.0575,2026-03-04 19:02:15.015548,12.19,11.14,9.81,13.27,1025,64,1.34,253,100,0.0,Clouds,overcast clouds,19
Kőbánya felső,47.491944,19.133889,2026-03-04 19:02:16.216554,12.35,11.26,9.74,13.19,1025,62,0.84,309,99,0.24,Rain,light rain,19
Rákos,47.488889,19.174722,2026-03-04 19:02:17.416527,12.36,11.24,9.7,13.15,1025,61,0.82,306,99,0.21,Rain,light rain,19
Rákosrendező,47.525556,19.089444,2026-03-04 19:02:18.617149,12.23,11.18,9.84,13.3,1025,64,1.34,253,99,0.0,Clouds,overcast clouds,19
Zugló,47.511389,19.101389,2026-03-04 19:02:19.803633,12.33,11.24,9.77,13.23,1025,62,1.34,267,99,0.0,Clouds,overcast clouds,19
Mezőtárkány,47.725,20.480278,2026-03-04 19:02:21.004830,8.31,7.14,8.31,8.31,1025,75,2.1,282,8,0.0,Clear,clear sky,19
Istvántelek,47.550278,19.106389,2026-03-04 19:02:22.209137,12.06,10.99,9.83,13.28,1025,64,1.0,312,100,0.0,Clouds,overcast clouds,19
Rákospalota-Újpest,47.565833,19.111944,2026-03-04 19:02:23.398741,11.95,10.9,9.82,13.28,1025,65,1.06,313,100,0.0,Clouds,overcast clouds,19
Kőbánya alsó,47.483056,19.127222,2026-03-04 19:02:24.603384,12.37,11.28,9.75,13.21,1025,62,1.34,287,99,0.0,Clouds,overcast clouds,19
Kőbánya-Kispest,47.463889,19.149444,2026-03-04 19:02:25.812824,12.4,11.29,9.75,13.21,1025,61,0.79,311,99,0.0,Clouds,overcast clouds,19
Pestszentlőrinc,47.454722,19.182778,2026-03-04 19:02:27.014523,12.39,11.28,9.69,13.15,1025,61,0.73,311,98,0.0,Clouds,overcast clouds,19
Kispest,47.448135,19.157552,2026-03-04 19:02:28.215855,12.42,11.31,9.76,13.21,1025,61,0.77,313,98,0.0,Clouds,overcast clouds,19
Újpest,47.558889,19.079722,2026-03-04 19:02:29.413281,11.91,10.85,9.83,13.28,1025,65,1.34,253,100,0.0,Clouds,overcast clouds,19
Pestszentimre felső,47.413611,19.173333,2026-03-04 19:02:30.639907,12.46,11.35,9.78,13.24,1025,61,0.71,316,98,0.0,Clouds,overcast clouds,19
Dunakeszi,47.626111,19.136111,2026-03-04 19:02:31.873421,11.7,10.65,9.73,13.18,1025,66,1.19,312,100,0.0,Clouds,overcast clouds,19
Dunakeszi-Gyártelep,47.643611,19.135,2026-03-04 19:02:33.071485,11.67,10.64,9.77,13.23,1025,67,1.27,313,100,0.0,Clouds,overcast clouds,19
Alsógöd,47.676944,19.134444,2026-03-04 19:02:34.269523,11.55,10.48,9.76,13.22,1025,66,1.35,314,99,0.0,Clouds,overcast clouds,19
Göd,47.687778,19.1375,2026-03-04 19:02:35.470407,11.55,10.48,9.78,13.24,1025,66,1.35,314,99,0.0,Clouds,overcast clouds,19
Felsőgöd,47.705556,19.143333,2026-03-04 19:02:36.668606,11.78,10.74,11.66,13.28,1025,66,1.42,314,99,0.0,Clouds,overcast clouds,19
Sződ-Sződliget,47.728056,19.154722,2026-03-04 19:02:37.872133,11.65,10.59,11.65,13.28,1025,66,1.49,313,98,0.0,Clouds,overcast clouds,19
Vác,47.782778,19.133056,2026-03-04 19:02:39.064819,11.62,10.69,9.8,11.62,1025,71,1.58,309,97,0.0,Clouds,overcast clouds,19
Verőce,47.823889,19.029444,2026-03-04 19:02:40.268213,11.46,10.57,9.63,11.46,1025,73,1.58,304,99,0.0,Clouds,overcast clouds,19
Kismaros,47.8275,19.010278,2026-03-04 19:02:41.475651,9.76,9.32,9.76,9.76,1025,73,1.55,306,100,0.0,Clouds,overcast clouds,19
Nagymaros-Visegrád,47.791389,18.959167,2026-03-04 19:02:42.687753,9.78,9.34,9.78,11.61,1025,73,1.56,317,100,0.0,Clouds,overcast clouds,19
Nagymaros,47.780278,18.952222,2026-03-04 19:02:43.888256,9.86,9.43,9.86,11.68,1025,73,1.56,317,100,0.0,Clouds,overcast clouds,19
Zebegény,47.801389,18.908889,2026-03-04 19:02:45.087818,9.83,9.44,9.83,11.66,1025,73,1.51,316,100,0.0,Clouds,overcast clouds,19
Szob,47.821111,18.861944,2026-03-04 19:02:46.281441,9.79,9.54,9.79,9.79,1025,73,1.38,319,100,0.0,Clouds,overcast clouds,19
Alagimajor,47.601944,19.153889,2026-03-04 19:02:47.482615,11.89,10.81,9.77,13.23,1025,64,1.11,311,100,0.0,Clouds,overcast clouds,19
Fót,47.611389,19.181667,2026-03-04 19:02:48.692690,11.87,10.76,9.67,13.12,1025,63,1.18,310,100,0.0,Clouds,overcast clouds,19
Fótújfalu,47.615,19.192778,2026-03-04 19:02:49.901730,11.8,10.68,9.56,13.02,1025,63,1.18,310,100,0.0,Clouds,overcast clouds,19
Csomád,47.635556,19.222778,2026-03-04 19:02:51.102887,11.6,10.49,9.29,12.75,1025,64,1.16,308,100,0.0,Clouds,overcast clouds,19
Veresegyház,47.649167,19.288611,2026-03-04 19:02:52.303417,11.89,10.78,11.27,12.9,1025,63,1.25,308,100,0.0,Clouds,overcast clouds,19
Erdőkertes,47.662222,19.295833,2026-03-04 19:02:53.501986,11.83,10.77,11.22,12.85,1025,65,1.25,308,100,0.0,Clouds,overcast clouds,19
Őrbottyán,47.685833,19.283611,2026-03-04 19:02:54.703270,11.48,10.41,11.14,12.77,1025,66,1.33,310,100,0.0,Clouds,overcast clouds,19
Váchartyán,47.725833,19.248889,2026-03-04 19:02:55.906435,11.5,10.48,11.5,12.72,1025,68,1.46,313,100,0.0,Clouds,overcast clouds,19
Magyarkút-Verőce,47.826111,19.044444,2026-03-04 19:02:57.104784,11.62,10.74,11.62,11.62,1025,73,1.58,304,99,0.0,Clouds,overcast clouds,19
Szokolya,47.871111,19.030556,2026-03-04 19:02:58.297632,6.7,5.79,6.7,6.7,1025,73,1.58,295,98,0.0,Clouds,overcast clouds,19
Berkenye,47.885278,19.071944,2026-03-04 19:02:59.492737,7.43,6.59,7.43,7.43,1025,73,1.61,295,96,0.0,Clouds,overcast clouds,19
Nógrád,47.901944,19.0475,2026-03-04 19:03:00.736695,7.08,6.23,7.08,7.08,1025,73,1.58,292,97,0.0,Clouds,overcast clouds,19
Diósjenő,47.94,19.049444,2026-03-04 19:03:01.937671,6.72,5.81,6.72,6.72,1025,73,1.58,288,95,0.0,Clouds,overcast clouds,19
Borsosberény,47.971389,19.093056,2026-03-04 19:03:03.130781,7.48,6.56,7.48,7.48,1025,72,1.69,287,88,0.0,Clouds,overcast clouds,19
Nagyoroszi,47.993611,19.101111,2026-03-04 19:03:04.334184,7.35,6.42,7.35,7.35,1025,71,1.68,284,86,0.0,Clouds,overcast clouds,19
Drégelyvár,48.001944,19.079444,2026-03-04 19:03:05.540327,7.59,6.8,7.59,7.59,1025,72,1.59,282,86,0.0,Clouds,overcast clouds,19
Drégely,48.042222,19.056111,2026-03-04 19:03:06.740998,7.98,7.28,7.98,7.98,1025,72,1.56,282,83,0.0,Clouds,broken clouds,19
Drégelypalánk,48.055,19.046111,2026-03-04 19:03:07.935618,8.12,7.57,8.12,8.12,1025,72,1.44,282,78,0.0,Clouds,broken clouds,19
Ipolyvece,48.056944,19.106389,2026-03-04 19:03:09.139514,8.14,7.36,8.14,8.14,1025,71,1.65,284,81,0.0,Clouds,broken clouds,19
Dejtár,48.045556,19.196389,2026-03-04 19:03:10.336238,8.08,7.22,8.08,8.08,1025,71,1.72,284,83,0.0,Clouds,broken clouds,19
Ipolyszög,48.054444,19.221944,2026-03-04 19:03:11.567487,8.14,7.29,8.14,8.14,1025,71,1.72,284,84,0.0,Clouds,broken clouds,19
Iklad-Domony,47.658056,19.444444,2026-03-04 19:03:12.764951,12.75,11.78,9.1,12.75,1025,65,1.4,303,100,0.0,Clouds,overcast clouds,19
Iklad-Domony felső,47.667778,19.428056,2026-03-04 19:03:13.970133,12.73,11.76,11.51,12.73,1025,65,1.41,307,100,0.0,Clouds,overcast clouds,19
Galgamácsa,47.693889,19.3925,2026-03-04 19:03:15.176431,12.72,11.77,11.5,12.72,1025,66,1.42,311,100,0.0,Clouds,overcast clouds,19
Vácrátót,47.732778,19.217778,2026-03-04 19:03:16.379110,11.42,10.39,11.42,12.64,1025,68,1.47,313,99,0.0,Clouds,overcast clouds,19
Csörög,47.735833,19.196389,2026-03-04 19:03:17.585863,11.41,10.41,9.6,13.05,1025,69,1.48,313,98,0.0,Clouds,overcast clouds,19
Galgagyörk,47.735278,19.372222,2026-03-04 19:03:18.786352,12.62,11.69,11.4,12.62,1025,67,1.46,313,100,0.0,Clouds,overcast clouds,19
Püspökhatvan,47.768611,19.366944,2026-03-04 19:03:20.002617,7.8,7.15,7.8,7.8,1025,68,1.49,313,100,0.0,Clouds,overcast clouds,19
Acsa-Erdőkürt,47.801111,19.386111,2026-03-04 19:03:21.204462,7.67,7.02,7.67,7.67,1025,69,1.48,311,100,0.0,Clouds,overcast clouds,19
Galgaguta,47.848611,19.385556,2026-03-04 19:03:22.437819,7.42,6.8,7.42,7.42,1025,70,1.42,305,100,0.0,Clouds,overcast clouds,19
Nógrádkövesd,47.879444,19.371111,2026-03-04 19:03:23.637707,7.61,7.07,7.61,7.61,1025,70,1.38,301,99,0.0,Clouds,overcast clouds,19
Magyarnándor,47.970833,19.356667,2026-03-04 19:03:24.836784,7.53,6.92,7.53,7.53,1025,71,1.43,288,90,0.0,Clouds,overcast clouds,19
Mohora,47.995556,19.347778,2026-03-04 19:03:26.038218,7.67,7.04,7.67,7.67,1025,71,1.46,285,88,0.0,Clouds,overcast clouds,19
Szügy,48.036389,19.333056,2026-03-04 19:03:27.241935,7.95,7.27,7.95,7.95,1025,71,1.54,281,87,0.0,Clouds,overcast clouds,19
Balassagyarmat,48.071111,19.293611,2026-03-04 19:03:28.442877,8.06,7.29,8.06,8.06,1025,71,1.63,282,87,0.0,Clouds,overcast clouds,19
Őrhalom,48.078773,19.403936,2026-03-04 19:03:29.648776,7.84,7.23,7.84,7.84,1025,72,1.46,270,87,0.0,Clouds,overcast clouds,19
Hugyag,48.083056,19.421111,2026-03-04 19:03:30.846778,7.84,7.23,7.84,7.84,1025,72,1.46,270,87,0.0,Clouds,overcast clouds,19
Szécsény,48.093056,19.521111,2026-03-04 19:03:32.046517,8.07,8.07,8.07,8.07,1025,74,1.33,257,87,0.0,Clouds,overcast clouds,19
Ludányhalászi,48.1325,19.529444,2026-03-04 19:03:33.245718,8.08,7.44,8.08,8.08,1025,74,1.52,256,78,0.0,Clouds,broken clouds,19
Nógrádszakál,48.178333,19.521667,2026-03-04 19:03:34.453761,8.06,7.33,8.06,8.06,1025,73,1.6,257,73,0.0,Clouds,broken clouds,19
Ráróspuszta,48.207222,19.541389,2026-03-04 19:03:35.658105,7.54,6.59,7.54,7.54,1025,73,1.73,262,63,0.0,Clouds,broken clouds,19
Litke,48.215833,19.598611,2026-03-04 19:03:36.861521,8.04,7.16,8.04,8.04,1025,74,1.74,248,50,0.0,Clouds,scattered clouds,19
Nyíregyháza külső,47.943056,21.740278,2026-03-04 19:03:38.067566,7.98,6.36,7.98,7.98,1025,72,2.59,218,15,0.0,Clouds,few clouds,19
Oros,47.945833,21.806389,2026-03-04 19:03:39.261466,7.99,6.4,7.99,7.99,1025,71,2.56,217,6,0.0,Clear,clear sky,19
Napkor,47.948889,21.873056,2026-03-04 19:03:40.464555,8.02,6.52,8.02,8.02,1025,70,2.44,215,6,0.0,Clear,clear sky,19
Apagy,47.953775,21.939044,2026-03-04 19:03:41.670461,8.02,6.56,8.02,8.02,1025,70,2.39,215,9,0.0,Clear,clear sky,19
Levelek-Magy,47.948056,21.993611,2026-03-04 19:03:42.870624,7.98,6.61,7.98,7.98,1025,69,2.27,215,17,0.0,Clouds,few clouds,19
Ófehértó,47.940556,22.041389,2026-03-04 19:03:44.069884,7.88,6.51,7.88,7.88,1025,69,2.25,216,30,0.0,Clouds,scattered clouds,19
Ligettanya,47.951667,22.071389,2026-03-04 19:03:45.268780,7.83,6.6,7.83,7.83,1025,69,2.07,216,25,0.0,Clouds,scattered clouds,19
Baktalórántháza,47.988611,22.083333,2026-03-04 19:03:46.462212,7.84,6.69,7.84,7.84,1025,69,1.99,215,17,0.0,Clouds,few clouds,19
Vaja-Rohod,48.006389,22.164167,2026-03-04 19:03:47.665158,7.82,6.96,7.82,7.82,1025,70,1.68,212,14,0.0,Clouds,few clouds,19
Rákóczitanya,48.022222,22.178333,2026-03-04 19:03:48.870609,7.77,7.04,7.77,7.77,1025,70,1.56,210,17,0.0,Clouds,few clouds,19
Nyírmada,48.059167,22.203056,2026-03-04 19:03:50.063233,7.78,7.29,7.78,7.78,1025,70,1.36,199,8,0.0,Clear,clear sky,19
Tunyogmatolcs,47.960244,22.442247,2026-03-04 19:03:51.266450,7.83,7.83,7.83,7.83,1025,71,0.74,167,68,0.0,Clouds,broken clouds,19
Tunyogmatolcs alsó,47.966025,22.464713,2026-03-04 19:03:52.468489,7.79,7.79,7.79,7.79,1025,71,0.76,153,73,0.0,Clouds,broken clouds,19
Fehérgyarmat,47.979167,22.524444,2026-03-04 19:03:53.682250,7.75,7.75,7.75,7.75,1025,71,1.33,122,82,0.0,Clouds,broken clouds,19
Penyige,47.995278,22.566944,2026-03-04 19:03:54.892862,7.74,7.13,7.74,7.74,1025,70,1.45,120,86,0.0,Clouds,overcast clouds,19
Nagyszekeres,47.976111,22.6125,2026-03-04 19:03:56.084287,7.73,6.99,7.73,7.73,1025,70,1.56,119,90,0.0,Clouds,overcast clouds,19
Kisszekeres,47.965833,22.629444,2026-03-04 19:03:57.287000,7.72,7.72,7.72,7.72,1025,70,1.29,123,95,0.0,Clouds,overcast clouds,19
Jánkmajtis,47.941944,22.657222,2026-03-04 19:03:58.493156,7.7,7.7,7.7,7.7,1025,69,1.13,130,100,0.0,Clouds,overcast clouds,19
Gacsály,47.926111,22.745,2026-03-04 19:03:59.687208,7.26,6.67,7.26,8.03,1025,68,1.38,130,100,0.0,Clouds,overcast clouds,19
Zajta,47.9025,22.796111,2026-03-04 19:04:00.894155,7.25,7.25,7.25,8.03,1025,68,1.3,140,100,0.0,Clouds,overcast clouds,19
Eperjeske alsó,48.360556,22.19,2026-03-04 19:04:02.090802,7.61,6.07,7.61,7.61,1025,76,2.4,119,2,0.0,Clear,clear sky,19
Mándok,48.326944,22.196389,2026-03-04 19:04:03.308394,7.64,6.34,7.64,7.64,1025,75,2.12,122,4,0.0,Clear,clear sky,19
Tornyospálca,48.268333,22.201944,2026-03-04 19:04:04.515786,7.73,6.75,7.73,7.73,1025,75,1.79,128,6,0.0,Clear,clear sky,19
Aranyosapáti,48.211303,22.253534,2026-03-04 19:04:05.715998,7.78,6.78,7.78,7.78,1025,74,1.82,128,8,0.0,Clear,clear sky,19
Gyüre,48.171389,22.269167,2026-03-04 19:04:06.925880,7.81,7.14,7.81,7.81,1025,73,1.51,138,10,0.0,Clear,clear sky,19
Varsány,48.151722,22.290047,2026-03-04 19:04:08.125493,7.8,7.16,7.8,7.8,1025,73,1.48,140,14,0.0,Clouds,few clouds,19
Vásárosnamény,48.126667,22.306111,2026-03-04 19:04:09.317651,7.82,7.82,7.82,7.82,1025,72,1.32,147,16,0.0,Clouds,few clouds,19
Vitka,48.095556,22.308056,2026-03-04 19:04:10.525573,7.83,7.83,7.83,7.83,1025,72,1.19,156,20,0.0,Clouds,few clouds,19
Nagydobos,48.054167,22.311111,2026-03-04 19:04:11.724665,7.77,7.77,7.77,7.77,1025,72,1.1,167,24,0.0,Clouds,few clouds,19
Ópályi,47.997778,22.318333,2026-03-04 19:04:12.927259,7.77,7.77,7.77,7.77,1025,71,1.11,200,40,0.0,Clouds,scattered clouds,19
Nyírcsaholy,47.908056,22.348333,2026-03-04 19:04:14.133803,7.83,7.83,7.83,7.83,1025,71,1.26,218,66,0.0,Clouds,broken clouds,19
Nagyecsed,47.864722,22.385556,2026-03-04 19:04:15.333303,7.84,7.84,7.84,7.84,1025,71,1.27,226,85,0.0,Clouds,overcast clouds,19
Tiborszállás,47.815278,22.402778,2026-03-04 19:04:16.533676,7.84,7.06,7.84,7.84,1025,70,1.61,233,94,0.0,Clouds,overcast clouds,19
Kiskunhalas,46.434444,19.493611,2026-03-04 19:04:17.739912,8.05,7.27,8.05,8.05,1025,63,1.64,208,8,0.0,Clear,clear sky,19
Kecskemét alsó,46.895833,19.692222,2026-03-04 19:04:18.944745,9.37,9.37,8.92,9.99,1025,69,0.51,140,0,0.0,Clear,clear sky,19
Putnok,48.286667,20.4375,2026-03-04 19:04:20.148414,10.56,9.73,10.56,10.56,1025,79,1.89,227,3,0.0,Clear,clear sky,19
Bánréve,48.299722,20.351944,2026-03-04 19:04:21.352676,10.55,9.72,10.55,10.55,1025,79,1.98,224,0,0.0,Clear,clear sky,19
Ipolytarnóc,48.236667,19.629167,2026-03-04 19:04:22.547812,8.01,7.06,8.01,8.01,1025,74,1.8,247,40,0.0,Clouds,scattered clouds,19
Rákosliget,47.486111,19.257778,2026-03-04 19:04:23.747925,12.42,11.31,9.62,13.08,1025,61,0.82,296,100,0.0,Clouds,overcast clouds,19
Ikrény,47.657778,17.524167,2026-03-04 19:04:24.949201,7.08,6.04,7.08,7.08,1026,80,1.75,359,100,0.0,Clouds,overcast clouds,19
Rábapatona,47.648889,17.461944,2026-03-04 19:04:26.166944,7.1,5.76,7.1,7.1,1026,80,2.06,352,100,0.0,Clouds,overcast clouds,19
Enese,47.644167,17.425278,2026-03-04 19:04:27.383126,7.1,5.48,7.1,7.1,1026,80,2.38,346,97,0.0,Clouds,overcast clouds,19
Kóny,47.632222,17.357222,2026-03-04 19:04:28.582749,8.1,6.52,8.1,8.1,1026,80,2.57,338,82,0.0,Clouds,broken clouds,19
Farád,47.595278,17.195833,2026-03-04 19:04:29.795944,8.9,7.17,8.9,8.9,1026,80,3.03,331,50,0.0,Clouds,scattered clouds,19
Rábatamási,47.592778,17.161389,2026-03-04 19:04:30.988836,8.9,7.17,8.9,8.9,1026,80,3.03,331,50,0.0,Clouds,scattered clouds,19
Szárföld,47.589167,17.123889,2026-03-04 19:04:32.188417,8.88,7.12,8.88,8.88,1026,80,3.07,331,53,0.0,Clouds,broken clouds,19
Veszkény,47.586944,17.101389,2026-03-04 19:04:33.385534,8.89,7.12,8.89,8.89,1026,83,3.1,331,58,0.0,Clouds,broken clouds,19
Kapuvár,47.581944,17.046944,2026-03-04 19:04:34.596274,8.87,7.09,8.87,8.87,1026,83,3.1,329,75,0.0,Clouds,broken clouds,19
Vitnyéd-Csermajor,47.5825,16.987222,2026-03-04 19:04:35.807577,8.88,7.11,8.88,8.88,1026,83,3.09,330,92,0.0,Clouds,overcast clouds,19
Petőháza,47.595278,16.893056,2026-03-04 19:04:37.005621,8.83,7.11,8.83,8.83,1026,83,2.99,330,100,0.0,Clouds,overcast clouds,19
Fertőszentmiklós,47.6,16.858889,2026-03-04 19:04:38.205537,8.83,7.14,8.83,8.83,1026,83,2.94,329,100,0.0,Clouds,overcast clouds,19
Pinnye,47.600278,16.768611,2026-03-04 19:04:39.419802,8.71,7.19,8.71,8.71,1026,83,2.65,322,100,0.0,Clouds,overcast clouds,19
Fertőboz,47.625,16.691667,2026-03-04 19:04:40.624011,8.55,7.15,8.55,8.55,1026,83,2.44,315,100,0.0,Clouds,overcast clouds,19
Sopron,47.677778,16.587222,2026-03-04 19:04:41.821225,8.25,7.06,8.25,8.25,1026,80,2.11,296,94,0.0,Clouds,overcast clouds,19
Fertőszéplak-Fertőd,47.618889,16.850833,2026-03-04 19:04:43.015385,8.85,7.22,8.85,8.85,1026,83,2.85,328,100,0.0,Clouds,overcast clouds,19
Nyúl,47.587778,17.698056,2026-03-04 19:04:44.215401,7.02,5.24,7.02,10.14,1026,93,2.57,230,100,0.0,Clouds,overcast clouds,19
Pannonhalma,47.547778,17.740833,2026-03-04 19:04:45.481858,6.96,5.17,6.96,10.08,1026,93,2.57,230,100,0.0,Clouds,overcast clouds,19
Tarjánpuszta,47.504722,17.789167,2026-03-04 19:04:46.679724,6.73,4.9,6.73,9.84,1026,93,2.57,230,93,0.1,Clouds,overcast clouds,19
Győrasszonyfa,47.4925,17.799167,2026-03-04 19:04:47.874365,6.66,4.81,6.66,9.77,1026,93,2.57,230,93,0.0,Clouds,overcast clouds,19
Veszprémvarsány,47.443333,17.818333,2026-03-04 19:04:49.079905,6.71,6.71,6.71,9.83,1026,77,1.2,263,90,0.0,Clouds,overcast clouds,19
Bakonyszentlászló,47.395556,17.8175,2026-03-04 19:04:50.272825,9.58,9.58,6.47,9.58,1026,77,1.29,260,93,0.32,Rain,light rain,19
Porva-Csesznek,47.326944,17.841111,2026-03-04 19:04:51.465744,8.59,8.59,8.59,8.59,1026,78,1.24,261,96,1.78,Rain,moderate rain,19
Zirc,47.266667,17.878056,2026-03-04 19:04:52.666589,6.33,6.33,6.33,6.33,1026,78,1.08,273,100,0.32,Rain,light rain,19
Eplény,47.192778,17.921667,2026-03-04 19:04:53.870710,6.82,6.82,6.82,6.82,1026,77,1.03,295,100,0.0,Clouds,overcast clouds,19
Marcaltő,47.4275,17.348889,2026-03-04 19:04:55.062476,10.17,9.23,10.17,10.17,1026,76,1.54,220,40,0.0,Clouds,scattered clouds,19
Szany-Rábaszentandrás,47.460833,17.315278,2026-03-04 19:04:56.266956,10.17,9.23,10.17,10.17,1026,76,1.54,220,40,0.0,Clouds,scattered clouds,19
Egyed-Rábacsanak,47.521944,17.316389,2026-03-04 19:04:57.460412,10.18,9.37,10.18,10.18,1026,81,2.83,321,43,0.0,Clouds,scattered clouds,19
Rábapordány,47.557222,17.315,2026-03-04 19:04:58.665310,10.18,9.37,10.18,10.18,1026,81,2.8,324,48,0.0,Clouds,scattered clouds,19
Albertfalva,47.440784,19.033965,2026-03-04 19:04:59.870545,12.33,11.26,9.87,13.33,1025,63,1.34,287,100,0.0,Clouds,overcast clouds,19
Budafok,47.425833,19.041389,2026-03-04 19:05:01.061788,12.36,11.27,9.88,13.34,1025,62,1.34,287,99,0.0,Clouds,overcast clouds,19
Tétényliget,47.384722,18.955278,2026-03-04 19:05:02.266718,12.19,11.06,9.9,13.36,1025,61,1.34,287,100,0.0,Clouds,overcast clouds,19
Érd alsó,47.379722,18.923056,2026-03-04 19:05:03.452630,11.88,10.77,9.76,12.01,1025,63,1.34,287,100,0.0,Clouds,overcast clouds,19
Tárnok,47.365556,18.873889,2026-03-04 19:05:04.670283,11.87,10.76,9.83,12.08,1025,63,1.28,326,99,0.0,Clouds,overcast clouds,19
Martonvásár,47.321389,18.781667,2026-03-04 19:05:05.863939,11.96,11.04,11.61,13.21,1025,70,1.25,324,100,0.0,Clouds,overcast clouds,19
Baracska,47.297222,18.753333,2026-03-04 19:05:07.064390,12.11,11.2,11.71,12.11,1025,70,1.2,323,100,0.0,Clouds,overcast clouds,19
Pettend,47.26,18.708889,2026-03-04 19:05:08.260454,8.04,8.04,8.04,8.04,1025,71,1.13,323,100,0.0,Clouds,overcast clouds,19
Kápolnásnyék,47.245556,18.692222,2026-03-04 19:05:09.460543,8.12,8.12,8.12,8.12,1025,71,1.09,321,100,0.0,Clouds,overcast clouds,19
Velence,47.226944,18.663889,2026-03-04 19:05:10.666159,8.2,8.2,8.2,8.2,1025,71,1.08,321,100,0.0,Clouds,overcast clouds,19
Velencefürdő,47.218611,18.648056,2026-03-04 19:05:11.865670,8.2,8.2,8.2,8.2,1025,71,1.06,317,99,0.0,Clouds,overcast clouds,19
Gárdony,47.205833,18.624722,2026-03-04 19:05:13.072620,8.24,8.24,8.24,8.24,1025,71,1.06,318,99,0.0,Clouds,overcast clouds,19
Agárd,47.197666,18.604907,2026-03-04 19:05:14.277417,8.24,8.24,8.24,8.24,1025,71,1.06,318,99,0.0,Clouds,overcast clouds,19
Dinnyés,47.179722,18.560833,2026-03-04 19:05:15.542790,8.25,8.25,8.25,8.25,1025,71,1.09,316,99,0.0,Clouds,overcast clouds,19
Székesfehérvár,47.183611,18.424722,2026-03-04 19:05:16.741696,8.29,8.29,8.29,8.29,1025,71,1.22,318,100,0.0,Clouds,overcast clouds,19
Szabadbattyán,47.105278,18.388333,2026-03-04 19:05:17.945640,8.29,8.29,8.29,8.29,1025,71,1.14,309,100,0.0,Clouds,overcast clouds,19
Kiscséripuszta,47.048056,18.355,2026-03-04 19:05:19.153473,8.13,8.13,8.13,8.13,1025,72,1.02,301,100,0.0,Clouds,overcast clouds,19
Lepsény,46.9875,18.248056,2026-03-04 19:05:20.347779,11.57,10.69,11.57,11.57,1025,73,0.88,298,100,0.0,Clouds,overcast clouds,19
Balatonaliga,46.984444,18.171389,2026-03-04 19:05:21.550023,11.38,10.51,11.38,11.38,1025,74,0.75,303,100,0.0,Clouds,overcast clouds,19
Balatonvilágos,46.964167,18.157222,2026-03-04 19:05:22.746966,11.42,10.58,11.42,11.42,1025,75,0.71,301,99,0.0,Clouds,overcast clouds,19
Szabadifürdő,46.926111,18.103333,2026-03-04 19:05:23.940198,11.59,10.11,11.59,11.59,1025,50,0.73,292,100,0.0,Clouds,overcast clouds,19
Ózd alsó,48.227778,20.306111,2026-03-04 19:05:25.142444,10.39,9.57,10.39,10.39,1025,80,2.05,226,5,0.0,Clear,clear sky,19
Ózd,48.2225,20.294722,2026-03-04 19:05:26.346108,10.44,9.63,10.44,10.44,1025,80,2.05,226,5,0.0,Clear,clear sky,19
Alsóboldva,48.212778,20.792222,2026-03-04 19:05:27.558601,10.61,9.21,10.61,10.77,1025,57,2.01,254,4,0.0,Clear,clear sky,19
Boldva,48.223333,20.790278,2026-03-04 19:05:28.756895,10.6,9.2,10.6,10.76,1025,57,2.01,254,4,0.0,Clear,clear sky,19
Borsodszirák,48.259167,20.770556,2026-03-04 19:05:29.963857,10.55,9.15,10.55,10.72,1025,57,1.98,251,8,0.0,Clear,clear sky,19
Edelény alsó,48.279167,20.760833,2026-03-04 19:05:31.182386,10.53,9.65,10.53,10.53,1025,77,1.98,251,8,0.0,Clear,clear sky,19
Edelény,48.299722,20.749444,2026-03-04 19:05:32.396598,10.51,9.63,10.51,10.51,1025,77,1.94,253,11,0.0,Clouds,few clouds,19
Szendrőlád,48.334444,20.731944,2026-03-04 19:05:33.608330,10.42,9.53,10.42,10.42,1025,77,1.81,257,17,0.0,Clouds,few clouds,19
Szendrő,48.400725,20.721346,2026-03-04 19:05:34.836242,7.98,7.17,7.98,7.98,1025,76,1.66,268,28,0.0,Clouds,scattered clouds,19
Szendrő felső,48.409907,20.720148,2026-03-04 19:05:36.047668,7.98,7.17,7.98,7.98,1025,76,1.66,268,28,0.0,Clouds,scattered clouds,19
Szalonna,48.449444,20.722222,2026-03-04 19:05:37.252649,8.04,7.34,8.04,8.04,1025,75,1.57,280,40,0.0,Clouds,scattered clouds,19
Perkupa,48.471389,20.691111,2026-03-04 19:05:38.449696,7.31,7.31,7.31,7.31,1025,75,1.33,291,42,0.0,Clouds,scattered clouds,19
Szemeretelep,47.443056,19.214167,2026-03-04 19:05:39.655716,12.43,11.35,9.69,13.14,1025,62,0.72,309,98,0.0,Clouds,overcast clouds,19
Jósvafő-Aggtelek,48.489722,20.693889,2026-03-04 19:05:40.862249,7.63,7.63,7.63,7.63,1025,75,1.3,298,49,0.0,Clouds,scattered clouds,19
Bódvaszilas,48.5375,20.738056,2026-03-04 19:05:42.060846,7.27,6.58,7.27,7.27,1025,74,1.46,294,58,0.0,Clouds,broken clouds,19
Komjáti,48.5475,20.759722,2026-03-04 19:05:43.251969,6.83,6.05,6.83,6.83,1025,73,1.49,292,67,0.0,Clouds,broken clouds,19
Tornanádaska,48.558333,20.787222,2026-03-04 19:05:44.470998,7.99,7.29,7.99,7.99,1025,72,1.56,286,71,0.0,Clouds,broken clouds,19
Onga,48.121111,20.906667,2026-03-04 19:05:45.667782,10.66,9.27,10.66,12.71,1025,57,2.11,265,3,0.0,Clear,clear sky,19
Szikszó-Vásártér,48.193056,20.934722,2026-03-04 19:05:46.861622,10.62,9.23,10.62,12.68,1025,57,1.79,265,6,0.0,Clear,clear sky,19
Szikszó,48.201667,20.941667,2026-03-04 19:05:48.053173,10.64,9.25,10.64,12.69,1025,57,1.72,267,9,0.0,Clear,clear sky,19
Aszaló,48.219867,20.961466,2026-03-04 19:05:49.245586,10.62,9.23,10.62,12.67,1025,57,1.62,266,12,0.0,Clouds,few clouds,19
Halmaj,48.246667,20.991667,2026-03-04 19:05:50.440034,10.6,9.67,10.6,10.6,1025,75,1.46,268,20,0.0,Clouds,few clouds,19
Csobád,48.277222,21.033889,2026-03-04 19:05:51.641533,10.57,9.64,10.57,10.57,1025,75,1.31,269,30,0.0,Clouds,scattered clouds,19
Ináncs,48.291111,21.057778,2026-03-04 19:05:52.837917,10.57,9.61,10.57,10.57,1025,74,1.1,270,45,0.0,Clouds,scattered clouds,19
Forró-Encs,48.3275,21.117778,2026-03-04 19:05:54.030201,7.96,7.96,7.96,7.96,1025,74,0.99,264,54,0.0,Clouds,broken clouds,19
Méra,48.363056,21.140278,2026-03-04 19:05:55.222180,7.77,7.77,7.77,7.77,1025,73,0.95,245,69,0.0,Clouds,broken clouds,19
Novajidrány,48.404444,21.170556,2026-03-04 19:05:56.415207,8.33,8.33,8.33,8.5,1025,73,0.98,232,76,0.0,Clouds,broken clouds,19
Hernádszurdok,48.487222,21.213889,2026-03-04 19:05:57.613774,8.3,8.3,8.25,10.81,1025,76,0.51,0,0,0.0,Clear,clear sky,19
Hidasnémeti,48.508333,21.229722,2026-03-04 19:05:58.807520,8.31,8.31,8.26,10.81,1025,76,0.51,0,0,0.0,Clear,clear sky,19
Mád,48.19,21.268889,2026-03-04 19:05:59.999331,12.29,10.98,12.29,12.29,1025,54,1.36,268,66,0.0,Clouds,broken clouds,19
Rátka,48.215,21.230278,2026-03-04 19:06:01.193480,12.45,11.16,12.45,12.45,1025,54,1.21,274,60,0.0,Clouds,broken clouds,19
Tállya,48.226944,21.225278,2026-03-04 19:06:02.389254,12.4,11.11,12.4,12.4,1025,54,1.21,274,60,0.0,Clouds,broken clouds,19
Golop,48.242778,21.204167,2026-03-04 19:06:03.594495,12.52,11.24,12.52,12.52,1025,54,1.12,279,53,0.0,Clouds,broken clouds,19
Abaújszántó,48.286944,21.181667,2026-03-04 19:06:04.812770,12.43,11.69,12.43,12.43,1025,75,0.91,272,55,0.0,Clouds,broken clouds,19
Abaújszántói fürdő,48.268333,21.179722,2026-03-04 19:06:06.010575,12.49,11.75,12.49,12.49,1025,75,1.01,277,53,0.0,Clouds,broken clouds,19
Abaújkér,48.309444,21.198333,2026-03-04 19:06:07.216009,12.39,11.64,12.39,12.39,1025,75,0.85,264,59,0.0,Clouds,broken clouds,19
Boldogkőváralja,48.345,21.208889,2026-03-04 19:06:08.411592,12.19,11.42,12.19,12.19,1025,75,0.77,250,63,0.0,Clouds,broken clouds,19
Korlát-Vizsoly,48.365,21.219167,2026-03-04 19:06:09.625643,12.1,11.3,12.1,12.1,1025,74,0.8,239,68,0.0,Clouds,broken clouds,19
Fony,48.411389,21.242778,2026-03-04 19:06:10.822516,8.16,8.16,8.05,8.3,1025,74,0.99,219,80,0.0,Clouds,broken clouds,19
Hejce-Vilmány,48.419444,21.245556,2026-03-04 19:06:12.017841,8.14,8.14,8.01,8.27,1025,74,0.99,219,80,0.0,Clouds,broken clouds,19
Göncruszka,48.445,21.246944,2026-03-04 19:06:13.214669,8.25,8.25,8.1,8.36,1025,73,1.11,211,87,0.0,Clouds,overcast clouds,19
Gönc,48.470556,21.261389,2026-03-04 19:06:14.405976,8.16,8.16,8.01,8.26,1025,73,1.16,204,93,0.0,Clouds,overcast clouds,19
Zsujta,48.4925,21.265,2026-03-04 19:06:15.630324,8.19,8.19,8.03,8.28,1025,76,0.51,0,0,0.0,Clear,clear sky,19
Bodrogkeresztúr,48.175556,21.354167,2026-03-04 19:06:16.824202,12.56,11.28,12.56,12.56,1025,54,1.52,257,69,0.0,Clouds,broken clouds,19
Szegi,48.201944,21.387778,2026-03-04 19:06:18.036640,12.6,11.33,8.54,12.6,1025,54,1.38,249,50,0.0,Clouds,scattered clouds,19
Erdőbénye,48.218056,21.401944,2026-03-04 19:06:19.241182,12.57,11.29,8.51,12.57,1025,54,1.28,244,37,0.0,Clouds,scattered clouds,19
Olaszliszka-Tolcsva,48.258333,21.448056,2026-03-04 19:06:20.438006,12.6,11.33,8.54,12.6,1025,54,1.11,239,26,0.0,Clouds,scattered clouds,19
Bodrogolaszi,48.286944,21.512778,2026-03-04 19:06:21.640524,8.48,8.48,8.48,12.54,1025,100,1.09,234,24,0.0,Clouds,few clouds,19
Sárospatak,48.325833,21.566111,2026-03-04 19:06:22.841003,8.43,8.43,8.43,12.49,1025,100,1.19,221,21,0.0,Clouds,few clouds,19
Sátoraljaújhely,48.385833,21.657778,2026-03-04 19:06:24.037053,8.51,8.51,8.51,8.51,1025,100,0.69,206,43,0.0,Clouds,scattered clouds,19
Vecsés,47.40855,19.25652,2026-03-04 19:06:25.230430,12.75,11.65,11.55,13.18,1025,60,0.7,310,99,0.13,Rain,light rain,19
Vecsés-Kertekalja,47.403333,19.271389,2026-03-04 19:06:26.422456,12.79,11.69,11.59,13.22,1025,60,0.7,310,99,0.1,Clouds,overcast clouds,19
Üllő,47.390833,19.348889,2026-03-04 19:06:27.620837,12.75,11.65,11.55,13.17,1025,60,0.77,314,100,0.0,Clouds,overcast clouds,19
Monor,47.34545,19.43701,2026-03-04 19:06:28.816368,9.07,9.07,9.07,12.71,1025,76,0.51,140,100,0.0,Clouds,overcast clouds,19
Pilis,47.279722,19.536389,2026-03-04 19:06:30.038634,12.67,11.64,9.03,12.67,1025,63,1.22,324,100,0.0,Clouds,overcast clouds,19
Albertirsa,47.240278,19.606389,2026-03-04 19:06:31.242172,7.89,7.89,7.89,7.89,1025,62,1.12,317,97,0.0,Clouds,overcast clouds,19
Ceglédbercel-Cserő,47.210278,19.686944,2026-03-04 19:06:32.446357,8.03,8.03,8.03,8.03,1025,63,0.94,305,85,0.0,Clouds,overcast clouds,19
Cegléd,47.182778,19.806111,2026-03-04 19:06:33.648370,8.79,8.79,8.79,10.07,1025,63,0.72,273,53,0.0,Clouds,broken clouds,19
Abony,47.173056,20.016389,2026-03-04 19:06:34.840182,8.85,7.8,8.85,9.97,1025,75,2.06,200,0,0.0,Clear,clear sky,19
Szolnok,47.179167,20.175833,2026-03-04 19:06:36.045368,9.99,9.13,8.87,9.99,1025,66,2.06,200,0,0.0,Clear,clear sky,19
Szajol,47.170556,20.295278,2026-03-04 19:06:37.245563,10.01,8.79,8.88,10.01,1025,66,2.06,200,0,0.0,Clear,clear sky,19
Törökszentmiklós,47.170278,20.413611,2026-03-04 19:06:38.446875,10.0,9.14,8.88,10.0,1025,66,2.06,200,0,0.0,Clear,clear sky,19
Rákoscsaba-Újtelep,47.4875,19.271944,2026-03-04 19:06:39.653566,12.43,11.32,9.62,13.08,1025,61,0.82,296,100,0.0,Clouds,overcast clouds,19
Rákoscsaba,47.492222,19.284722,2026-03-04 19:06:40.846728,12.63,11.54,11.44,13.07,1025,61,0.85,293,100,0.17,Rain,light rain,19
Pécel,47.493889,19.338889,2026-03-04 19:06:42.040567,12.51,11.38,11.32,12.95,1025,60,0.89,291,100,0.11,Rain,light rain,19
Isaszeg,47.537719,19.388955,2026-03-04 19:06:43.235509,12.44,11.31,11.23,12.86,1025,60,1.05,290,100,0.0,Clouds,overcast clouds,19
Gödöllő,47.592222,19.358611,2026-03-04 19:06:44.435405,12.03,10.86,11.01,12.64,1025,60,1.15,297,100,0.0,Clouds,overcast clouds,19
Máriabesnyő,47.595556,19.389722,2026-03-04 19:06:45.633871,12.29,11.14,11.15,12.78,1025,60,1.15,297,100,0.0,Clouds,overcast clouds,19
Bag,47.641111,19.471667,2026-03-04 19:06:46.865640,12.73,11.76,9.08,12.73,1025,65,1.4,303,100,0.0,Clouds,overcast clouds,19
Aszód,47.647467,19.492882,2026-03-04 19:06:48.064741,12.8,11.83,9.16,12.8,1025,65,1.46,304,100,0.0,Clouds,overcast clouds,19
Hévízgyörk,47.638611,19.526667,2026-03-04 19:06:49.259832,12.81,11.84,12.81,12.81,1025,65,1.5,304,95,0.0,Clouds,overcast clouds,19
Galgahévíz,47.6325,19.558333,2026-03-04 19:06:50.455120,12.8,11.83,12.8,12.8,1025,65,1.58,303,79,0.0,Clouds,broken clouds,19
Tura,47.626389,19.5975,2026-03-04 19:06:51.661943,12.83,11.87,12.83,12.83,1025,65,1.63,304,69,0.0,Clouds,broken clouds,19
Hatvan,47.663611,19.671389,2026-03-04 19:06:52.865764,8.15,7.26,8.15,8.15,1025,66,1.76,310,38,0.0,Clouds,scattered clouds,19
Vámosgyörk,47.686111,19.927778,2026-03-04 19:06:54.066320,8.26,7.27,8.26,8.26,1025,69,1.88,305,48,0.0,Clouds,scattered clouds,19
Adács,47.696389,19.975278,2026-03-04 19:06:55.260175,8.33,7.37,8.33,8.33,1025,70,1.86,302,63,0.0,Clouds,broken clouds,19
Karácsond,47.718056,20.048611,2026-03-04 19:06:56.465690,8.23,7.28,8.23,8.23,1025,71,1.84,299,68,0.0,Clouds,broken clouds,19
Ludas,47.723889,20.095556,2026-03-04 19:06:57.657394,8.41,7.5,8.41,8.41,1025,72,1.83,295,56,0.0,Clouds,broken clouds,19
Nagyút,47.72666666666667,20.161388888888887,2026-03-04 19:06:58.861950,8.37,7.47,8.37,8.37,1025,73,1.81,293,48,0.0,Clouds,scattered clouds,19
Kál-Kápolna,47.734167,20.254167,2026-03-04 19:07:00.052596,8.35,7.42,8.35,8.35,1025,74,1.84,288,17,0.0,Clouds,few clouds,19
Füzesabony,47.751389,20.415278,2026-03-04 19:07:01.244943,8.3,7.13,8.3,8.3,1025,75,2.1,284,9,0.0,Clear,clear sky,19
Szihalom,47.766944,20.491944,2026-03-04 19:07:02.439149,8.15,6.84,8.15,8.15,1025,76,2.23,283,10,0.0,Clear,clear sky,19
Mezőkövesd,47.797222,20.5675,2026-03-04 19:07:03.635470,8.09,6.65,8.09,8.09,1025,77,2.38,281,10,0.0,Clear,clear sky,19
Mezőkövesd felső,47.807222,20.591389,2026-03-04 19:07:04.832534,10.81,9.96,10.81,10.81,1025,77,2.38,281,10,0.0,Clear,clear sky,19
Mezőkeresztes-Mezőnyárád,47.845556,20.670278,2026-03-04 19:07:06.045976,10.81,9.96,10.64,10.81,1025,77,2.43,279,9,0.0,Clear,clear sky,19
Csincse,47.890833,20.764167,2026-03-04 19:07:07.247235,10.66,9.79,10.66,10.83,1025,77,2.5,274,8,0.0,Clear,clear sky,19
Emőd,47.930556,20.822778,2026-03-04 19:07:08.448109,10.68,9.29,10.68,10.85,1025,57,2.44,274,6,0.0,Clear,clear sky,19
Nyékládháza,47.9925,20.840556,2026-03-04 19:07:09.643911,10.71,9.32,10.71,10.88,1025,57,2.4,271,4,0.0,Clear,clear sky,19
Miskolc-Tiszai,48.098611,20.811389,2026-03-04 19:07:10.846282,10.63,9.24,10.63,10.8,1025,57,2.14,265,1,0.0,Clear,clear sky,19
Felsőzsolca,48.083611,20.866111,2026-03-04 19:07:12.039943,10.66,9.27,10.66,10.82,1025,57,2.2,265,0,0.0,Clear,clear sky,19
Hernádnémeti-Bőcs,48.051389,20.985,2026-03-04 19:07:13.238156,12.71,11.21,10.66,12.71,1025,45,2.33,265,14,0.0,Clouds,few clouds,19
Tiszalúc,48.039722,21.0575,2026-03-04 19:07:14.447369,12.51,10.99,10.7,12.75,1025,45,2.48,261,44,0.0,Clouds,scattered clouds,19
Taktaharkány,48.091667,21.128611,2026-03-04 19:07:15.639857,12.72,11.33,10.75,12.8,1025,49,2.19,264,52,0.0,Clouds,broken clouds,19
Taktaszada,48.1125,21.149444,2026-03-04 19:07:16.838687,12.69,11.42,10.76,12.81,1025,54,1.99,266,60,0.0,Clouds,broken clouds,19
Szerencs,48.155556,21.214444,2026-03-04 19:07:18.038155,12.64,11.37,12.64,12.81,1025,54,1.55,268,70,0.0,Clouds,broken clouds,19
Mezőzombor,48.156944,21.267778,2026-03-04 19:07:19.234608,12.64,11.37,12.64,12.64,1025,54,1.54,265,72,0.0,Clouds,broken clouds,19
Tarcal,48.125,21.34,2026-03-04 19:07:20.446883,12.66,11.39,12.66,12.66,1025,54,1.92,252,88,0.0,Clouds,overcast clouds,19
Tokaj,48.112778,21.406667,2026-03-04 19:07:22.622224,12.62,11.35,12.62,12.62,1025,54,1.95,239,73,0.0,Clouds,broken clouds,19
Rakamaz,48.12,21.475,2026-03-04 19:07:23.826912,12.62,11.35,12.62,12.62,1025,54,1.99,235,65,0.0,Clouds,broken clouds,19
Görögszállás,48.04,21.555,2026-03-04 19:07:25.019882,12.58,11.3,12.58,12.58,1025,54,2.46,227,76,0.0,Clouds,broken clouds,19
Nyírtelek,48.005,21.615556,2026-03-04 19:07:26.213870,12.62,11.84,12.62,12.62,1025,73,2.57,221,51,0.0,Clouds,broken clouds,19
Rákoshegy,47.468611,19.245556,2026-03-04 19:07:27.418121,12.28,11.18,9.57,13.02,1025,62,0.77,299,100,0.0,Clouds,overcast clouds,19
Ecser,47.439444,19.318056,2026-03-04 19:07:28.630997,12.64,11.53,10.88,13.07,1025,60,0.75,301,100,0.0,Clouds,overcast clouds,19
Maglód,47.438889,19.340833,2026-03-04 19:07:29.853276,12.58,11.46,10.82,13.01,1025,60,0.79,299,100,0.0,Clouds,overcast clouds,19
Maglódi nyaraló,47.434167,19.363611,2026-03-04 19:07:31.065685,12.48,11.35,10.73,12.91,1025,60,0.85,297,100,0.0,Clouds,overcast clouds,19
Gyömrő,47.429722,19.393333,2026-03-04 19:07:32.276055,12.47,11.34,10.69,12.88,1025,60,0.85,297,100,0.0,Clouds,overcast clouds,19
Mende,47.426944,19.439722,2026-03-04 19:07:33.480527,12.43,11.3,12.43,12.84,1025,60,1.03,303,100,0.0,Clouds,overcast clouds,19
Szőlősnyaraló,47.450278,19.561111,2026-03-04 19:07:34.703385,12.66,11.55,9.02,12.66,1025,60,1.32,300,100,0.0,Clouds,overcast clouds,19
Sülysáp,47.451944,19.5275,2026-03-04 19:07:35.902957,12.64,11.53,9.0,12.64,1025,60,1.19,299,100,0.0,Clouds,overcast clouds,19
Tápiószecső,47.443056,19.614722,2026-03-04 19:07:37.097229,12.75,11.75,9.1,12.75,1025,64,1.36,301,100,0.0,Clouds,overcast clouds,19
Szentmártonkáta,47.431944,19.680556,2026-03-04 19:07:38.291505,12.77,11.77,12.77,12.77,1025,64,1.42,302,98,0.0,Clouds,overcast clouds,19
Nagykáta,47.409722,19.737778,2026-03-04 19:07:39.487098,8.02,7.52,8.02,8.02,1025,64,1.39,307,98,0.0,Clouds,overcast clouds,19
Farmos,47.355278,19.8375,2026-03-04 19:07:40.691956,8.24,8.24,8.24,8.24,1025,64,1.18,315,66,0.0,Clouds,broken clouds,19
Tápiószele,47.346313,19.873504,2026-03-04 19:07:41.894769,8.25,8.25,8.25,8.25,1025,64,1.04,317,53,0.0,Clouds,broken clouds,19
Tápiógyörgye,47.325,19.95,2026-03-04 19:07:43.089648,8.84,8.84,8.84,8.84,1025,64,0.88,309,16,0.0,Clouds,few clouds,19
Újszász,47.285833,20.066944,2026-03-04 19:07:44.317573,8.88,8.88,8.88,10.01,1025,65,0.81,265,0,0.0,Clear,clear sky,19
Szurdokpüspöki,47.851944,19.690278,2026-03-04 19:07:45.515006,8.1,8.1,8.1,8.1,1025,71,1.28,305,62,0.0,Clouds,broken clouds,19
Lőrinci,47.739444,19.673611,2026-03-04 19:07:46.717776,8.11,7.26,8.11,8.11,1025,67,1.72,313,34,0.0,Clouds,scattered clouds,19
Selyp,47.759167,19.670833,2026-03-04 19:07:47.920768,8.11,7.31,8.11,8.11,1025,68,1.67,314,36,0.0,Clouds,scattered clouds,19
Apc-Zagyvaszántó,47.791328,19.66822,2026-03-04 19:07:49.117611,8.14,7.43,8.14,8.14,1025,68,1.59,313,39,0.0,Clouds,scattered clouds,19
Pásztó,47.918889,19.688889,2026-03-04 19:07:50.309525,7.98,7.98,7.98,7.98,1025,73,1.08,293,80,0.0,Clouds,broken clouds,19
Mátraszőlős-Hasznos,47.938506,19.706122,2026-03-04 19:07:51.510945,8.0,8.0,8.0,8.0,1025,74,1.06,282,83,0.0,Clouds,broken clouds,19
Tar,47.956111,19.746389,2026-03-04 19:07:52.710289,7.6,7.6,7.6,7.6,1025,75,1.17,270,78,0.0,Clouds,broken clouds,19
Mátraverebély,47.968333,19.778611,2026-03-04 19:07:53.911251,7.6,7.6,7.6,7.6,1025,75,1.17,270,78,0.0,Clouds,broken clouds,19
Nagybátony,47.981111,19.82,2026-03-04 19:07:55.105163,7.79,7.79,7.79,7.79,1025,76,1.29,260,74,0.0,Clouds,broken clouds,19
Kisterenye,48.009444,19.831944,2026-03-04 19:07:56.312115,7.9,7.31,7.9,7.9,1025,77,1.45,252,64,0.0,Clouds,broken clouds,19
Kisterenye-Bányatelep,48.021389,19.831944,2026-03-04 19:07:57.504955,7.9,7.31,7.9,7.9,1025,77,1.45,252,64,0.0,Clouds,broken clouds,19
Salgótarján külső,48.089444,19.790833,2026-03-04 19:07:58.696444,7.38,6.45,7.38,7.38,1025,78,1.69,237,62,0.0,Clouds,broken clouds,19
Balatonfenyves GV,46.7125,17.479167,2026-03-04 19:07:59.896880,9.08,9.08,9.08,9.08,1025,77,0.28,42,88,0.0,Clouds,overcast clouds,19
Várhegyalja,47.737778,18.366667,2026-03-04 19:08:01.094668,8.03,7.53,8.03,8.03,1026,77,1.39,21,86,0.0,Clouds,overcast clouds,19
Imremajor,46.680556,17.499722,2026-03-04 19:08:02.287605,9.11,9.11,9.11,9.11,1025,77,0.27,62,82,0.0,Clouds,broken clouds,19
Rákospalota-Kertváros,47.578333,19.122778,2026-03-04 19:08:03.484862,11.53,10.44,9.82,13.27,1025,65,0.45,294,100,0.0,Clouds,overcast clouds,19
Vicziántelep,47.675833,19.286111,2026-03-04 19:08:04.677711,11.28,10.19,10.55,12.74,1025,66,1.33,310,100,0.0,Clouds,overcast clouds,19
Pálmajor,46.662831,17.457526,2026-03-04 19:08:05.878612,9.1,9.1,9.1,9.1,1025,77,0.32,51,65,0.0,Clouds,broken clouds,19
Somogyszentpál felső,46.649758,17.471404,2026-03-04 19:08:07.072928,9.07,9.07,9.07,9.07,1025,77,0.28,80,75,0.0,Clouds,broken clouds,19
Somogyszentpál,46.638611,17.478611,2026-03-04 19:08:08.268672,9.06,9.06,9.06,9.06,1025,77,0.32,92,67,0.0,Clouds,broken clouds,19
Rudnaykert,47.7175,19.257778,2026-03-04 19:08:09.465324,11.05,9.99,10.9,13.08,1025,68,1.46,313,100,0.0,Clouds,overcast clouds,19
Maroshegy,47.158333,18.406667,2026-03-04 19:08:10.674586,8.29,8.29,8.29,8.29,1025,71,1.2,315,100,0.0,Clouds,overcast clouds,19
Bánhida,47.573703,18.371737,2026-03-04 19:08:11.866256,7.84,7.84,7.84,7.84,1025,73,0.49,297,70,0.0,Clouds,broken clouds,19
Magyarkút,47.850278,19.045,2026-03-04 19:08:13.068125,7.36,6.55,7.36,7.36,1025,73,1.58,300,99,0.0,Clouds,overcast clouds,19
Becske alsó,47.897222,19.364722,2026-03-04 19:08:14.263640,7.11,6.53,7.11,7.11,1025,71,1.36,297,97,0.0,Clouds,overcast clouds,19
Hosszúberek-Péteri,47.370556,19.389722,2026-03-04 19:08:15.457709,12.75,11.65,11.95,13.15,1025,60,0.85,321,100,0.0,Clouds,overcast clouds,19
Monorierdő,47.308889,19.499167,2026-03-04 19:08:16.652304,12.65,11.62,9.01,12.65,1025,63,1.18,324,100,0.0,Clouds,overcast clouds,19
Ceglédbercel,47.215833,19.658611,2026-03-04 19:08:17.846334,7.95,7.95,7.95,7.95,1025,62,1.01,308,88,0.0,Clouds,overcast clouds,19
Budai út,47.208333,19.731389,2026-03-04 19:08:19.058335,7.97,7.97,7.97,7.97,1025,63,0.89,302,81,0.0,Clouds,broken clouds,19
Büdöskútpuszta,48.373056,20.726111,2026-03-04 19:08:20.253637,8.12,7.25,8.12,8.12,1025,76,1.74,262,22,0.0,Clouds,few clouds,19
Bánrévei Vízmű,48.282778,20.368333,2026-03-04 19:08:21.456889,10.58,9.76,10.58,10.58,1025,79,1.94,224,1,0.0,Clear,clear sky,19
Rákoskert,47.456389,19.296111,2026-03-04 19:08:22.651921,12.51,11.38,10.75,12.94,1025,60,0.8,296,100,0.0,Clouds,overcast clouds,19
Szirmabesenyő,48.146944,20.783056,2026-03-04 19:08:23.850923,10.56,9.16,10.56,10.73,1025,57,2.08,258,1,0.0,Clear,clear sky,19
Kitérőgyár,47.766944,19.935278,2026-03-04 19:08:25.054900,8.05,7.13,8.05,8.05,1025,71,1.78,301,55,0.0,Clouds,broken clouds,19
Tápiószentmárton,47.373333,19.797778,2026-03-04 19:08:26.249707,8.11,8.11,8.11,8.11,1025,64,1.21,315,78,0.0,Clouds,broken clouds,19
Zagyvarékas,47.244229,20.097435,2026-03-04 19:08:27.444935,8.89,7.85,8.89,10.01,1025,75,2.06,200,0,0.0,Clear,clear sky,19
Abonyi út,47.206401,20.125204,2026-03-04 19:08:28.643211,8.89,7.85,8.89,10.01,1025,75,2.06,200,0,0.0,Clear,clear sky,19
Jászkisér felső,47.438056,20.202222,2026-03-04 19:08:29.836127,8.49,8.49,8.49,8.49,1025,68,1.03,281,2,0.0,Clear,clear sky,19
Szellőhát,47.425556,20.188889,2026-03-04 19:08:31.029346,8.48,8.48,8.48,8.48,1025,67,1.01,276,2,0.0,Clear,clear sky,19
Szilvásvárad-Szalajkavölgy,48.0956,20.38272,2026-03-04 19:08:32.226845,9.14,9.14,9.14,9.14,1025,83,1.28,245,15,0.0,Clouds,few clouds,19
Vásárosnamény külső,48.084444,22.255556,2026-03-04 19:08:33.424268,7.75,7.75,7.75,7.75,1025,72,1.14,166,16,0.0,Clouds,few clouds,19
Újváros,46.660556,20.536111,2026-03-04 19:08:34.627157,12.21,10.84,12.21,12.21,1026,52,1.64,188,5,0.0,Clear,clear sky,19
Városi park,46.697778,19.864722,2026-03-04 19:08:35.834192,10.01,8.84,9.99,10.48,1025,68,2.02,200,9,0.0,Clear,clear sky,19
Belsőkamaráspuszta,46.341944,20.848889,2026-03-04 19:08:37.048324,12.81,11.84,12.81,12.81,1025,65,1.2,134,94,0.0,Clouds,overcast clouds,19
Sajószöged,47.945278,20.981667,2026-03-04 19:08:38.242712,12.81,11.32,10.75,12.81,1025,45,2.64,262,16,0.0,Clouds,few clouds,19
Kazincbarcika alsó,48.255278,20.649167,2026-03-04 19:08:39.439977,10.52,9.69,10.52,10.69,1025,79,2.08,242,3,0.0,Clear,clear sky,19
Nyárjas,46.857778,19.923611,2026-03-04 19:08:40.650684,10.0,10.0,9.95,10.43,1025,67,0.51,140,0,0.0,Clear,clear sky,19
Pogonyipuszta,48.296389,20.381667,2026-03-04 19:08:41.854580,10.54,9.71,10.54,10.54,1025,79,1.94,224,1,0.0,Clear,clear sky,19
Sióvölgy,46.911103,18.076964,2026-03-04 19:08:43.047283,11.64,10.17,11.64,11.64,1025,50,0.67,292,100,0.0,Clouds,overcast clouds,19
Répáspuszta,46.430278,17.847222,2026-03-04 19:08:44.248260,8.6,8.6,8.6,8.6,1025,74,1.14,243,80,0.0,Clouds,broken clouds,19
Virányos,48.066667,21.527222,2026-03-04 19:08:45.450477,12.61,11.34,12.61,12.61,1025,54,2.37,227,69,0.0,Clouds,broken clouds,19
Füzesbokor,47.988611,21.6475,2026-03-04 19:08:46.659685,12.61,11.83,12.61,12.61,1025,73,2.6,220,42,0.0,Clouds,scattered clouds,19
Kunfehértó,46.355833,19.417222,2026-03-04 19:08:47.858601,8.12,7.62,8.12,8.12,1025,63,1.4,205,5,0.0,Clear,clear sky,19
Erdőszél,46.329444,19.395,2026-03-04 19:08:49.064189,8.05,8.05,8.05,8.05,1025,62,1.27,206,3,0.0,Clear,clear sky,19
Jánoshalma,46.293056,19.330278,2026-03-04 19:08:50.267861,8.25,8.25,8.25,8.25,1025,62,1.12,205,1,0.0,Clear,clear sky,19
Mélykút,46.213056,19.370556,2026-03-04 19:08:51.460174,8.33,8.33,8.33,8.33,1025,62,1.04,201,0,0.0,Clear,clear sky,19
Bácsalmás,46.118056,19.346389,2026-03-04 19:08:52.653878,8.49,8.49,8.49,8.49,1025,62,0.99,201,1,0.0,Clear,clear sky,19
Almás,46.116216,19.328803,2026-03-04 19:08:53.853759,8.49,8.49,8.49,8.49,1025,62,0.99,201,1,0.0,Clear,clear sky,19
Bácsbokod-Bácsborsód,46.115833,19.16,2026-03-04 19:08:55.060620,8.63,8.63,8.63,8.63,1025,61,0.92,204,24,0.0,Clouds,few clouds,19
Baja,46.187014,18.957602,2026-03-04 19:08:56.265660,8.9,8.9,8.9,8.9,1025,61,0.99,206,71,0.0,Clouds,broken clouds,19
Harkakötöny,46.458333,19.601944,2026-03-04 19:08:57.471219,12.62,11.58,12.62,12.62,1025,63,1.78,205,9,0.0,Clear,clear sky,19
Tajó,46.473056,19.650556,2026-03-04 19:08:58.664418,12.66,11.63,12.66,12.66,1025,63,1.8,203,8,0.0,Clear,clear sky,19
Kiskunmajsa,46.501667,19.728056,2026-03-04 19:08:59.864225,9.94,9.23,9.94,9.94,1025,63,1.87,200,8,0.0,Clear,clear sky,19
Jászszentlászló,46.565833,19.753611,2026-03-04 19:09:01.065399,9.96,9.17,9.96,9.96,1025,68,1.97,199,8,0.0,Clear,clear sky,19
Galambos,46.625,19.801111,2026-03-04 19:09:02.271469,9.99,9.19,9.99,10.47,1025,68,1.99,198,9,0.0,Clear,clear sky,19
Pestszentimre,47.402222,19.188611,2026-03-04 19:09:03.475609,12.42,11.34,9.78,13.23,1025,62,0.72,320,97,0.0,Clouds,overcast clouds,19
Gyál felső,47.390278,19.204722,2026-03-04 19:09:04.669513,12.69,11.58,11.05,13.24,1025,60,0.7,320,97,0.0,Clouds,overcast clouds,19
Gyál,47.376667,19.219444,2026-03-04 19:09:05.866157,12.73,11.63,11.06,13.25,1025,60,0.7,320,97,0.16,Rain,light rain,19
Ócsa,47.301389,19.232222,2026-03-04 19:09:07.072704,12.64,11.53,11.67,13.28,1025,60,0.85,333,97,0.51,Rain,light rain,19
Inárcs-Kakucs,47.247222,19.317778,2026-03-04 19:09:08.267723,9.23,9.23,9.23,12.87,1025,65,1.08,335,100,0.0,Clouds,overcast clouds,19
Dabas,47.194722,19.328889,2026-03-04 19:09:09.470180,9.24,9.24,9.24,9.24,1025,65,1.27,329,100,0.25,Rain,light rain,19
Gyón,47.178333,19.355556,2026-03-04 19:09:10.668151,9.21,8.91,9.21,9.21,1025,65,1.36,325,100,0.16,Rain,light rain,19
Hernád,47.161389,19.4025,2026-03-04 19:09:11.860944,7.89,7.44,7.89,7.89,1025,63,1.34,311,92,0.45,Rain,light rain,19
Bakonygyirót,47.416389,17.811944,2026-03-04 19:09:13.061573,6.59,6.59,6.59,9.71,1026,78,1.3,265,94,0.46,Rain,light rain,19
Vinye,47.360317,17.819635,2026-03-04 19:09:14.269622,9.03,9.03,5.91,9.03,1026,77,1.28,260,94,1.07,Rain,moderate rain,19
Nemesgörzsöny,47.402924,17.376385,2026-03-04 19:09:15.542527,10.16,9.22,10.16,10.16,1026,76,1.54,220,40,0.0,Clouds,scattered clouds,19
Rábahíd,47.438618,17.337525,2026-03-04 19:09:16.736560,10.15,9.21,10.15,10.15,1026,76,1.54,220,40,0.0,Clouds,scattered clouds,19
Öskü,47.162222,18.076389,2026-03-04 19:09:17.928747,8.0,8.0,8.0,8.0,1025,74,1.18,309,100,0.0,Clouds,overcast clouds,19
Márkó,47.1275,17.813889,2026-03-04 19:09:19.136492,10.42,9.58,10.42,10.42,1026,79,1.07,307,100,0.12,Rain,light rain,19
Nemeskocs,47.203333,17.188889,2026-03-04 19:09:20.346319,10.11,9.29,10.11,10.11,1026,81,2.87,344,83,0.0,Clouds,broken clouds,19
Zalagyömörő,47.011111,17.220833,2026-03-04 19:09:21.556350,8.19,6.48,8.19,8.19,1026,83,2.78,349,90,0.0,Clouds,overcast clouds,19
Rigács,47.061667,17.199167,2026-03-04 19:09:22.769501,8.12,6.37,8.12,8.12,1026,83,2.82,349,95,0.0,Clouds,overcast clouds,19
Kemenespálfa,47.139722,17.183056,2026-03-04 19:09:23.965513,8.13,6.33,8.13,8.13,1026,82,2.9,348,94,0.0,Clouds,overcast clouds,19
Lentiszombathely,46.611389,16.5725,2026-03-04 19:09:25.164058,12.35,11.68,8.28,12.35,1026,78,1.59,7,14,0.0,Clouds,few clouds,19
Ortaháza,46.626667,16.685833,2026-03-04 19:09:26.391556,8.19,7.45,8.19,8.19,1026,79,1.62,2,0,0.0,Clear,clear sky,19
Rádiháza,46.654722,16.765833,2026-03-04 19:09:27.584861,8.14,7.24,8.14,8.14,1026,79,1.77,359,0,0.0,Clear,clear sky,19
Baktüttös,46.690833,16.826389,2026-03-04 19:09:28.791302,8.6,7.49,8.6,8.6,1026,79,2.08,354,0,0.0,Clear,clear sky,19
Budafa,46.851667,16.624722,2026-03-04 19:09:29.984791,8.03,6.64,8.03,8.03,1026,82,2.31,11,42,0.0,Clouds,scattered clouds,19
Zalapatakalja,46.845556,16.603889,2026-03-04 19:09:31.176554,8.02,6.59,8.02,8.02,1026,82,2.35,13,35,0.0,Clouds,scattered clouds,19
Tormásliget,47.430556,16.781667,2026-03-04 19:09:32.381142,7.75,5.85,7.75,7.75,1026,80,2.94,336,73,0.0,Clouds,broken clouds,19
Belecska,46.64,18.411389,2026-03-04 19:09:33.582233,8.64,8.64,8.64,8.64,1025,76,1.02,251,100,0.0,Clouds,overcast clouds,19
Almár,47.956111,20.356944,2026-03-04 19:09:34.784917,10.35,9.61,10.35,10.35,1025,83,1.21,285,23,0.0,Clouds,few clouds,19
Vasútmúzeum,47.543889,19.099444,2026-03-04 19:09:35.978363,11.79,10.7,9.82,13.28,1025,64,1.34,265,100,0.0,Clouds,overcast clouds,19
Abda,47.690833,17.540556,2026-03-04 19:09:37.191620,7.09,5.98,7.09,7.09,1026,80,1.82,20,100,0.0,Clouds,overcast clouds,19
Vadaspark,47.526111,18.949167,2026-03-04 19:09:38.389167,9.68,9.46,8.02,11.47,1025,67,1.34,265,100,0.0,Clouds,overcast clouds,19
Barosstelep,47.398889,18.989167,2026-03-04 19:09:39.595777,12.22,11.12,9.88,13.34,1025,62,1.34,295,100,0.0,Clouds,overcast clouds,19
Fegyvernek-Örményes,47.194444,20.5575,2026-03-04 19:09:40.793301,10.02,8.83,10.02,10.02,1025,67,2.34,228,15,0.0,Clouds,few clouds,19
Zagyvapálfalva,48.068889,19.785,2026-03-04 19:09:41.990514,7.59,6.82,7.59,7.59,1025,77,1.57,241,68,0.0,Clouds,broken clouds,19
Salgótarján,48.105556,19.807222,2026-03-04 19:09:43.181372,6.94,5.82,6.94,6.94,1025,78,1.81,234,54,0.0,Clouds,broken clouds,19
Szabadisóstó,46.933889,18.118056,2026-03-04 19:09:44.379583,11.62,10.14,11.62,11.62,1025,50,0.7,297,99,0.0,Clouds,overcast clouds,19
Siófok,46.907778,18.053889,2026-03-04 19:09:45.593389,11.62,10.14,11.62,11.62,1025,50,0.67,292,100,0.0,Clouds,overcast clouds,19
Balatonszéplak felső,46.898056,18.018056,2026-03-04 19:09:46.801916,11.62,10.14,11.62,11.62,1025,50,0.68,282,100,0.0,Clouds,overcast clouds,19
Balatonszéplak alsó,46.891944,17.993333,2026-03-04 19:09:48.001101,11.62,10.14,11.62,11.62,1025,50,1.79,0,100,0.0,Clouds,overcast clouds,19
Zamárdi felső,46.886111,17.969444,2026-03-04 19:09:49.200209,11.63,10.15,11.63,11.63,1025,50,1.79,0,100,0.0,Clouds,overcast clouds,19
Zamárdi,46.88,17.944722,2026-03-04 19:09:50.397731,11.57,10.09,11.57,11.57,1025,50,1.79,0,100,0.0,Clouds,overcast clouds,19
Szántód,46.861944,17.899167,2026-03-04 19:09:51.614915,11.64,10.17,11.64,11.64,1025,50,1.79,0,98,0.0,Clouds,overcast clouds,19
Szőny-Déli,47.735278,18.141944,2026-03-04 19:09:52.808766,7.12,5.87,7.12,11.17,1026,79,1.97,33,86,0.0,Clouds,overcast clouds,19
Várpalota,47.194444,18.149167,2026-03-04 19:09:54.014157,7.72,7.21,7.72,7.72,1025,72,1.37,308,100,0.0,Clouds,overcast clouds,19
Pétfürdő,47.1675,18.121389,2026-03-04 19:09:55.221553,8.17,8.17,8.17,8.17,1025,73,1.3,310,100,0.0,Clouds,overcast clouds,19
Hajmáskér,47.141111,18.009444,2026-03-04 19:09:56.422757,11.22,10.36,11.22,11.22,1025,75,1.15,308,100,0.0,Clouds,overcast clouds,19
Veszprém,47.118889,17.91,2026-03-04 19:09:57.620746,11.01,10.18,11.01,11.01,1026,77,1.02,306,100,0.0,Clouds,overcast clouds,19
Herend,47.136944,17.760278,2026-03-04 19:09:58.822283,10.2,9.34,10.2,10.2,1026,79,1.11,308,100,0.0,Clouds,overcast clouds,19
Városlőd,47.144167,17.652778,2026-03-04 19:10:00.021557,8.98,8.64,8.98,8.98,1026,81,1.36,314,94,0.0,Clouds,overcast clouds,19
Városlőd-Kislőd,47.133889,17.631111,2026-03-04 19:10:01.214670,9.09,8.7,9.09,9.09,1026,80,1.42,316,94,0.0,Clouds,overcast clouds,19
Ajka,47.105902,17.572938,2026-03-04 19:10:02.413634,9.39,8.67,9.39,9.39,1026,80,1.79,325,90,0.0,Clouds,overcast clouds,19
Ajka-Gyártelep,47.096806,17.555219,2026-03-04 19:10:03.599561,9.47,8.76,9.47,9.47,1026,80,1.79,325,90,0.0,Clouds,overcast clouds,19
Devecser,47.1125,17.435278,2026-03-04 19:10:04.798836,9.84,8.9,9.84,9.84,1026,81,2.13,332,95,0.0,Clouds,overcast clouds,19
Somlóvásárhely,47.124444,17.369167,2026-03-04 19:10:05.993751,9.95,8.77,9.95,9.95,1026,82,2.49,340,100,0.0,Clouds,overcast clouds,19
Tüskevár,47.128611,17.331389,2026-03-04 19:10:07.223200,9.99,8.75,9.99,9.99,1026,82,2.6,342,100,0.0,Clouds,overcast clouds,19
Karakószörcsök,47.133611,17.287778,2026-03-04 19:10:08.416532,8.14,6.5,8.14,8.14,1026,82,2.67,344,100,0.0,Clouds,overcast clouds,19
Kerta,47.151944,17.237222,2026-03-04 19:10:09.614491,8.18,6.42,8.18,8.18,1026,82,2.86,346,100,0.0,Clouds,overcast clouds,19
Boba,47.183333,17.191389,2026-03-04 19:10:10.824395,8.11,6.31,8.11,8.11,1026,81,2.89,346,88,0.0,Clouds,overcast clouds,19
Börgönd,47.140278,18.515,2026-03-04 19:10:12.025364,8.15,8.15,8.15,8.15,1025,72,1.13,307,100,0.0,Clouds,overcast clouds,19
Belsőbáránd,47.102778,18.499722,2026-03-04 19:10:13.246682,8.13,8.13,8.13,8.13,1025,72,1.15,304,100,0.0,Clouds,overcast clouds,19
Zichyújfalu,47.124444,18.6725,2026-03-04 19:10:14.449128,8.07,8.07,8.07,8.07,1025,72,1.04,301,100,0.0,Clouds,overcast clouds,19
Seregélyes,47.121111,18.580556,2026-03-04 19:10:15.646729,8.27,8.27,8.27,8.27,1025,72,1.11,306,99,0.0,Clouds,overcast clouds,19
Polgárdi-Ipartelepek,47.079167,18.314444,2026-03-04 19:10:16.842020,7.99,7.99,7.99,7.99,1025,72,1.04,307,100,0.0,Clouds,overcast clouds,19
Polgárdi,47.07,18.284167,2026-03-04 19:10:18.033331,7.99,7.99,7.99,7.99,1025,72,1.04,307,100,0.0,Clouds,overcast clouds,19
Füle,47.05,18.255278,2026-03-04 19:10:19.233120,8.0,8.0,8.0,8.0,1025,72,0.94,304,100,0.0,Clouds,overcast clouds,19
Zánka-Erzsébettábor,46.8775,17.709167,2026-03-04 19:10:20.432183,11.57,10.09,11.57,11.57,1025,50,0.46,300,100,0.0,Clouds,overcast clouds,19
Csajág,47.033889,18.186389,2026-03-04 19:10:21.633906,11.46,10.57,11.46,11.46,1025,73,0.79,307,100,0.0,Clouds,overcast clouds,19
Balatonakarattya,47.017222,18.167778,2026-03-04 19:10:22.828217,11.31,10.4,11.31,11.31,1025,73,0.79,307,100,0.0,Clouds,overcast clouds,19
Csittényhegy,47.025278,18.1375,2026-03-04 19:10:24.023201,11.53,10.67,11.53,11.53,1025,74,0.77,309,100,0.0,Clouds,overcast clouds,19
Balatonkenese,47.0325,18.105556,2026-03-04 19:10:25.213722,11.61,10.76,11.61,11.61,1025,74,0.76,310,100,0.0,Clouds,overcast clouds,19
Balatonfűzfő,47.060278,18.0425,2026-03-04 19:10:26.445016,11.64,10.17,11.64,11.64,1025,50,0.86,315,100,0.0,Clouds,overcast clouds,19
Balatonalmádi,47.028333,18.015,2026-03-04 19:10:27.639858,11.61,10.13,11.61,11.61,1025,50,0.78,314,100,0.0,Clouds,overcast clouds,19
Káptalanfüred,47.008889,18.003889,2026-03-04 19:10:28.838424,11.64,10.17,11.64,11.64,1025,50,0.74,313,100,0.0,Clouds,overcast clouds,19
Alsóörs,46.985278,17.974722,2026-03-04 19:10:30.036408,11.65,10.18,11.65,11.65,1025,50,1.79,0,100,0.0,Clouds,overcast clouds,19
Csopak,46.974722,17.931111,2026-03-04 19:10:31.233477,11.52,10.03,11.52,11.52,1025,50,1.79,0,100,0.0,Clouds,overcast clouds,19
Balatonarács,46.9625,17.8975,2026-03-04 19:10:32.433218,11.42,9.92,11.42,11.42,1025,50,1.79,0,100,0.0,Clouds,overcast clouds,19
Balatonfüred,46.955833,17.883056,2026-03-04 19:10:33.630441,11.49,10.0,11.49,11.49,1025,50,1.79,0,100,0.0,Clouds,overcast clouds,19
Aszófő,46.925556,17.8325,2026-03-04 19:10:34.828679,11.59,10.11,11.59,11.59,1025,50,1.79,0,98,0.0,Clouds,overcast clouds,19
Örvényes,46.9125,17.818056,2026-03-04 19:10:36.032474,11.61,10.13,11.61,11.61,1025,50,1.79,0,98,0.0,Clouds,overcast clouds,19
Balatonudvari,46.904722,17.808056,2026-03-04 19:10:37.233689,11.64,10.17,11.64,11.64,1025,50,1.79,0,98,0.0,Clouds,overcast clouds,19
Fövenyes,46.893611,17.789444,2026-03-04 19:10:38.432739,11.66,10.19,11.66,11.66,1025,50,1.79,0,97,0.0,Clouds,overcast clouds,19
Balatonakali-Dörgicse,46.88,17.747778,2026-03-04 19:10:39.626980,11.65,10.18,11.65,11.65,1025,50,0.61,303,98,0.0,Clouds,overcast clouds,19
Zánka-Köveskál,46.872778,17.687778,2026-03-04 19:10:40.856475,11.64,10.17,11.64,11.64,1025,50,0.48,309,100,0.0,Clouds,overcast clouds,19
Balatonszepezd,46.851111,17.663056,2026-03-04 19:10:42.050220,11.64,10.17,11.64,11.64,1025,50,0.28,288,100,0.0,Clouds,overcast clouds,19
Szepezdfürdő,46.839722,17.649444,2026-03-04 19:10:43.249814,11.61,10.86,11.61,11.61,1025,78,0.3,310,100,0.0,Clouds,overcast clouds,19
Révfülöp,46.829167,17.632222,2026-03-04 19:10:44.448790,11.62,10.87,11.62,11.62,1025,78,0.3,310,100,0.0,Clouds,overcast clouds,19
Balatonrendes,46.824722,17.582778,2026-03-04 19:10:45.652694,11.62,10.87,11.62,11.62,1025,78,0.39,348,100,0.0,Clouds,overcast clouds,19
Ábrahámhegy,46.815,17.572222,2026-03-04 19:10:46.853828,11.59,10.84,11.59,11.59,1025,78,0.39,348,100,0.0,Clouds,overcast clouds,19
Badacsonyörs,46.805556,17.531667,2026-03-04 19:10:48.063531,8.65,8.65,8.65,8.65,1025,78,0.53,350,100,0.0,Clouds,overcast clouds,19
Kisújszállás,47.223889,20.751111,2026-03-04 19:10:49.277882,8.47,7.11,8.47,8.47,1025,68,2.37,227,5,0.0,Clear,clear sky,19
Karcag,47.303333,20.928056,2026-03-04 19:10:50.472462,8.37,7.07,8.37,8.37,1025,69,2.27,227,5,0.0,Clear,clear sky,19
Püspökladány,47.3275,21.128889,2026-03-04 19:10:51.678350,8.29,6.85,8.29,8.29,1025,69,2.43,226,29,0.0,Clouds,scattered clouds,19
Kaba,47.368889,21.259444,2026-03-04 19:10:52.875160,7.1,5.42,7.1,7.1,1025,69,2.46,225,59,0.0,Clouds,broken clouds,19
Hajdúszoboszló,47.429444,21.406944,2026-03-04 19:10:54.082829,7.09,5.75,7.09,7.09,1025,81,2.06,200,0,0.0,Clear,clear sky,19
Ebes,47.462778,21.488889,2026-03-04 19:10:55.275559,7.04,5.69,7.04,7.04,1025,81,2.06,200,0,0.0,Clear,clear sky,19
Debrecen,47.520278,21.628611,2026-03-04 19:10:56.466786,6.92,5.55,6.92,6.92,1025,81,2.06,200,0,0.0,Clear,clear sky,19
Debrecen-Csapókert,47.540556,21.648056,2026-03-04 19:10:57.667880,6.87,5.49,6.87,6.87,1025,81,2.06,200,0,0.0,Clear,clear sky,19
Apafa,47.584045,21.655858,2026-03-04 19:10:58.868410,6.83,5.44,6.83,6.83,1025,81,2.06,200,0,0.0,Clear,clear sky,19
Bocskaikert,47.6425,21.666389,2026-03-04 19:11:00.088711,6.76,5.36,6.76,6.76,1025,81,2.06,200,0,0.0,Clear,clear sky,19
Hajdúhadház,47.686944,21.679167,2026-03-04 19:11:01.281700,6.73,5.03,6.73,6.73,1025,70,2.4,221,41,0.0,Clouds,scattered clouds,19
Téglás,47.714722,21.684722,2026-03-04 19:11:02.477609,6.8,5.08,6.8,6.8,1025,71,2.44,221,37,0.0,Clouds,scattered clouds,19
Újfehértó,47.814444,21.706389,2026-03-04 19:11:03.672843,7.9,6.27,7.9,7.9,1025,71,2.59,220,29,0.0,Clouds,scattered clouds,19
Nyíregyháza,47.946667,21.705556,2026-03-04 19:11:04.865925,7.98,6.34,7.98,7.98,1025,72,2.62,220,32,0.0,Clouds,scattered clouds,19
Sóstó,47.998051,21.729047,2026-03-04 19:11:06.067873,11.48,10.56,11.48,11.48,1025,72,2.58,217,14,0.0,Clouds,few clouds,19
Sóstóhegy,48.012222,21.742778,2026-03-04 19:11:07.260845,11.48,10.56,11.48,11.48,1025,72,2.58,217,12,0.0,Clouds,few clouds,19
Kemecse,48.065556,21.801667,2026-03-04 19:11:08.455441,8.07,6.51,8.07,8.07,1025,71,2.53,214,0,0.0,Clear,clear sky,19
Nyírbogdány,48.082222,21.855278,2026-03-04 19:11:09.650709,8.04,6.54,8.04,8.04,1025,71,2.45,212,0,0.0,Clear,clear sky,19
Kék,48.093333,21.883889,2026-03-04 19:11:10.855551,8.09,6.73,8.09,8.09,1025,71,2.28,211,0,0.0,Clear,clear sky,19
Demecser,48.111667,21.926667,2026-03-04 19:11:12.072225,8.09,6.89,8.09,8.09,1025,71,2.09,208,0,0.0,Clear,clear sky,19
Gégény,48.128333,21.951944,2026-03-04 19:11:13.273645,8.05,7.05,8.05,8.05,1025,71,1.86,203,0,0.0,Clear,clear sky,19
Pátroha,48.158611,21.996667,2026-03-04 19:11:14.467045,8.04,7.28,8.04,8.04,1025,72,1.62,196,0,0.0,Clear,clear sky,19
Ajak,48.1865,22.048972,2026-03-04 19:11:15.661707,7.99,7.43,7.99,7.99,1025,72,1.44,185,2,0.0,Clear,clear sky,19
Kisvárda,48.208333,22.078333,2026-03-04 19:11:16.856722,7.94,7.94,7.94,7.94,1025,73,1.31,161,5,0.0,Clear,clear sky,19
Kisvárda-Hármasút,48.228333,22.091944,2026-03-04 19:11:18.061849,7.94,7.94,7.94,7.94,1025,73,1.31,161,5,0.0,Clear,clear sky,19
Fényeslitke,48.267222,22.107222,2026-03-04 19:11:19.263629,7.8,7.04,7.8,7.8,1025,75,1.59,138,7,0.0,Clear,clear sky,19
Komoró,48.305278,22.118056,2026-03-04 19:11:20.466443,7.79,6.86,7.79,7.79,1025,75,1.75,133,7,0.0,Clear,clear sky,19
Tuzsér,48.342222,22.131667,2026-03-04 19:11:21.672892,7.67,6.4,7.67,7.67,1025,76,2.09,127,5,0.0,Clear,clear sky,19
Tiszabezdéd,48.371389,22.145,2026-03-04 19:11:22.869384,7.63,6.14,7.63,7.63,1025,76,2.34,121,3,0.0,Clear,clear sky,19
Záhony,48.402222,22.183611,2026-03-04 19:11:24.080733,7.57,5.94,7.57,7.57,1025,76,2.51,117,1,0.0,Clear,clear sky,19
Karcag-Vásártér,47.3225,20.9075,2026-03-04 19:11:25.271339,8.33,7.02,8.33,8.33,1025,69,2.27,227,5,0.0,Clear,clear sky,19
Berekfürdő,47.374722,20.827222,2026-03-04 19:11:26.467022,8.32,7.34,8.32,8.32,1025,69,1.88,232,3,0.0,Clear,clear sky,19
Kunmadaras,47.415278,20.793056,2026-03-04 19:11:27.679028,8.31,7.67,8.31,8.31,1025,72,1.55,235,4,0.0,Clear,clear sky,19
Tiszaszentimre,47.490833,20.733056,2026-03-04 19:11:29.019737,8.32,8.32,8.32,8.32,1025,72,1.15,243,8,0.0,Clear,clear sky,19
Tiszaszőlős,47.555556,20.728056,2026-03-04 19:11:30.219506,8.32,8.32,8.32,8.32,1025,72,1.19,252,8,0.0,Clear,clear sky,19
Hosszúhát,47.235556,21.101944,2026-03-04 19:11:31.422128,8.33,6.82,8.33,8.33,1025,68,2.54,218,18,0.0,Clouds,few clouds,19
Szerep,47.234444,21.145833,2026-03-04 19:11:32.629988,8.32,6.8,8.32,8.32,1025,68,2.54,217,21,0.0,Clouds,few clouds,19
Sárrétudvari,47.231667,21.180833,2026-03-04 19:11:33.823438,8.28,6.76,8.28,8.28,1025,68,2.53,216,24,0.0,Clouds,few clouds,19
Biharnagybajom,47.208889,21.221944,2026-03-04 19:11:35.016433,8.28,6.78,8.28,8.28,1025,68,2.51,214,25,0.0,Clouds,scattered clouds,19
Füzesgyarmat,47.113056,21.194444,2026-03-04 19:11:36.219473,8.32,6.93,8.32,8.32,1025,67,2.37,211,15,0.0,Clouds,few clouds,19
Füzesgyarmatfürdő,47.093787,21.201582,2026-03-04 19:11:37.419407,8.32,6.93,8.32,8.32,1025,67,2.37,211,15,0.0,Clouds,few clouds,19
Báránd,47.299722,21.235278,2026-03-04 19:11:38.629200,8.25,6.75,8.25,8.25,1025,69,2.5,221,44,0.0,Clouds,scattered clouds,19
Sáp,47.259722,21.360556,2026-03-04 19:11:39.835175,8.2,6.71,8.2,8.2,1025,68,2.48,216,37,0.0,Clouds,scattered clouds,19
Berettyóújfalu,47.211944,21.535556,2026-03-04 19:11:41.039794,8.12,6.7,8.12,8.12,1025,67,2.36,212,58,0.0,Clouds,broken clouds,19
Mezőpeterd,47.176111,21.625278,2026-03-04 19:11:42.239844,8.06,6.66,8.06,8.28,1025,66,2.33,209,81,0.0,Clouds,broken clouds,19
Biharkeresztes,47.135556,21.721389,2026-03-04 19:11:43.441818,8.03,6.84,8.03,8.25,1025,71,2.06,160,0,0.0,Clear,clear sky,19
Tócóvölgy,47.529444,21.588889,2026-03-04 19:11:44.638524,6.97,5.61,6.97,6.97,1025,81,2.06,200,0,0.0,Clear,clear sky,19
Sáregres,46.7825,18.588889,2026-03-04 19:11:45.844800,8.39,7.9,8.39,8.39,1025,76,1.42,245,98,0.0,Clouds,overcast clouds,19
Simontornya,46.756582,18.540674,2026-03-04 19:11:47.035897,8.36,8.36,8.36,8.36,1025,77,1.13,254,100,0.0,Clouds,overcast clouds,19
Tolnanémedi,46.727778,18.475833,2026-03-04 19:11:48.227571,8.47,8.47,8.47,8.47,1025,77,1.07,256,100,0.0,Clouds,overcast clouds,19
Pincehely,46.681389,18.43,2026-03-04 19:11:49.430901,8.43,8.43,8.43,8.43,1025,77,1.02,260,100,0.0,Clouds,overcast clouds,19
Keszőhidegkút-Gyönk,46.597778,18.426111,2026-03-04 19:11:50.625639,8.59,8.59,8.59,8.59,1025,75,1.02,246,100,0.0,Clouds,overcast clouds,19
Szárazd,46.575556,18.420833,2026-03-04 19:11:51.832510,8.66,8.66,8.66,8.66,1025,74,1.03,242,100,0.0,Clouds,overcast clouds,19
Regöly,46.568889,18.396111,2026-03-04 19:11:53.034019,8.66,8.66,8.66,8.66,1025,74,1.03,242,100,0.0,Clouds,overcast clouds,19
Szakály-Hőgyész,46.523611,18.389444,2026-03-04 19:11:54.230919,8.69,8.69,8.69,8.69,1025,73,1.11,232,100,0.0,Clouds,overcast clouds,19
Dúzs,46.493889,18.377222,2026-03-04 19:11:55.424641,8.77,8.77,8.77,8.77,1025,72,1.13,229,100,0.0,Clouds,overcast clouds,19
Csibrák,46.466667,18.336389,2026-03-04 19:11:56.636738,8.9,8.9,8.9,8.9,1025,71,1.22,226,98,0.0,Clouds,overcast clouds,19
Kurd,46.449167,18.319167,2026-03-04 19:11:57.832049,8.59,8.59,8.59,8.59,1025,71,1.24,223,94,0.0,Clouds,overcast clouds,19
Döbrököz,46.418889,18.255,2026-03-04 19:11:59.032785,8.95,8.62,8.95,8.95,1025,70,1.35,222,88,0.0,Clouds,overcast clouds,19
Dombóvár,46.37,18.149722,2026-03-04 19:12:00.259883,9.01,8.63,9.01,9.01,1025,70,1.4,226,52,0.0,Clouds,broken clouds,19
Dombóvár alsó,46.363889,18.134167,2026-03-04 19:12:01.458847,9.01,8.63,9.01,9.01,1025,70,1.4,226,52,0.0,Clouds,broken clouds,19
Somoskőújfalu,48.154722,19.815556,2026-03-04 19:12:02.650740,5.85,4.39,5.85,5.85,1025,78,1.97,233,38,0.0,Clouds,scattered clouds,19
Jászfényszaru,47.593056,19.754444,2026-03-04 19:12:03.843424,8.17,7.25,8.17,8.17,1025,66,1.8,305,40,0.0,Clouds,scattered clouds,19
Pusztamonostor,47.564444,19.794167,2026-03-04 19:12:05.036211,8.19,7.29,8.19,8.19,1025,66,1.78,303,44,0.0,Clouds,scattered clouds,19
Jászberény,47.494444,19.893333,2026-03-04 19:12:06.238136,8.29,7.62,8.29,8.29,1025,66,1.57,302,44,0.0,Clouds,scattered clouds,19
Meggyespele,47.441944,19.938889,2026-03-04 19:12:07.431508,8.37,8.37,8.37,8.37,1025,66,1.28,304,16,0.0,Clouds,few clouds,19
Portelek,47.418056,19.958889,2026-03-04 19:12:08.629582,8.37,8.37,8.37,8.37,1025,65,1.18,306,16,0.0,Clouds,few clouds,19
Jászboldogháza-Jánoshida,47.366944,20.001389,2026-03-04 19:12:09.821983,8.38,8.38,8.38,8.38,1025,65,0.95,306,7,0.0,Clear,clear sky,19
Jászárokszállás,47.635556,19.971111,2026-03-04 19:12:11.028928,8.39,7.49,8.39,8.39,1025,68,1.81,303,44,0.0,Clouds,scattered clouds,19
Jászdózsa,47.563056,20.028056,2026-03-04 19:12:12.235502,8.44,7.75,8.44,8.44,1025,68,1.61,299,30,0.0,Clouds,scattered clouds,19
Jászapáti,47.513611,20.155,2026-03-04 19:12:13.428624,8.45,8.45,8.45,8.45,1025,69,1.23,292,8,0.0,Clear,clear sky,19
Jászkisér,47.456111,20.203333,2026-03-04 19:12:14.647704,8.34,8.34,8.34,8.34,1025,68,1.05,284,3,0.0,Clear,clear sky,19
Jászladány,47.373333,20.159167,2026-03-04 19:12:15.851834,10.01,8.79,10.01,10.01,1025,66,0.96,272,0,0.0,Clear,clear sky,19
Szászberek,47.320556,20.090833,2026-03-04 19:12:17.072240,10.01,8.76,8.32,10.01,1025,65,0.89,266,0,0.0,Clear,clear sky,19
Gyöngyöshalász,47.743056,19.932222,2026-03-04 19:12:18.270539,8.22,7.29,8.22,8.22,1025,70,1.82,303,54,0.0,Clouds,broken clouds,19
Gyöngyös,47.783056,19.937222,2026-03-04 19:12:19.485660,7.89,6.93,7.89,7.89,1025,71,1.79,299,62,0.0,Clouds,broken clouds,19
Erdőtelek,47.683333,20.3025,2026-03-04 19:12:20.707031,8.35,7.56,8.35,8.35,1025,73,1.69,288,10,0.0,Clear,clear sky,19
Heves,47.609444,20.306111,2026-03-04 19:12:21.904032,8.27,8.27,8.27,8.27,1025,71,1.28,288,7,0.0,Clear,clear sky,19
Hevesvezekény,47.562222,20.365833,2026-03-04 19:12:23.106914,8.31,8.31,8.31,8.31,1025,72,1.08,283,5,0.0,Clear,clear sky,19
Tarnaszentmiklós,47.546944,20.390833,2026-03-04 19:12:24.309274,8.32,8.32,8.32,8.32,1025,72,0.95,280,5,0.0,Clear,clear sky,19
Kisköre,47.495556,20.481667,2026-03-04 19:12:25.578513,8.34,8.34,8.34,8.34,1025,72,0.79,255,7,0.0,Clear,clear sky,19
Abádszalók,47.455278,20.553056,2026-03-04 19:12:26.776965,8.32,8.32,8.32,8.32,1025,72,0.84,247,9,0.0,Clear,clear sky,19
Kunhegyes,47.376667,20.641111,2026-03-04 19:12:27.982995,8.32,7.86,8.32,8.32,1025,72,1.39,235,11,0.0,Clouds,few clouds,19
Kenderes,47.254444,20.686111,2026-03-04 19:12:29.178405,8.35,7.08,8.35,8.35,1025,68,2.23,230,10,0.0,Clear,clear sky,19
Maklár,47.808056,20.404722,2026-03-04 19:12:30.383679,10.69,9.8,10.69,10.69,1025,76,2.1,285,11,0.0,Clouds,few clouds,19
Andornaktálya,47.852203,20.402295,2026-03-04 19:12:31.583234,10.63,9.76,10.63,10.63,1025,77,1.93,288,14,0.0,Clouds,few clouds,19
Eger,47.891667,20.381667,2026-03-04 19:12:32.805684,10.54,9.69,10.54,10.54,1025,78,1.67,290,18,0.0,Clouds,few clouds,19
Egervár,47.908056,20.380556,2026-03-04 19:12:34.000505,10.36,9.62,10.36,10.36,1025,83,1.52,290,20,0.0,Clouds,few clouds,19
Eger-Felnémet,47.936667,20.370556,2026-03-04 19:12:35.194932,10.41,9.67,10.41,10.41,1025,83,1.39,289,21,0.0,Clouds,few clouds,19
Szarvaskő,47.988611,20.3325,2026-03-04 19:12:36.388901,10.0,10.0,10.0,11.48,1025,83,1.11,279,22,0.0,Clouds,few clouds,19
Mónosbél,48.031944,20.33,2026-03-04 19:12:37.594628,9.82,9.82,9.82,11.3,1025,83,1.08,261,20,0.0,Clouds,few clouds,19
Bélapátfalva,48.055556,20.340556,2026-03-04 19:12:38.787318,9.53,9.53,9.53,11.01,1025,83,1.16,251,18,0.0,Clouds,few clouds,19
Bélapátfalvi Cementgyár,48.058056,20.355,2026-03-04 19:12:39.979312,9.48,9.48,9.48,10.96,1025,83,1.16,251,18,0.0,Clouds,few clouds,19
Szilvásvárad,48.11345,20.37919,2026-03-04 19:12:41.181093,9.35,8.96,9.35,10.83,1025,83,1.45,238,13,0.0,Clouds,few clouds,19
Hejőkeresztúr,47.960278,20.869444,2026-03-04 19:12:42.373122,12.77,11.28,10.72,12.77,1025,45,2.5,270,5,0.0,Clear,clear sky,19
Tiszaújváros,47.926111,21.030556,2026-03-04 19:12:43.577166,12.82,11.33,10.77,12.82,1025,45,2.66,260,22,0.0,Clouds,few clouds,19
Miskolc-Gömöri,48.106667,20.800278,2026-03-04 19:12:44.779828,10.62,9.23,10.62,10.78,1025,57,2.11,262,1,0.0,Clear,clear sky,19
Sajókeresztúr,48.168008,20.774014,2026-03-04 19:12:45.982275,10.57,9.17,10.57,10.73,1025,57,2.07,255,2,0.0,Clear,clear sky,19
Sajóecseg,48.186111,20.766667,2026-03-04 19:12:47.183706,10.61,9.21,10.61,10.77,1025,57,2.06,253,2,0.0,Clear,clear sky,19
Sajószentpéter,48.222222,20.708056,2026-03-04 19:12:48.383683,10.51,9.1,10.51,10.67,1025,57,2.08,250,3,0.0,Clear,clear sky,19
Kazincbarcika,48.264444,20.6275,2026-03-04 19:12:49.576242,10.52,9.69,10.51,12.16,1025,79,2.03,240,4,0.0,Clear,clear sky,19
Sajókaza,48.272778,20.581944,2026-03-04 19:12:50.783478,12.01,11.33,10.51,12.16,1025,79,2.01,238,4,0.0,Clear,clear sky,19
Vadna,48.276389,20.555278,2026-03-04 19:12:51.976974,11.83,11.13,10.49,12.14,1025,79,2.01,238,4,0.0,Clear,clear sky,19
Dubicsány,48.280833,20.504722,2026-03-04 19:12:53.181650,11.74,11.06,10.47,12.12,1025,80,1.97,231,3,0.0,Clear,clear sky,19
Raposka,46.851389,17.412778,2026-03-04 19:12:54.388668,9.06,9.06,9.06,9.06,1026,78,1.27,344,73,0.0,Clouds,broken clouds,19
Ivacs,47.641944,19.273889,2026-03-04 19:12:55.583895,11.39,10.31,9.45,12.35,1025,66,1.24,308,100,0.0,Clouds,overcast clouds,19
Kisköre-Tiszahíd,47.480835,20.507698,2026-03-04 19:12:56.798515,8.5,8.5,8.5,8.5,1025,70,0.84,249,9,0.0,Clear,clear sky,19
Rozsály,47.912778,22.7825,2026-03-04 19:12:58.012582,7.25,7.25,7.25,8.03,1025,68,1.23,140,100,0.0,Clouds,overcast clouds,19
Pusztakettős,47.453611,20.749722,2026-03-04 19:12:59.207435,8.39,7.96,8.39,8.39,1025,70,1.37,237,6,0.0,Clear,clear sky,19
Kisvác,47.795278,19.113611,2026-03-04 19:13:00.407177,11.05,10.09,9.78,11.05,1025,72,1.61,306,96,0.0,Clouds,overcast clouds,19
Tiszafüred-Gyártelep,47.6075,20.736111,2026-03-04 19:13:01.606658,8.3,7.8,8.3,8.3,1025,73,1.42,261,8,0.0,Clear,clear sky,19
Újkenéz,48.251111,22.221667,2026-03-04 19:13:02.807952,7.72,6.67,7.72,7.72,1025,74,1.86,126,7,0.0,Clear,clear sky,19
Püspökladány-Vásártér,47.319167,21.096111,2026-03-04 19:13:04.003305,8.3,6.84,8.3,8.3,1025,69,2.46,223,26,0.0,Clouds,scattered clouds,19
Végegyháza alsó,46.3675,20.866944,2026-03-04 19:13:05.207778,12.83,11.87,12.83,12.83,1025,65,1.16,138,92,0.0,Clouds,overcast clouds,19
Orosháza felső,46.553611,20.655278,2026-03-04 19:13:06.399374,8.14,7.68,8.14,8.14,1025,64,1.37,183,0,0.0,Clear,clear sky,19
Ambrózfalva,46.353056,20.740556,2026-03-04 19:13:07.607214,7.89,7.89,7.89,7.89,1025,64,1.16,143,63,0.0,Clouds,broken clouds,19
Alsónyék,46.199444,18.738056,2026-03-04 19:13:08.805391,10.82,9.6,10.82,10.82,1025,63,0.92,231,68,0.0,Clouds,broken clouds,19
Tompapuszta,46.321389,20.966389,2026-03-04 19:13:10.003799,9.06,9.06,7.84,9.06,1025,65,1.28,128,100,0.0,Clouds,overcast clouds,19
Halászlak,46.911879,20.56228,2026-03-04 19:13:11.212156,8.4,7.04,8.4,8.4,1025,66,2.35,198,2,0.0,Clear,clear sky,19
Sirató,46.840556,20.61,2026-03-04 19:13:12.414813,8.36,7.2,8.36,8.36,1025,66,2.09,196,3,0.0,Clear,clear sky,19
Csabacsűd felső,46.829167,20.649167,2026-03-04 19:13:13.620940,8.35,7.21,8.35,8.35,1025,66,2.07,197,3,0.0,Clear,clear sky,19
Orosháza-Üveggyár,46.579979,20.683644,2026-03-04 19:13:14.815594,8.12,7.65,8.12,8.12,1025,65,1.38,187,0,0.0,Clear,clear sky,19
Gyulai városerdő,46.69482,21.32281,2026-03-04 19:13:16.011681,8.02,7.5,8.02,8.02,1025,66,1.41,206,100,0.0,Clouds,overcast clouds,19
Kórógyszentgyörgy,46.564377,20.224998,2026-03-04 19:13:17.204897,12.23,10.87,11.13,12.23,1025,52,1.73,179,6,0.0,Clear,clear sky,19
Kunszállás,46.784444,19.767222,2026-03-04 19:13:18.410313,9.96,9.96,9.94,10.97,1025,68,0.51,140,0,0.0,Clear,clear sky,19
Selymes,46.655321,19.8534,2026-03-04 19:13:19.616132,10.0,9.2,10.0,11.03,1025,69,1.99,198,9,0.0,Clear,clear sky,19
Petőfiszállási tanyák,46.587805,19.874509,2026-03-04 19:13:20.817557,10.04,8.9,10.04,11.07,1025,69,1.95,195,8,0.0,Clear,clear sky,19
Kisteleki szőlők,46.514199,19.92868,2026-03-04 19:13:22.018721,10.03,8.71,10.03,11.06,1025,62,1.83,189,7,0.0,Clear,clear sky,19
Kapitányság,46.435336,19.987564,2026-03-04 19:13:23.241198,12.8,11.55,12.8,12.8,1025,54,1.68,181,7,0.0,Clear,clear sky,19
Őszeszék,46.39025,20.016017,2026-03-04 19:13:24.454306,12.83,11.58,12.83,12.83,1025,54,1.6,176,9,0.0,Clear,clear sky,19
Vilmaszállás,46.366389,20.030833,2026-03-04 19:13:25.653600,12.81,11.56,12.81,12.81,1025,54,2.24,177,9,0.0,Clear,clear sky,19
Jánosszállás,46.334359,20.051199,2026-03-04 19:13:26.863428,12.84,11.59,12.84,12.84,1025,54,1.56,173,10,0.0,Clear,clear sky,19
Felsőpakony,47.343056,19.230556,2026-03-04 19:13:28.068226,12.33,11.26,11.11,12.75,1025,63,0.78,330,97,0.56,Rain,light rain,19
Felsőméntelek,46.987074,19.557745,2026-03-04 19:13:29.265981,8.25,8.25,8.25,9.88,1025,73,0.51,140,0,0.0,Clear,clear sky,19
Alsóméntelek,46.961558,19.579121,2026-03-04 19:13:30.464189,8.28,8.28,8.28,9.91,1025,73,0.51,140,0,0.0,Clear,clear sky,19
Nagynyír,46.943319,19.585447,2026-03-04 19:13:31.657381,8.28,8.28,8.28,9.9,1025,73,0.51,140,0,0.0,Clear,clear sky,19
Úrihegy,46.917778,19.621389,2026-03-04 19:13:32.857011,8.97,8.97,8.3,9.93,1025,70,0.51,140,0,0.0,Clear,clear sky,19
Miklóstelep,46.913412,19.630913,2026-03-04 19:13:34.062978,8.98,8.98,8.32,9.94,1025,70,0.51,140,0,0.0,Clear,clear sky,19
Tiszajenő alsó,47.016944,20.134444,2026-03-04 19:13:35.256193,8.34,7.21,8.34,10.02,1025,75,2.06,200,0,0.0,Clear,clear sky,19
Óbög,46.987222,20.111111,2026-03-04 19:13:36.465271,10.01,8.79,10.01,11.1,1025,66,2.06,200,0,0.0,Clear,clear sky,19
Árpádszállás,46.866456,19.989163,2026-03-04 19:13:37.663854,10.12,8.91,8.25,11.03,1025,66,0.51,140,0,0.0,Clear,clear sky,19
Tőserdő,46.851111,19.980278,2026-03-04 19:13:38.862531,10.12,8.91,8.27,11.05,1025,66,0.51,140,0,0.0,Clear,clear sky,19
Tiszaalpár felső,46.836256,19.976753,2026-03-04 19:13:40.066227,10.25,9.08,10.04,11.07,1025,67,0.51,140,0,0.0,Clear,clear sky,19
Borsihalom,46.773056,19.92,2026-03-04 19:13:41.261380,10.07,8.91,10.03,11.06,1025,68,2.14,203,6,0.0,Clear,clear sky,19
Petőfiváros,46.725556,19.848611,2026-03-04 19:13:42.460540,10.0,9.14,9.99,11.03,1025,69,2.06,202,9,0.0,Clear,clear sky,19
Csorna,47.601944,17.248889,2026-03-04 19:13:43.665143,8.33,6.56,8.33,8.33,1026,80,2.92,330,50,0.0,Clouds,scattered clouds,19
Szorgalmatos,47.986667,21.366389,2026-03-04 19:13:44.859714,11.53,10.25,11.53,11.53,1025,58,2.58,237,100,0.0,Clouds,overcast clouds,19
Fótfürdő,47.6225,19.200556,2026-03-04 19:13:46.057044,11.18,10.02,9.45,12.35,1025,64,1.18,310,100,0.0,Clouds,overcast clouds,19
Fenyveshegy,47.818333,19.068056,2026-03-04 19:13:47.259798,11.12,10.17,11.12,11.12,1025,72,1.59,307,98,0.0,Clouds,overcast clouds,19
Hűvösvölgy,47.541202,18.96351,2026-03-04 19:13:48.469563,10.5,9.38,8.99,11.89,1025,68,1.34,286,100,0.0,Clouds,overcast clouds,19
Hárshegy,47.535318,18.961433,2026-03-04 19:13:49.665163,10.5,9.38,8.99,11.89,1025,68,1.34,286,100,0.0,Clouds,overcast clouds,19
Szépjuhászné,47.528277,18.955246,2026-03-04 19:13:50.860474,9.67,9.45,8.1,11.0,1025,67,1.34,286,100,0.0,Clouds,overcast clouds,19
Jánoshegy,47.51433,18.95047,2026-03-04 19:13:52.055110,9.64,9.41,8.01,10.91,1025,67,1.34,286,100,0.0,Clouds,overcast clouds,19
Virágvölgy,47.505965,18.95876,2026-03-04 19:13:53.257726,9.41,9.15,7.69,10.6,1025,67,1.34,286,100,0.0,Clouds,overcast clouds,19
Csillebérc,47.498196,18.961694,2026-03-04 19:13:54.455286,9.23,8.95,7.46,10.37,1025,67,1.34,286,100,0.0,Clouds,overcast clouds,19
Normafa,47.5,18.970558,2026-03-04 19:13:55.661999,9.3,9.03,7.51,10.42,1025,66,1.34,286,100,0.0,Clouds,overcast clouds,19
Széchenyihegy,47.49413,18.977049,2026-03-04 19:13:56.856173,9.38,9.12,7.53,10.44,1025,66,1.34,286,100,0.0,Clouds,overcast clouds,19
Balatonfőkajár felső,47.031389,18.215278,2026-03-04 19:13:58.051519,11.29,10.38,11.29,11.29,1025,73,0.81,304,100,0.0,Clouds,overcast clouds,19
Piroska,47.148333,20.129722,2026-03-04 19:13:59.263751,8.34,7.21,8.34,10.02,1025,75,2.06,200,0,0.0,Clear,clear sky,19
Somodor,46.4725,17.836667,2026-03-04 19:14:00.471342,8.69,8.69,8.69,8.69,1025,74,1.16,246,87,0.0,Clouds,overcast clouds,19
Középmező,45.995833,18.668889,2026-03-04 19:14:01.670970,10.81,9.64,10.81,10.81,1025,65,0.97,242,3,0.0,Clear,clear sky,19
Jobbágyi,47.828889,19.6875,2026-03-04 19:14:02.878315,8.08,7.59,8.08,8.08,1025,70,1.39,309,53,0.0,Clouds,broken clouds,19
Ferihegy,47.437222,19.223889,2026-03-04 19:14:04.076624,12.03,10.93,9.68,12.59,1025,63,0.72,309,98,0.0,Clouds,overcast clouds,19
Máriapócs,47.852778,22.019167,2026-03-04 19:14:05.272316,7.8,6.37,7.8,7.8,1025,70,2.3,216,62,0.0,Clouds,broken clouds,19
Máriaudvar,47.751944,19.165,2026-03-04 19:14:06.482808,11.08,10.07,9.81,11.08,1025,70,1.53,311,98,0.0,Clouds,overcast clouds,19
Nagyberki,46.353333,18.004167,2026-03-04 19:14:07.686193,8.8,8.46,8.8,8.8,1025,72,1.34,237,24,0.0,Clouds,few clouds,19
Badacsonytomaj,46.804722,17.518056,2026-03-04 19:14:08.889093,8.65,8.65,8.65,8.65,1025,78,0.53,350,100,0.0,Clouds,overcast clouds,19
Badacsony,46.788611,17.506389,2026-03-04 19:14:10.096757,9.11,9.11,9.11,9.11,1025,78,0.52,358,99,0.0,Clouds,overcast clouds,19
Badacsonylábdihegy,46.793889,17.470833,2026-03-04 19:14:11.295544,9.08,9.08,9.08,9.08,1025,78,0.52,358,99,0.0,Clouds,overcast clouds,19
Badacsonytördemic-Szigliget,46.809722,17.469167,2026-03-04 19:14:12.501995,9.03,9.03,9.03,9.03,1025,78,0.66,350,100,0.0,Clouds,overcast clouds,19
Nemesgulács-Kisapáti,46.836944,17.476389,2026-03-04 19:14:13.699502,9.07,9.07,9.07,9.07,1025,78,0.84,343,100,0.0,Clouds,overcast clouds,19
Tapolca,46.877778,17.428611,2026-03-04 19:14:14.910169,8.99,8.57,8.99,8.99,1026,79,1.43,342,75,0.0,Clouds,broken clouds,19
Uzsabánya alsó,46.898333,17.345278,2026-03-04 19:14:16.103003,8.79,7.88,8.79,8.79,1026,80,1.89,343,62,0.0,Clouds,broken clouds,19
Uzsa,46.920278,17.331667,2026-03-04 19:14:17.296541,8.75,7.71,8.75,8.75,1026,80,2.03,343,67,0.0,Clouds,broken clouds,19
Sümegi Bazaltbánya,46.9525,17.2925,2026-03-04 19:14:18.496624,8.15,6.79,8.15,8.15,1026,81,2.29,344,69,0.0,Clouds,broken clouds,19
Sümeg,46.981111,17.270833,2026-03-04 19:14:19.699417,8.27,6.7,8.27,8.27,1026,82,2.6,348,75,0.0,Clouds,broken clouds,19
Gógánfa,47.021111,17.207778,2026-03-04 19:14:20.948033,8.19,6.48,8.19,8.19,1026,83,2.78,349,90,0.0,Clouds,overcast clouds,19
Ukk,47.041944,17.195833,2026-03-04 19:14:22.150467,8.2,6.44,8.2,8.2,1026,83,2.86,350,93,0.0,Clouds,overcast clouds,19
Nemeskeresztúr,47.093611,17.183611,2026-03-04 19:14:23.352885,8.09,6.28,8.09,8.09,1026,82,2.9,349,96,0.0,Clouds,overcast clouds,19
Jánosháza,47.115833,17.171667,2026-03-04 19:14:24.555478,8.13,6.33,8.13,8.13,1026,82,2.9,348,94,0.0,Clouds,overcast clouds,19
Keszthely,46.758333,17.248056,2026-03-04 19:14:25.767507,9.08,8.07,9.08,9.08,1026,93,2.06,340,75,0.0,Clouds,broken clouds,19
Alsógyenes,46.765844,17.276435,2026-03-04 19:14:26.968956,9.08,8.07,9.08,9.08,1026,93,2.06,340,75,0.0,Clouds,broken clouds,19
Gyenesdiás,46.763333,17.292778,2026-03-04 19:14:28.171810,9.08,8.07,9.08,9.08,1026,93,2.06,340,75,0.0,Clouds,broken clouds,19
Vonyarcvashegy,46.755278,17.318333,2026-03-04 19:14:29.377239,9.09,8.08,9.09,9.09,1025,93,2.06,340,75,0.0,Clouds,broken clouds,19
Balatongyörök,46.751944,17.354444,2026-03-04 19:14:30.578252,9.11,8.11,9.11,9.11,1025,93,2.06,340,75,0.0,Clouds,broken clouds,19
Becehegy,46.776111,17.372778,2026-03-04 19:14:31.771774,9.08,8.07,9.08,9.08,1025,93,2.06,340,75,0.0,Clouds,broken clouds,19
Balatonederics,46.8025,17.385,2026-03-04 19:14:32.978461,9.03,9.03,9.03,9.03,1026,78,1.27,345,58,0.0,Clouds,broken clouds,19
Dabronc,47.025766,17.167006,2026-03-04 19:14:34.195789,8.21,6.47,8.21,8.21,1026,83,2.84,350,90,0.0,Clouds,overcast clouds,19
Türje,46.994444,17.093611,2026-03-04 19:14:35.396039,8.2,6.41,8.2,8.2,1026,83,2.9,353,87,0.0,Clouds,overcast clouds,19
Zalabér-Batyk,46.983056,17.040833,2026-03-04 19:14:36.605033,8.31,6.51,8.31,8.31,1026,82,2.95,356,92,0.0,Clouds,overcast clouds,19
Pakod,46.959167,16.996667,2026-03-04 19:14:37.799869,8.19,6.38,8.19,8.19,1026,82,2.94,357,96,0.0,Clouds,overcast clouds,19
Pókaszepetk,46.924444,16.972222,2026-03-04 19:14:39.000480,8.36,6.58,8.36,8.36,1026,81,2.94,357,84,0.0,Clouds,broken clouds,19
Kemendollár,46.905833,16.946667,2026-03-04 19:14:40.203422,8.91,7.25,8.91,8.91,1026,81,2.92,358,87,0.0,Clouds,overcast clouds,19
Zalaegerszeg,46.833056,16.848333,2026-03-04 19:14:41.412164,8.73,7.27,8.73,8.73,1026,81,2.57,1,55,0.0,Clouds,broken clouds,19
Bocfölde,46.780278,16.853611,2026-03-04 19:14:42.622148,8.79,7.37,8.79,8.79,1026,80,2.53,357,29,0.0,Clouds,scattered clouds,19
Sárhida,46.755833,16.851389,2026-03-04 19:14:43.827753,8.75,7.44,8.75,8.75,1026,80,2.37,357,19,0.0,Clouds,few clouds,19
Bak,46.7325,16.849167,2026-03-04 19:14:45.026579,8.77,7.53,8.77,8.77,1026,80,2.28,356,9,0.0,Clear,clear sky,19
Tófej,46.670833,16.801944,2026-03-04 19:14:46.223151,8.61,7.57,8.61,8.61,1026,80,2.0,356,0,0.0,Clear,clear sky,19
Gutorfölde,46.646944,16.739722,2026-03-04 19:14:47.432884,8.14,7.24,8.14,8.14,1026,79,1.77,359,0,0.0,Clear,clear sky,19
Csömödér-Páka,46.608056,16.641111,2026-03-04 19:14:48.627125,11.85,11.15,8.34,11.85,1026,79,1.51,4,0,0.0,Clear,clear sky,19
Iklódbördőce,46.603056,16.604722,2026-03-04 19:14:49.829597,11.85,11.13,8.33,11.85,1026,78,1.56,6,8,0.0,Clear,clear sky,19
Lenti,46.621389,16.528611,2026-03-04 19:14:51.039444,11.79,11.09,8.28,11.79,1026,79,1.77,8,17,0.0,Clouds,few clouds,19
Rédics,46.618056,16.471111,2026-03-04 19:14:52.244483,11.79,11.06,8.27,11.79,1026,78,1.83,8,23,0.0,Clouds,few clouds,19
Zalalövő,46.845556,16.576389,2026-03-04 19:14:53.439138,7.96,6.51,7.96,7.96,1026,82,2.37,14,32,0.0,Clouds,scattered clouds,19
Zalaegerszeg-Ola,46.849167,16.844722,2026-03-04 19:14:54.639732,8.17,6.6,8.17,8.17,1026,81,2.57,1,55,0.0,Clouds,broken clouds,19
Andráshida,46.863116,16.7792,2026-03-04 19:14:55.832435,8.09,6.52,8.09,8.09,1026,81,2.56,4,67,0.0,Clouds,broken clouds,19
Bagod,46.875,16.746111,2026-03-04 19:14:57.030626,8.18,6.72,8.18,8.18,1026,82,2.43,8,63,0.0,Clouds,broken clouds,19
Zalaszentgyörgy,46.872222,16.7125,2026-03-04 19:14:58.233005,8.12,6.67,8.12,8.12,1026,82,2.4,9,60,0.0,Clouds,broken clouds,19
Zalacséb-Salomvár,46.858056,16.662222,2026-03-04 19:14:59.435248,7.89,6.42,7.89,7.89,1026,82,2.38,11,56,0.0,Clouds,broken clouds,19
Kópháza,47.631389,16.6375,2026-03-04 19:15:00.634355,7.88,6.43,7.88,7.88,1026,80,2.35,311,100,0.0,Clouds,overcast clouds,19
Nagycenk,47.601111,16.690278,2026-03-04 19:15:01.834436,7.99,6.46,7.99,7.99,1026,80,2.47,317,100,0.0,Clouds,overcast clouds,19
Sopronkövesd,47.548333,16.748056,2026-03-04 19:15:03.027374,7.82,6.09,7.82,7.82,1026,80,2.71,326,100,0.0,Clouds,overcast clouds,19
Lövő,47.509444,16.7775,2026-03-04 19:15:04.229619,7.86,6.03,7.86,7.86,1026,80,2.87,329,100,0.0,Clouds,overcast clouds,19
Újkér,47.457778,16.786667,2026-03-04 19:15:05.436800,7.64,5.73,7.64,7.64,1026,80,2.92,333,86,0.0,Clouds,overcast clouds,19
Bük,47.388611,16.752222,2026-03-04 19:15:06.640984,7.74,5.86,7.74,7.74,1026,80,2.91,342,54,0.0,Clouds,broken clouds,19
Acsád,47.308333,16.734722,2026-03-04 19:15:07.843031,7.5,5.54,7.5,7.5,1026,80,2.96,351,39,0.0,Clouds,scattered clouds,19
Salköveskút-Vassurány,47.291389,16.704167,2026-03-04 19:15:09.045580,7.56,5.59,7.56,7.56,1026,80,2.99,354,37,0.0,Clouds,scattered clouds,19
Zalaszentiván,46.8875,16.909444,2026-03-04 19:15:10.240845,8.89,7.29,8.89,8.89,1026,81,2.82,360,81,0.0,Clouds,broken clouds,19
Alsónemesapáti,46.854167,16.936389,2026-03-04 19:15:11.441026,8.88,7.23,8.88,8.88,1026,81,2.89,356,64,0.0,Clouds,broken clouds,19
Józsa,47.600833,21.584444,2026-03-04 19:15:12.665902,6.86,5.48,6.86,6.86,1025,81,2.06,200,0,0.0,Clear,clear sky,19
Hajdúszentgyörgy,47.608056,21.578333,2026-03-04 19:15:13.866592,6.83,5.44,6.83,6.83,1025,81,2.06,200,0,0.0,Clear,clear sky,19
Zelemér,47.627778,21.578333,2026-03-04 19:15:15.073935,6.78,5.39,6.78,6.78,1025,81,2.06,200,0,0.0,Clear,clear sky,19
Hajdúböszörmény,47.668056,21.524167,2026-03-04 19:15:16.269760,6.81,5.12,6.81,6.81,1025,71,2.41,228,66,0.0,Clouds,broken clouds,19
Hajdúvid,47.749444,21.508056,2026-03-04 19:15:17.473214,7.97,6.42,7.97,7.97,1025,72,2.5,228,66,0.0,Clouds,broken clouds,19
Hajdúdorog,47.805556,21.493056,2026-03-04 19:15:18.686235,7.97,6.36,7.97,7.97,1025,72,2.58,228,72,0.0,Clouds,broken clouds,19
Hajdúnánás,47.831944,21.426667,2026-03-04 19:15:19.879416,8.08,6.49,8.08,8.08,1025,73,2.58,231,78,0.0,Clouds,broken clouds,19
Hajdúnánás-Vásártér,47.843056,21.407222,2026-03-04 19:15:21.086109,8.08,6.49,8.08,8.08,1025,73,2.58,231,78,0.0,Clouds,broken clouds,19
Tedej,47.903611,21.404444,2026-03-04 19:15:22.288603,11.54,10.68,11.54,11.54,1025,74,2.66,232,99,0.0,Clouds,overcast clouds,19
Tiszavasvári,47.945278,21.374722,2026-03-04 19:15:23.493364,11.54,10.26,11.54,11.54,1025,58,2.66,235,100,0.0,Clouds,overcast clouds,19
Egyházerdő,47.9725,21.365,2026-03-04 19:15:24.697332,11.56,10.29,11.56,11.56,1025,58,2.63,236,100,0.0,Clouds,overcast clouds,19
Tiszalök,48.013056,21.369167,2026-03-04 19:15:25.899477,11.53,10.25,11.53,11.53,1025,58,2.51,238,100,0.0,Clouds,overcast clouds,19
Hajnalos,47.998889,21.414167,2026-03-04 19:15:27.109618,11.54,10.26,11.54,11.54,1025,58,2.58,234,100,0.0,Clouds,overcast clouds,19
Kisfástanya,47.989167,21.47,2026-03-04 19:15:28.310534,11.51,10.23,11.51,11.51,1025,58,2.58,231,100,0.0,Clouds,overcast clouds,19
Tiszaeszlár,48.010556,21.491944,2026-03-04 19:15:29.504861,11.52,10.24,11.52,11.52,1025,58,2.52,229,91,0.0,Clouds,overcast clouds,19
Bashalom,48.026111,21.514722,2026-03-04 19:15:30.708863,11.49,10.21,11.49,11.49,1025,58,2.43,230,85,0.0,Clouds,overcast clouds,19
Sáránd,47.415556,21.625,2026-03-04 19:15:31.909518,7.01,5.65,7.01,7.01,1025,81,2.06,200,0,0.0,Clear,clear sky,19
Derecske,47.365,21.584167,2026-03-04 19:15:33.113385,7.08,5.74,7.08,7.08,1025,81,2.06,200,0,0.0,Clear,clear sky,19
Derecske-Vásártér,47.352222,21.58,2026-03-04 19:15:34.316592,7.08,5.74,7.08,7.08,1025,81,2.06,200,0,0.0,Clear,clear sky,19
Konyár,47.323611,21.666111,2026-03-04 19:15:35.532940,7.05,5.7,7.05,7.05,1025,81,2.06,200,0,0.0,Clear,clear sky,19
Konyári Sóstófürdő,47.324167,21.744444,2026-03-04 19:15:36.732268,7.06,5.47,7.06,7.06,1025,67,2.34,208,96,0.0,Clouds,overcast clouds,19
Pocsaj-Esztár,47.288333,21.793056,2026-03-04 19:15:37.935445,7.05,5.49,7.05,8.02,1025,67,2.3,205,100,0.0,Clouds,overcast clouds,19
Kismarja,47.243889,21.813889,2026-03-04 19:15:39.137186,8.02,6.66,8.02,8.24,1025,66,2.26,203,100,0.0,Clouds,overcast clouds,19
Nagykereki,47.191667,21.8,2026-03-04 19:15:40.342902,8.01,6.72,8.01,8.23,1025,71,2.18,200,100,0.0,Clouds,overcast clouds,19
Debrecen-Szabadságtelep,47.527778,21.658611,2026-03-04 19:15:41.555916,6.89,5.51,6.89,6.89,1025,81,2.06,200,0,0.0,Clear,clear sky,19
Kondoroskert,47.525556,21.713889,2026-03-04 19:15:42.758542,6.92,5.55,6.92,6.92,1025,81,2.06,200,0,0.0,Clear,clear sky,19
Nagycsere,47.523889,21.763056,2026-03-04 19:15:43.963031,6.9,5.53,6.9,6.9,1025,81,2.06,200,0,0.0,Clear,clear sky,19
Haláp,47.521667,21.818333,2026-03-04 19:15:45.163125,6.9,5.53,6.9,6.9,1025,81,2.06,200,0,0.0,Clear,clear sky,19
Vámospércs,47.518056,21.893889,2026-03-04 19:15:46.361165,6.84,5.24,6.84,6.84,1025,69,2.3,215,88,0.0,Clouds,overcast clouds,19
Szentannapuszta,47.52,21.965833,2026-03-04 19:15:47.581195,6.79,5.17,6.79,6.79,1025,69,2.32,215,96,0.0,Clouds,overcast clouds,19
Nyírábrány,47.523889,22.016944,2026-03-04 19:15:48.784030,7.73,6.27,7.73,7.73,1025,68,2.33,216,99,0.0,Clouds,overcast clouds,19
Dombostanya,47.602778,21.706389,2026-03-04 19:15:49.990650,6.82,5.43,6.82,6.82,1025,81,2.06,200,0,0.0,Clear,clear sky,19
Hajdúsámson,47.608056,21.755278,2026-03-04 19:15:51.196915,6.82,5.43,6.82,6.82,1025,81,2.06,200,0,0.0,Clear,clear sky,19
Tamásipuszta,47.632778,21.796111,2026-03-04 19:15:52.408353,6.77,5.15,6.77,6.77,1025,70,2.31,217,56,0.0,Clouds,broken clouds,19
Aradványpuszta,47.662778,21.8425,2026-03-04 19:15:53.612772,6.72,5.08,6.72,6.72,1025,70,2.33,216,58,0.0,Clouds,broken clouds,19
Nyíradony,47.699444,21.903333,2026-03-04 19:15:54.814784,7.67,6.19,7.67,7.67,1025,70,2.34,215,81,0.0,Clouds,broken clouds,19
Nyírmihálydi,47.7375,21.958889,2026-03-04 19:15:56.013397,7.67,6.2,7.67,7.67,1025,70,2.32,214,87,0.0,Clouds,overcast clouds,19
Nyírgelse,47.750833,21.987778,2026-03-04 19:15:57.208781,7.64,6.18,7.64,7.64,1025,70,2.3,214,91,0.0,Clouds,overcast clouds,19
Nyírbogát,47.793056,22.066389,2026-03-04 19:15:58.412366,7.73,6.36,7.73,7.73,1025,70,2.22,216,90,0.0,Clouds,overcast clouds,19
Nagykálló,47.871111,21.825833,2026-03-04 19:15:59.620778,7.93,6.34,7.93,7.93,1025,70,2.54,217,14,0.0,Clouds,few clouds,19
Kállósemjén,47.854722,21.935,2026-03-04 19:16:00.825833,7.88,6.37,7.88,7.88,1025,70,2.42,215,41,0.0,Clouds,scattered clouds,19
Nyírbátor,47.8425,22.131111,2026-03-04 19:16:02.031620,7.7,6.37,7.7,7.7,1025,70,2.16,217,81,0.0,Clouds,broken clouds,19
Nyírcsászári,47.865556,22.179167,2026-03-04 19:16:03.223144,7.73,6.54,7.73,7.73,1025,70,2.01,219,72,0.0,Clouds,broken clouds,19
Hodász,47.896111,22.213611,2026-03-04 19:16:04.425327,7.68,6.71,7.68,7.68,1025,70,1.77,220,65,0.0,Clouds,broken clouds,19
Nyírmeggyes,47.9225,22.256667,2026-03-04 19:16:05.639711,7.73,7.12,7.73,7.73,1025,70,1.45,216,50,0.0,Clouds,scattered clouds,19
Mátészalka,47.951389,22.313333,2026-03-04 19:16:06.848661,7.76,7.76,7.76,7.76,1025,71,1.19,209,47,0.0,Clouds,scattered clouds,19
Kocsord,47.941944,22.375833,2026-03-04 19:16:08.056534,7.84,7.84,7.84,7.84,1025,71,0.83,199,69,0.0,Clouds,broken clouds,19
Kocsord alsó,47.946389,22.400556,2026-03-04 19:16:09.262880,7.84,7.84,7.84,7.84,1025,71,0.83,199,69,0.0,Clouds,broken clouds,19
Győrtelek,47.936667,22.424722,2026-03-04 19:16:10.461284,7.83,7.83,7.83,7.83,1025,71,0.72,188,74,0.0,Clouds,broken clouds,19
Győrtelek alsó,47.921111,22.443333,2026-03-04 19:16:11.665935,7.81,7.81,7.81,7.81,1025,71,0.7,197,83,0.0,Clouds,broken clouds,19
Ököritófülpös,47.911389,22.495,2026-03-04 19:16:12.870205,7.8,7.8,7.8,7.8,1025,71,0.64,187,87,0.0,Clouds,overcast clouds,19
Porcsalma-Tyukod,47.868056,22.568333,2026-03-04 19:16:14.075978,7.28,7.28,7.05,7.28,1025,70,0.76,212,100,0.0,Clouds,overcast clouds,19
Csenger,47.826111,22.666389,2026-03-04 19:16:15.278434,7.27,7.27,7.04,7.27,1025,69,0.9,218,100,0.0,Clouds,overcast clouds,19
Kisfái,46.888303,19.807366,2026-03-04 19:16:16.477780,10.02,8.8,9.36,10.02,1025,66,0.51,140,0,0.0,Clear,clear sky,19
Nyárlőrinci szőlők,46.8775,19.828333,2026-03-04 19:16:17.684697,9.91,9.91,9.36,10.95,1025,67,0.51,140,0,0.0,Clear,clear sky,19
Nyárlőrinc alsó,46.863889,19.878889,2026-03-04 19:16:18.886335,9.89,9.89,9.38,10.97,1025,68,0.51,140,0,0.0,Clear,clear sky,19
Tiszaug-Tiszahídfő,46.866106,20.052098,2026-03-04 19:16:20.097764,11.06,9.81,9.54,11.13,1025,61,2.33,207,7,0.0,Clear,clear sky,19
Csongrádi úti tanyák,46.690278,19.921667,2026-03-04 19:16:21.302547,9.93,9.14,9.49,11.08,1025,67,1.96,196,8,0.0,Clear,clear sky,19
Kettőshalom,46.689167,20.0225,2026-03-04 19:16:22.512330,10.5,9.33,9.52,12.22,1025,66,1.9,193,7,0.0,Clear,clear sky,19
Csongrád alsó,46.711389,20.126389,2026-03-04 19:16:23.705616,11.26,9.96,9.52,12.22,1025,58,1.89,192,6,0.0,Clear,clear sky,19
Dónát,46.66988,20.368168,2026-03-04 19:16:24.913435,12.24,10.88,11.14,12.24,1026,52,1.34,166,8,0.0,Clear,clear sky,19
Pusztatemplom,46.676667,20.407222,2026-03-04 19:16:26.118586,12.23,10.87,11.12,12.23,1026,52,1.34,166,9,0.0,Clear,clear sky,19
Előhát,47.364722,20.653611,2026-03-04 19:16:27.322914,8.33,7.68,8.33,8.33,1025,73,1.56,235,12,0.0,Clouds,few clouds,19
Polgárdi-Tekerespuszta,47.017778,18.297778,2026-03-04 19:16:28.522981,8.27,8.27,8.27,8.27,1025,73,0.95,299,100,0.0,Clouds,overcast clouds,19
Szatina-Kishajmás,46.202778,18.083611,2026-03-04 19:16:29.721388,11.25,10.34,11.25,11.25,1025,73,0.66,209,2,0.0,Clear,clear sky,19
Márok,45.886944,18.499167,2026-03-04 19:16:30.915246,10.58,9.36,10.58,11.47,1025,64,0.53,237,3,0.0,Clear,clear sky,19
Nagynyárád,45.953333,18.564722,2026-03-04 19:16:32.120196,10.65,9.44,10.65,11.53,1025,64,0.76,254,2,0.0,Clear,clear sky,19
Szászvár,46.2875,18.369722222222222,2026-03-04 19:16:33.334655,10.24,9.15,10.24,10.24,1025,70,1.1,224,59,0.0,Clouds,broken clouds,19
Cikó,46.263514,18.557605,2026-03-04 19:16:34.538835,10.56,9.42,10.56,10.56,1025,67,1.0,237,45,0.0,Clouds,scattered clouds,19
Gyöngyfa-Magyarmecske,45.983889,17.958889,2026-03-04 19:16:35.740256,11.57,10.69,11.57,11.57,1025,73,0.76,88,6,0.0,Clear,clear sky,19
Nagyhát,47.581389,21.445,2026-03-04 19:16:36.943725,6.92,5.55,6.92,6.92,1025,81,2.06,200,0,0.0,Clear,clear sky,19
Balmazújváros,47.613889,21.348056,2026-03-04 19:16:38.143737,7.1,5.57,7.1,7.1,1025,71,2.28,237,67,0.0,Clouds,broken clouds,19
Kónya,47.600833,21.2375,2026-03-04 19:16:39.340847,8.13,6.81,8.13,8.13,1025,71,2.24,241,57,0.0,Clouds,broken clouds,19
Hortobágy,47.586111,21.154722,2026-03-04 19:16:40.547185,8.17,6.91,8.17,8.17,1025,72,2.18,246,34,0.0,Clouds,scattered clouds,19
Hortobágyi Halastó,47.604167,21.074167,2026-03-04 19:16:41.750519,8.19,6.99,8.19,8.19,1025,72,2.11,249,19,0.0,Clouds,few clouds,19
Ohat-Pusztakócs,47.623333,20.951111,2026-03-04 19:16:42.947689,8.2,7.14,8.2,8.2,1025,73,1.95,254,3,0.0,Clear,clear sky,19
Egyek,47.616944,20.883611,2026-03-04 19:16:44.178125,8.3,7.4,8.3,8.3,1025,73,1.8,258,3,0.0,Clear,clear sky,19
Tiszafüred,47.627778,20.756111,2026-03-04 19:16:45.374567,8.3,7.57,8.3,8.3,1025,74,1.63,262,7,0.0,Clear,clear sky,19
Poroszló,47.657778,20.654444,2026-03-04 19:16:46.573642,8.31,7.52,8.31,8.31,1025,74,1.69,271,8,0.0,Clear,clear sky,19
Kétútköz,47.694167,20.565,2026-03-04 19:16:47.774611,8.28,7.14,8.28,8.28,1025,74,2.05,277,8,0.0,Clear,clear sky,19
Egerfarmos,47.711667,20.5225,2026-03-04 19:16:48.972119,8.26,7.17,8.26,8.26,1025,74,2.0,280,8,0.0,Clear,clear sky,19
Piliscsaba,47.638056,18.829722,2026-03-04 19:16:50.166409,10.76,9.61,10.34,11.98,1025,66,1.76,340,100,0.0,Clouds,overcast clouds,19
Pilisjászfalu,47.656111,18.797778,2026-03-04 19:16:51.367845,9.55,8.85,9.32,12.23,1025,82,1.79,343,100,0.0,Clouds,overcast clouds,19
Leányvár,47.687594,18.772553,2026-03-04 19:16:52.562421,9.49,8.77,9.49,11.34,1025,82,1.8,345,100,0.0,Clouds,overcast clouds,19
Dorog,47.723333,18.732778,2026-03-04 19:16:53.761895,9.71,9.12,9.71,9.71,1025,74,1.7,348,97,0.0,Clouds,overcast clouds,19
Esztergom-Kertváros,47.743333,18.719167,2026-03-04 19:16:54.955794,9.78,9.28,9.78,9.78,1025,74,1.62,348,97,0.0,Clouds,overcast clouds,19
Esztergom,47.7775,18.743611,2026-03-04 19:16:56.148362,9.84,9.43,9.84,9.84,1025,74,1.54,341,100,0.0,Clouds,overcast clouds,19
