station_name,station_lat,station_lon,observation_time,temp,feels_like,temp_min,temp_max,pressure,humidity,wind_speed,wind_deg,clouds,precipitation_1h,weather_main,weather_description,collection_hour
Búcsúszentlászló,46.793056,16.932778,2026-03-14 18:49:07.790971,11.09,9.98,11.09,11.09,1004,66,2.31,216,76,0.0,Clouds,broken clouds,18
Angyalföld,47.549722,19.09,2026-03-14 18:49:09.023074,10.33,8.72,10.33,10.33,1006,50,4.0,146,5,0.0,Clear,clear sky,18
Felsőjánosfa,46.841389,16.544167,2026-03-14 18:49:10.257025,10.62,9.51,10.62,10.62,1004,68,2.83,207,98,0.0,Clouds,overcast clouds,18
Pankasz,46.835833,16.496111,2026-03-14 18:49:11.501213,10.28,9.11,10.28,10.28,1004,67,3.08,207,100,0.0,Clouds,overcast clouds,18
Nagyrákos,46.827222,16.455556,2026-03-14 18:49:12.737185,10.2,9.03,10.2,10.2,1004,67,3.17,207,100,0.0,Clouds,overcast clouds,18
Őriszentpéter,46.828889,16.415278,2026-03-14 18:49:13.975889,10.28,9.14,10.28,10.28,1004,68,3.3,208,100,0.0,Clouds,overcast clouds,18
Törökbálint,47.45,18.908611,2026-03-14 18:49:15.214375,10.43,8.83,10.43,10.43,1006,50,4.76,143,7,0.0,Clear,clear sky,18
Bicske alsó,47.486389,18.642778,2026-03-14 18:49:16.452116,10.82,9.39,10.82,10.82,1006,55,4.56,132,5,0.0,Clear,clear sky,18
Bajánsenye,46.818056,16.358056,2026-03-14 18:49:17.686172,10.31,9.17,10.31,10.31,1004,68,3.2,210,100,0.0,Clouds,overcast clouds,18
Aquincum,47.566218,19.048273,2026-03-14 18:49:18.926625,10.0,8.2,10.0,10.0,1006,51,3.58,145,5,0.0,Clear,clear sky,18
Piliscsév,47.673889,18.791389,2026-03-14 18:49:20.165080,10.52,9.06,10.52,10.52,1006,55,2.93,129,6,0.0,Clear,clear sky,18
Tát,47.741201,18.64783,2026-03-14 18:49:21.394495,11.4,10.06,11.4,11.4,1005,56,3.03,127,5,0.0,Clear,clear sky,18
Süttő felső,47.756667,18.437222,2026-03-14 18:49:22.625920,11.74,10.38,11.74,11.74,1005,54,3.52,131,5,0.0,Clear,clear sky,18
Budatétény,47.405,19.016389,2026-03-14 18:49:23.857615,10.34,8.74,10.34,10.34,1006,50,4.96,146,8,0.0,Clear,clear sky,18
Seregélyes-Szőlőhegy,47.119444,18.612222,2026-03-14 18:49:25.092887,10.97,9.51,10.97,10.97,1006,53,5.95,138,4,0.0,Clear,clear sky,18
Gödöllő-Állami telepek,47.564444,19.375556,2026-03-14 18:49:26.331562,9.79,7.56,9.79,9.79,1006,52,4.41,143,7,0.0,Clear,clear sky,18
Dunakeszi alsó,47.607778,19.128889,2026-03-14 18:49:27.571708,10.31,8.73,10.31,10.31,1006,51,3.82,145,4,0.0,Clear,clear sky,18
Vác-Alsóváros,47.773056,19.149722,2026-03-14 18:49:28.806029,10.69,9.22,10.69,10.69,1006,54,3.35,137,2,0.0,Clear,clear sky,18
Szob alsó,47.816667,18.8725,2026-03-14 18:49:30.040781,11.11,9.74,11.11,11.11,1006,56,2.89,126,6,0.0,Clear,clear sky,18
Zalaszentmihály-Pacsa,46.7225,16.951944,2026-03-14 18:49:31.280832,11.02,9.9,11.02,11.02,1004,66,2.2,217,82,0.0,Clouds,broken clouds,18
Pötréte,46.682778,16.9575,2026-03-14 18:49:32.515592,10.97,9.85,10.97,10.97,1004,66,2.09,218,86,0.0,Clouds,overcast clouds,18
Felsőrajk,46.667222,16.982778,2026-03-14 18:49:33.753154,10.98,9.86,10.98,10.98,1004,66,2.22,214,82,0.0,Clouds,broken clouds,18
Gelse,46.600556,16.982778,2026-03-14 18:49:34.991947,10.84,9.7,10.84,10.84,1004,66,2.11,212,83,0.0,Clouds,broken clouds,18
Őrtilos,46.297778,16.887778,2026-03-14 18:49:36.231617,10.49,9.32,10.49,10.49,1004,66,1.72,204,52,0.0,Clouds,broken clouds,18
Zákány,46.251944,16.9425,2026-03-14 18:49:37.470101,10.28,9.09,10.28,10.28,1004,66,1.98,197,21,0.0,Clouds,few clouds,18
Berzence,46.201389,17.143611,2026-03-14 18:49:38.710268,10.7,9.52,10.7,10.7,1005,65,2.11,189,37,0.0,Clouds,scattered clouds,18
Somogyudvarhely,46.163333,17.179722,2026-03-14 18:49:39.945181,10.69,9.51,10.69,10.69,1005,65,2.02,189,51,0.0,Clouds,broken clouds,18
Bélavár,46.122778,17.207778,2026-03-14 18:49:41.188936,10.74,9.57,10.74,10.74,1005,65,1.82,190,71,0.0,Clouds,broken clouds,18
Vízvár,46.101389,17.239444,2026-03-14 18:49:42.425477,10.67,9.49,10.67,10.67,1005,65,1.77,190,85,0.0,Clouds,overcast clouds,18
Babócsa,46.028359,17.342276,2026-03-14 18:49:43.656098,10.82,9.63,10.82,10.82,1005,64,1.76,188,100,0.0,Clouds,overcast clouds,18
Péterhida-Komlósd,46.006667,17.358056,2026-03-14 18:49:44.898713,10.95,9.75,10.95,10.95,1005,63,1.73,187,100,0.0,Clouds,overcast clouds,18
Barcs,45.951944,17.446944,2026-03-14 18:49:46.133646,11.19,9.93,11.19,11.19,1005,60,1.75,175,91,0.0,Clouds,overcast clouds,18
Barcs felső,45.958333,17.486389,2026-03-14 18:49:47.383050,11.19,9.91,11.19,11.19,1005,59,1.8,169,86,0.0,Clouds,overcast clouds,18
Középrigóc,45.970556,17.525,2026-03-14 18:49:48.616239,11.18,9.87,11.18,11.18,1005,58,1.89,163,81,0.0,Clouds,broken clouds,18
Darány,45.992222,17.598611,2026-03-14 18:49:49.847407,11.3,9.97,11.3,11.3,1005,57,2.37,146,67,0.0,Clouds,broken clouds,18
Kisdobsza,46.012222,17.668056,2026-03-14 18:49:51.084436,11.37,10.05,11.37,11.37,1005,57,2.7,138,58,0.0,Clouds,broken clouds,18
Nemeske,46.023333,17.705278,2026-03-14 18:49:52.316202,11.41,10.09,11.41,11.41,1005,57,2.86,135,51,0.0,Clouds,broken clouds,18
Molvány,46.035278,17.748611,2026-03-14 18:49:53.553692,11.34,10.02,11.34,11.34,1005,57,3.04,130,36,0.0,Clouds,scattered clouds,18
Szigetvár,46.043333,17.801944,2026-03-14 18:49:54.792738,11.32,10.0,11.32,11.32,1005,57,3.15,128,26,0.0,Clouds,scattered clouds,18
Nagypeterd,46.039444,17.871667,2026-03-14 18:49:56.028724,11.33,10.01,11.33,11.33,1005,57,3.37,124,8,0.0,Clear,clear sky,18
Szentdénes,46.036667,17.926944,2026-03-14 18:49:57.261551,11.27,9.91,11.27,11.27,1005,56,3.46,122,1,0.0,Clear,clear sky,18
Háros,47.412222,19.035,2026-03-14 18:49:58.500434,10.34,8.74,10.34,10.34,1006,50,4.96,146,8,0.0,Clear,clear sky,18
Nagytétény-Diósd,47.398333,18.974444,2026-03-14 18:49:59.733438,10.7,9.13,10.7,10.7,1006,50,5.24,145,8,0.0,Clear,clear sky,18
Érdliget,47.390278,18.937778,2026-03-14 18:50:00.968947,10.68,9.11,10.68,10.68,1006,50,5.27,145,8,0.0,Clear,clear sky,18
Érd felső,47.381111,18.922222,2026-03-14 18:50:02.206257,10.42,8.85,10.42,10.42,1006,51,5.32,144,8,0.0,Clear,clear sky,18
Érd,47.369722,18.900833,2026-03-14 18:50:03.452909,10.56,9.0,10.56,10.56,1006,51,5.6,144,8,0.0,Clear,clear sky,18
Százhalombatta,47.322222,18.899167,2026-03-14 18:50:04.706224,10.56,9.0,10.56,10.56,1006,51,6.11,145,9,0.0,Clear,clear sky,18
Dunai Finomító,47.294444,18.878889,2026-03-14 18:50:05.948175,10.49,8.95,10.49,10.49,1006,52,6.38,144,7,0.0,Clear,clear sky,18
Ercsi,47.247222,18.875278,2026-03-14 18:50:07.184786,10.61,9.08,10.61,10.61,1006,52,6.57,145,7,0.0,Clear,clear sky,18
Iváncsa,47.177778,18.811944,2026-03-14 18:50:08.426681,10.66,9.14,10.66,10.66,1006,52,6.94,145,7,0.0,Clear,clear sky,18
Pusztaszabolcs,47.139722,18.761667,2026-03-14 18:50:09.667173,10.78,9.27,10.78,10.78,1006,52,7.06,145,6,0.0,Clear,clear sky,18
Szabadegyháza,47.082778,18.704167,2026-03-14 18:50:10.909102,10.81,9.3,10.81,10.81,1006,52,6.93,143,5,0.0,Clear,clear sky,18
Sárosd,47.039722,18.660278,2026-03-14 18:50:12.156296,10.95,9.46,10.95,10.95,1006,52,6.56,141,3,0.0,Clear,clear sky,18
Nagylók,46.979444,18.635833,2026-03-14 18:50:13.390947,10.82,9.32,10.82,10.82,1006,52,6.75,142,2,0.0,Clear,clear sky,18
Sárbogárd,46.896944,18.611944,2026-03-14 18:50:14.634616,11.09,9.61,11.09,11.09,1006,52,6.68,140,1,0.0,Clear,clear sky,18
Rétszilas,46.814167,18.601389,2026-03-14 18:50:15.868758,11.16,9.69,11.16,11.16,1006,52,6.75,141,1,0.0,Clear,clear sky,18
Nagyatád,46.228611,17.354167,2026-03-14 18:50:17.106309,11.02,9.74,11.02,11.02,1005,60,2.24,170,92,0.0,Clouds,overcast clouds,18
Budapest-Keleti,47.500278,19.084167,2026-03-14 18:50:18.345708,10.52,8.91,10.52,10.52,1006,49,4.23,146,6,0.0,Clear,clear sky,18
Ferencváros,47.468611,19.088056,2026-03-14 18:50:19.579165,10.61,9.01,10.61,10.61,1006,49,4.47,146,7,0.0,Clear,clear sky,18
Budapest-Nyugati,47.510833,19.0575,2026-03-14 18:50:20.818237,10.5,8.91,10.5,10.5,1006,50,4.02,146,6,0.0,Clear,clear sky,18
Kőbánya felső,47.491944,19.133889,2026-03-14 18:50:22.055157,10.39,8.76,10.39,10.39,1006,49,4.47,147,7,0.0,Clear,clear sky,18
Rákos,47.488889,19.174722,2026-03-14 18:50:23.288511,10.31,8.7,10.31,10.31,1006,50,4.56,146,7,0.0,Clear,clear sky,18
Rákosrendező,47.525556,19.089444,2026-03-14 18:50:24.527091,10.42,8.8,10.42,10.42,1006,49,4.18,147,6,0.0,Clear,clear sky,18
Zugló,47.511389,19.101389,2026-03-14 18:50:25.757600,10.42,8.8,10.42,10.42,1006,49,4.18,147,6,0.0,Clear,clear sky,18
Mezőtárkány,47.725,20.480278,2026-03-14 18:50:26.996366,10.3,8.67,10.3,10.3,1008,49,2.79,154,0,0.0,Clear,clear sky,18
Istvántelek,47.550278,19.106389,2026-03-14 18:50:28.232685,10.33,8.72,10.33,10.33,1006,50,4.0,146,5,0.0,Clear,clear sky,18
Rákospalota-Újpest,47.565833,19.111944,2026-03-14 18:50:29.465366,10.21,8.62,10.21,10.21,1006,51,3.84,146,5,0.0,Clear,clear sky,18
Kőbánya alsó,47.483056,19.127222,2026-03-14 18:50:30.704908,10.39,8.76,10.39,10.39,1006,49,4.47,147,7,0.0,Clear,clear sky,18
Kőbánya-Kispest,47.463889,19.149444,2026-03-14 18:50:31.943394,10.41,8.79,10.41,10.41,1006,49,4.67,147,8,0.0,Clear,clear sky,18
Pestszentlőrinc,47.454722,19.182778,2026-03-14 18:50:33.185820,10.32,8.71,10.32,10.32,1006,50,4.98,147,8,0.0,Clear,clear sky,18
Kispest,47.448135,19.157552,2026-03-14 18:50:34.421578,10.45,8.86,10.45,10.45,1006,50,4.9,147,8,0.0,Clear,clear sky,18
Újpest,47.558889,19.079722,2026-03-14 18:50:35.665507,10.37,8.77,10.37,10.37,1006,50,3.83,146,5,0.0,Clear,clear sky,18
Pestszentimre felső,47.413611,19.173333,2026-03-14 18:50:36.917387,10.33,8.72,10.33,10.33,1006,50,5.2,147,9,0.0,Clear,clear sky,18
Dunakeszi,47.626111,19.136111,2026-03-14 18:50:38.157882,10.3,8.72,10.3,10.3,1006,51,3.69,144,4,0.0,Clear,clear sky,18
Dunakeszi-Gyártelep,47.643611,19.135,2026-03-14 18:50:39.387834,10.42,8.88,10.42,10.42,1006,52,3.59,143,4,0.0,Clear,clear sky,18
Alsógöd,47.676944,19.134444,2026-03-14 18:50:40.622626,10.49,8.95,10.49,10.49,1006,52,3.49,142,3,0.0,Clear,clear sky,18
Göd,47.687778,19.1375,2026-03-14 18:50:41.855901,10.49,8.95,10.49,10.49,1006,52,3.49,142,3,0.0,Clear,clear sky,18
Felsőgöd,47.705556,19.143333,2026-03-14 18:50:43.085951,10.62,9.12,10.62,10.62,1006,53,3.43,141,3,0.0,Clear,clear sky,18
Sződ-Sződliget,47.728056,19.154722,2026-03-14 18:50:44.334005,10.7,9.21,10.7,10.7,1006,53,3.39,140,3,0.0,Clear,clear sky,18
Vác,47.782778,19.133056,2026-03-14 18:50:45.571406,10.69,9.22,10.69,10.69,1006,54,3.35,137,2,0.0,Clear,clear sky,18
Verőce,47.823889,19.029444,2026-03-14 18:50:46.805207,10.19,8.7,10.19,10.19,1006,55,3.06,131,5,0.0,Clear,clear sky,18
Kismaros,47.8275,19.010278,2026-03-14 18:50:48.044524,9.46,7.85,9.46,9.46,1006,56,3.02,129,5,0.0,Clear,clear sky,18
Nagymaros-Visegrád,47.791389,18.959167,2026-03-14 18:50:49.281864,9.8,8.36,9.8,9.8,1006,56,2.86,131,6,0.0,Clear,clear sky,18
Nagymaros,47.780278,18.952222,2026-03-14 18:50:50.520417,9.8,8.36,9.8,9.8,1006,56,2.86,131,6,0.0,Clear,clear sky,18
Zebegény,47.801389,18.908889,2026-03-14 18:50:51.753292,10.61,9.19,10.61,10.61,1006,56,2.89,128,6,0.0,Clear,clear sky,18
Szob,47.821111,18.861944,2026-03-14 18:50:52.992409,10.6,9.18,10.6,10.6,1006,56,3.01,124,6,0.0,Clear,clear sky,18
Alagimajor,47.601944,19.153889,2026-03-14 18:50:54.229890,10.31,8.73,10.31,10.31,1006,51,3.82,145,4,0.0,Clear,clear sky,18
Fót,47.611389,19.181667,2026-03-14 18:50:55.466969,10.16,8.56,10.16,10.16,1006,51,3.81,144,4,0.0,Clear,clear sky,18
Fótújfalu,47.615,19.192778,2026-03-14 18:50:56.701895,10.16,8.56,10.16,10.16,1006,51,3.81,144,4,0.0,Clear,clear sky,18
Csomád,47.635556,19.222778,2026-03-14 18:50:57.938897,9.42,7.34,9.42,9.42,1006,51,3.9,143,4,0.0,Clear,clear sky,18
Veresegyház,47.649167,19.288611,2026-03-14 18:50:59.174659,10.09,8.51,10.09,10.09,1006,52,3.97,140,4,0.0,Clear,clear sky,18
Erdőkertes,47.662222,19.295833,2026-03-14 18:51:00.405520,10.09,8.51,10.09,10.09,1006,52,3.97,140,4,0.0,Clear,clear sky,18
Őrbottyán,47.685833,19.283611,2026-03-14 18:51:01.643551,9.97,8.03,9.97,9.97,1006,53,3.86,139,3,0.0,Clear,clear sky,18
Váchartyán,47.725833,19.248889,2026-03-14 18:51:02.885895,10.14,8.59,10.14,10.14,1006,53,3.69,138,2,0.0,Clear,clear sky,18
Magyarkút-Verőce,47.826111,19.044444,2026-03-14 18:51:04.121540,10.19,8.7,10.19,10.19,1006,55,3.06,131,5,0.0,Clear,clear sky,18
Szokolya,47.871111,19.030556,2026-03-14 18:51:05.362584,9.61,7.93,9.61,9.61,1006,55,3.2,127,5,0.0,Clear,clear sky,18
Berkenye,47.885278,19.071944,2026-03-14 18:51:06.592824,10.31,8.83,10.31,10.31,1006,55,3.21,128,4,0.0,Clear,clear sky,18
Nógrád,47.901944,19.0475,2026-03-14 18:51:07.830454,10.02,8.51,10.02,10.02,1006,55,3.26,125,5,0.0,Clear,clear sky,18
Diósjenő,47.94,19.049444,2026-03-14 18:51:09.065396,9.71,7.97,9.71,9.71,1006,55,3.34,123,5,0.0,Clear,clear sky,18
Borsosberény,47.971389,19.093056,2026-03-14 18:51:10.309259,10.42,8.95,10.42,10.42,1006,55,3.25,124,2,0.0,Clear,clear sky,18
Nagyoroszi,47.993611,19.101111,2026-03-14 18:51:11.549507,10.32,8.84,10.32,10.32,1006,55,3.24,121,3,0.0,Clear,clear sky,18
Drégelyvár,48.001944,19.079444,2026-03-14 18:51:12.790202,10.64,9.2,10.64,10.64,1006,55,3.43,118,4,0.0,Clear,clear sky,18
Drégely,48.042222,19.056111,2026-03-14 18:51:14.027326,11.06,9.66,11.06,11.06,1006,55,3.44,116,4,0.0,Clear,clear sky,18
Drégelypalánk,48.055,19.046111,2026-03-14 18:51:15.260859,11.28,9.87,11.28,11.28,1006,54,3.6,114,5,0.0,Clear,clear sky,18
Ipolyvece,48.056944,19.106389,2026-03-14 18:51:16.502586,11.2,9.81,11.2,11.2,1006,55,3.16,113,3,0.0,Clear,clear sky,18
Dejtár,48.045556,19.196389,2026-03-14 18:51:17.752545,11.03,9.62,11.03,11.03,1006,55,2.99,117,2,0.0,Clear,clear sky,18
Ipolyszög,48.054444,19.221944,2026-03-14 18:51:18.988527,11.07,9.67,11.07,11.07,1006,55,2.8,114,2,0.0,Clear,clear sky,18
Iklad-Domony,47.658056,19.444444,2026-03-14 18:51:20.236368,10.35,8.88,10.35,10.35,1006,55,3.87,137,6,0.0,Clear,clear sky,18
Iklad-Domony felső,47.667778,19.428056,2026-03-14 18:51:21.481646,10.35,8.88,10.35,10.35,1006,55,3.78,136,6,0.0,Clear,clear sky,18
Galgamácsa,47.693889,19.3925,2026-03-14 18:51:22.717991,10.12,8.6,10.12,10.12,1006,54,3.76,136,4,0.0,Clear,clear sky,18
Vácrátót,47.732778,19.217778,2026-03-14 18:51:23.967024,10.4,8.88,10.4,10.4,1006,53,3.57,139,2,0.0,Clear,clear sky,18
Csörög,47.735833,19.196389,2026-03-14 18:51:25.213708,10.64,9.14,10.64,10.64,1006,53,3.48,139,2,0.0,Clear,clear sky,18
Galgagyörk,47.735278,19.372222,2026-03-14 18:51:26.452230,10.24,8.73,10.24,10.24,1006,54,3.7,135,3,0.0,Clear,clear sky,18
Püspökhatvan,47.768611,19.366944,2026-03-14 18:51:27.686300,10.35,8.85,10.35,10.35,1006,54,3.63,134,2,0.0,Clear,clear sky,18
Acsa-Erdőkürt,47.801111,19.386111,2026-03-14 18:51:28.922483,10.25,8.74,10.25,10.25,1006,54,3.61,133,2,0.0,Clear,clear sky,18
Galgaguta,47.848611,19.385556,2026-03-14 18:51:30.164013,10.06,8.53,10.06,10.06,1006,54,3.57,133,1,0.0,Clear,clear sky,18
Nógrádkövesd,47.879444,19.371111,2026-03-14 18:51:31.399806,10.27,8.76,10.27,10.27,1006,54,3.53,133,0,0.0,Clear,clear sky,18
Magyarnándor,47.970833,19.356667,2026-03-14 18:51:32.636760,10.3,8.8,10.3,10.3,1006,54,3.27,130,0,0.0,Clear,clear sky,18
Mohora,47.995556,19.347778,2026-03-14 18:51:33.874327,10.46,8.97,10.46,10.46,1007,54,3.14,128,0,0.0,Clear,clear sky,18
Szügy,48.036389,19.333056,2026-03-14 18:51:35.112542,10.78,9.32,10.78,10.78,1007,54,2.8,123,0,0.0,Clear,clear sky,18
Balassagyarmat,48.071111,19.293611,2026-03-14 18:51:36.345266,10.93,9.49,10.93,10.93,1007,54,2.63,117,0,0.0,Clear,clear sky,18
Őrhalom,48.078773,19.403936,2026-03-14 18:51:37.580973,10.66,9.19,10.66,10.66,1007,54,2.33,117,0,0.0,Clear,clear sky,18
Hugyag,48.083056,19.421111,2026-03-14 18:51:38.822333,10.66,9.19,10.66,10.66,1007,54,2.33,117,0,0.0,Clear,clear sky,18
Szécsény,48.093056,19.521111,2026-03-14 18:51:40.065978,10.86,9.41,10.86,10.86,1007,54,2.33,122,0,0.0,Clear,clear sky,18
Ludányhalászi,48.1325,19.529444,2026-03-14 18:51:41.314019,10.89,9.44,10.89,10.89,1007,54,1.85,105,0,0.0,Clear,clear sky,18
Nógrádszakál,48.178333,19.521667,2026-03-14 18:51:42.559473,10.86,9.44,10.86,10.86,1007,55,1.7,94,0,0.0,Clear,clear sky,18
Ráróspuszta,48.207222,19.541389,2026-03-14 18:51:43.802637,10.35,8.88,10.35,10.35,1007,55,1.66,74,1,0.0,Clear,clear sky,18
Litke,48.215833,19.598611,2026-03-14 18:51:45.040229,10.82,9.39,10.82,10.82,1008,55,1.62,79,0,0.0,Clear,clear sky,18
Nyíregyháza külső,47.943056,21.740278,2026-03-14 18:51:46.277329,9.7,7.99,9.7,9.7,1009,43,3.28,122,0,0.0,Clear,clear sky,18
Oros,47.945833,21.806389,2026-03-14 18:51:47.534890,9.66,7.91,9.66,9.66,1009,43,3.35,123,0,0.0,Clear,clear sky,18
Napkor,47.948889,21.873056,2026-03-14 18:51:48.772354,9.61,7.8,9.61,9.61,1009,43,3.44,127,0,0.0,Clear,clear sky,18
Apagy,47.953775,21.939044,2026-03-14 18:51:50.010583,9.57,7.73,9.57,9.57,1009,43,3.47,129,0,0.0,Clear,clear sky,18
Levelek-Magy,47.948056,21.993611,2026-03-14 18:51:51.244535,9.46,7.6,9.46,9.46,1009,43,3.48,131,0,0.0,Clear,clear sky,18
Ófehértó,47.940556,22.041389,2026-03-14 18:51:52.485651,9.32,7.44,9.32,9.32,1009,42,3.45,132,0,0.0,Clear,clear sky,18
Ligettanya,47.951667,22.071389,2026-03-14 18:51:53.722614,9.25,7.36,9.25,9.25,1009,42,3.45,135,0,0.0,Clear,clear sky,18
Baktalórántháza,47.988611,22.083333,2026-03-14 18:51:54.961690,9.28,7.38,9.28,9.28,1009,42,3.47,136,0,0.0,Clear,clear sky,18
Vaja-Rohod,48.006389,22.164167,2026-03-14 18:51:56.201635,9.24,7.35,9.24,9.24,1009,42,3.44,139,0,0.0,Clear,clear sky,18
Rákóczitanya,48.022222,22.178333,2026-03-14 18:51:57.446929,9.18,7.29,9.18,9.18,1009,42,3.42,139,0,0.0,Clear,clear sky,18
Nyírmada,48.059167,22.203056,2026-03-14 18:51:58.684730,9.24,7.33,9.24,9.24,1009,42,3.47,140,0,0.0,Clear,clear sky,18
Tunyogmatolcs,47.960244,22.442247,2026-03-14 18:51:59.921786,9.09,7.23,9.09,9.09,1009,38,3.32,133,0,0.0,Clear,clear sky,18
Tunyogmatolcs alsó,47.966025,22.464713,2026-03-14 18:52:01.174280,9.03,7.15,9.03,9.03,1009,37,3.34,132,0,0.0,Clear,clear sky,18
Fehérgyarmat,47.979167,22.524444,2026-03-14 18:52:02.404573,9.0,7.06,9.0,9.0,1009,36,3.43,130,0,0.0,Clear,clear sky,18
Penyige,47.995278,22.566944,2026-03-14 18:52:03.639514,8.99,7.05,8.99,8.99,1009,36,3.44,130,0,0.0,Clear,clear sky,18
Nagyszekeres,47.976111,22.6125,2026-03-14 18:52:04.876917,8.95,6.99,8.95,8.95,1009,36,3.45,129,0,0.0,Clear,clear sky,18
Kisszekeres,47.965833,22.629444,2026-03-14 18:52:06.129005,8.88,6.9,8.88,8.88,1009,36,3.46,128,0,0.0,Clear,clear sky,18
Jánkmajtis,47.941944,22.657222,2026-03-14 18:52:07.371278,8.77,6.76,8.77,8.77,1009,35,3.47,126,0,0.0,Clear,clear sky,18
Gacsály,47.926111,22.745,2026-03-14 18:52:08.606918,8.71,6.71,8.71,8.71,1009,35,3.43,123,0,0.0,Clear,clear sky,18
Zajta,47.9025,22.796111,2026-03-14 18:52:09.843566,8.57,6.56,8.57,8.57,1009,35,3.39,120,0,0.0,Clear,clear sky,18
Eperjeske alsó,48.360556,22.19,2026-03-14 18:52:11.081773,9.34,7.32,9.34,9.34,1009,45,3.74,131,0,0.0,Clear,clear sky,18
Mándok,48.326944,22.196389,2026-03-14 18:52:12.325667,9.34,7.34,9.34,9.34,1009,44,3.69,134,0,0.0,Clear,clear sky,18
Tornyospálca,48.268333,22.201944,2026-03-14 18:52:13.557967,9.39,7.44,9.39,9.39,1009,43,3.62,137,0,0.0,Clear,clear sky,18
Aranyosapáti,48.211303,22.253534,2026-03-14 18:52:14.793829,9.39,7.51,9.39,9.39,1009,42,3.49,138,0,0.0,Clear,clear sky,18
Gyüre,48.171389,22.269167,2026-03-14 18:52:16.042836,9.37,7.49,9.37,9.37,1009,41,3.48,140,0,0.0,Clear,clear sky,18
Varsány,48.151722,22.290047,2026-03-14 18:52:17.282935,9.33,7.44,9.33,9.33,1009,41,3.47,140,0,0.0,Clear,clear sky,18
Vásárosnamény,48.126667,22.306111,2026-03-14 18:52:18.521098,9.32,7.44,9.32,9.32,1009,41,3.46,140,0,0.0,Clear,clear sky,18
Vitka,48.095556,22.308056,2026-03-14 18:52:19.754422,9.3,7.42,9.3,9.3,1009,40,3.44,140,0,0.0,Clear,clear sky,18
Nagydobos,48.054167,22.311111,2026-03-14 18:52:20.993553,9.21,7.33,9.21,9.21,1009,40,3.41,140,0,0.0,Clear,clear sky,18
Ópályi,47.997778,22.318333,2026-03-14 18:52:22.227367,9.12,7.26,9.12,9.12,1009,40,3.34,138,0,0.0,Clear,clear sky,18
Nyírcsaholy,47.908056,22.348333,2026-03-14 18:52:23.465505,9.05,7.22,9.05,9.05,1009,39,3.25,135,0,0.0,Clear,clear sky,18
Nagyecsed,47.864722,22.385556,2026-03-14 18:52:24.697040,8.96,7.13,8.96,8.96,1009,38,3.22,131,0,0.0,Clear,clear sky,18
Tiborszállás,47.815278,22.402778,2026-03-14 18:52:25.936041,8.9,7.1,8.9,8.9,1009,38,3.15,129,0,0.0,Clear,clear sky,18
Kiskunhalas,46.434444,19.493611,2026-03-14 18:52:27.171444,10.12,8.41,10.12,10.12,1007,47,8.03,152,0,0.0,Clear,clear sky,18
Kecskemét alsó,46.895833,19.692222,2026-03-14 18:52:28.404588,10.06,8.4,10.06,10.06,1007,49,6.99,157,2,0.0,Clear,clear sky,18
Putnok,48.286667,20.4375,2026-03-14 18:52:29.643256,10.6,8.97,10.6,10.6,1009,48,1.3,109,0,0.0,Clear,clear sky,18
Bánréve,48.299722,20.351944,2026-03-14 18:52:30.883048,10.78,9.17,10.78,10.78,1009,48,1.3,105,0,0.0,Clear,clear sky,18
Ipolytarnóc,48.236667,19.629167,2026-03-14 18:52:32.127354,10.78,9.35,10.78,10.78,1008,55,1.66,74,0,0.0,Clear,clear sky,18
Rákosliget,47.486111,19.257778,2026-03-14 18:52:33.367478,9.97,7.64,9.97,9.97,1006,51,4.78,146,7,0.0,Clear,clear sky,18
Ikrény,47.657778,17.524167,2026-03-14 18:52:34.607951,12.89,11.7,12.89,12.89,1004,56,3.87,155,23,0.0,Clouds,few clouds,18
Rábapatona,47.648889,17.461944,2026-03-14 18:52:35.842304,12.95,11.79,12.95,12.95,1004,57,3.8,159,29,0.0,Clouds,scattered clouds,18
Enese,47.644167,17.425278,2026-03-14 18:52:37.078488,12.97,11.81,12.97,12.97,1004,57,3.78,165,37,0.0,Clouds,scattered clouds,18
Kóny,47.632222,17.357222,2026-03-14 18:52:38.329651,12.92,11.78,12.92,12.92,1004,58,3.76,168,38,0.0,Clouds,scattered clouds,18
Farád,47.595278,17.195833,2026-03-14 18:52:39.560494,12.98,11.87,12.98,12.98,1004,59,3.89,180,58,0.0,Clouds,broken clouds,18
Rábatamási,47.592778,17.161389,2026-03-14 18:52:40.793378,12.98,11.87,12.98,12.98,1004,59,3.89,180,58,0.0,Clouds,broken clouds,18
Szárföld,47.589167,17.123889,2026-03-14 18:52:42.025609,13.0,11.9,13.0,13.0,1003,59,3.94,181,61,0.0,Clouds,broken clouds,18
Veszkény,47.586944,17.101389,2026-03-14 18:52:43.264942,13.02,11.92,13.02,13.02,1003,59,4.01,182,63,0.0,Clouds,broken clouds,18
Kapuvár,47.581944,17.046944,2026-03-14 18:52:44.514544,12.97,11.86,12.97,12.97,1003,59,4.12,184,69,0.0,Clouds,broken clouds,18
Vitnyéd-Csermajor,47.5825,16.987222,2026-03-14 18:52:45.752709,12.98,11.85,12.98,12.98,1003,58,4.38,184,75,0.0,Clouds,broken clouds,18
Petőháza,47.595278,16.893056,2026-03-14 18:52:46.993469,13.06,11.94,13.06,13.06,1003,58,5.02,183,86,0.0,Clouds,overcast clouds,18
Fertőszentmiklós,47.6,16.858889,2026-03-14 18:52:48.231834,13.03,11.9,13.03,13.03,1003,58,5.21,183,90,0.0,Clouds,overcast clouds,18
Pinnye,47.600278,16.768611,2026-03-14 18:52:49.469683,12.86,11.69,12.86,12.86,1003,57,5.85,186,100,0.0,Clouds,overcast clouds,18
Fertőboz,47.625,16.691667,2026-03-14 18:52:50.710273,12.83,11.66,12.83,12.83,1002,57,6.14,186,100,0.0,Clouds,overcast clouds,18
Sopron,47.677778,16.587222,2026-03-14 18:52:51.944824,12.61,11.41,12.61,12.61,1002,57,6.44,187,100,0.0,Clouds,overcast clouds,18
Fertőszéplak-Fertőd,47.618889,16.850833,2026-03-14 18:52:53.198539,13.14,12.0,13.14,13.14,1003,57,5.49,182,93,0.0,Clouds,overcast clouds,18
Nyúl,47.587778,17.698056,2026-03-14 18:52:54.437616,12.66,11.42,12.66,12.66,1004,55,3.96,148,10,0.0,Clear,clear sky,18
Pannonhalma,47.547778,17.740833,2026-03-14 18:52:55.681407,12.34,11.07,12.34,12.34,1004,55,3.88,147,9,0.0,Clear,clear sky,18
Tarjánpuszta,47.504722,17.789167,2026-03-14 18:52:56.922604,12.16,10.87,12.16,12.16,1004,55,3.75,148,9,0.0,Clear,clear sky,18
Győrasszonyfa,47.4925,17.799167,2026-03-14 18:52:58.171761,12.16,10.87,12.16,12.16,1004,55,3.75,148,9,0.0,Clear,clear sky,18
Veszprémvarsány,47.443333,17.818333,2026-03-14 18:52:59.410257,11.96,10.65,11.96,11.96,1004,55,3.55,150,8,0.0,Clear,clear sky,18
Bakonyszentlászló,47.395556,17.8175,2026-03-14 18:53:00.641387,11.53,10.2,11.53,11.53,1004,56,3.33,151,8,0.0,Clear,clear sky,18
Porva-Csesznek,47.326944,17.841111,2026-03-14 18:53:01.881581,10.11,8.66,10.11,10.11,1005,57,3.08,152,7,0.0,Clear,clear sky,18
Zirc,47.266667,17.878056,2026-03-14 18:53:03.121029,10.03,8.6,10.03,10.03,1005,58,2.68,155,7,0.0,Clear,clear sky,18
Eplény,47.192778,17.921667,2026-03-14 18:53:04.360033,10.34,8.94,10.34,10.34,1005,58,2.3,158,6,0.0,Clear,clear sky,18
Marcaltő,47.4275,17.348889,2026-03-14 18:53:05.593939,12.54,11.36,12.54,12.54,1004,58,3.6,170,25,0.0,Clouds,scattered clouds,18
Szany-Rábaszentandrás,47.460833,17.315278,2026-03-14 18:53:06.829386,12.64,11.47,12.64,12.64,1004,58,3.64,170,30,0.0,Clouds,scattered clouds,18
Egyed-Rábacsanak,47.521944,17.316389,2026-03-14 18:53:08.063622,12.72,11.56,12.72,12.72,1004,58,3.67,170,34,0.0,Clouds,scattered clouds,18
Rábapordány,47.557222,17.315,2026-03-14 18:53:09.304772,12.8,11.65,12.8,12.8,1004,58,3.69,170,36,0.0,Clouds,scattered clouds,18
Albertfalva,47.440784,19.033965,2026-03-14 18:53:10.542697,10.46,8.84,10.46,10.46,1006,49,4.69,146,7,0.0,Clear,clear sky,18
Budafok,47.425833,19.041389,2026-03-14 18:53:11.774806,10.34,8.74,10.34,10.34,1006,50,4.96,146,8,0.0,Clear,clear sky,18
Tétényliget,47.384722,18.955278,2026-03-14 18:53:13.013256,10.68,9.11,10.68,10.68,1006,50,5.27,145,8,0.0,Clear,clear sky,18
Érd alsó,47.379722,18.923056,2026-03-14 18:53:14.238086,10.42,8.85,10.42,10.42,1006,51,5.32,144,8,0.0,Clear,clear sky,18
Tárnok,47.365556,18.873889,2026-03-14 18:53:15.484383,10.76,9.22,10.76,10.76,1006,51,5.69,142,7,0.0,Clear,clear sky,18
Martonvásár,47.321389,18.781667,2026-03-14 18:53:16.732000,10.77,9.26,10.77,10.77,1006,52,6.16,142,6,0.0,Clear,clear sky,18
Baracska,47.297222,18.753333,2026-03-14 18:53:17.968462,10.87,9.37,10.87,10.87,1006,52,6.28,142,6,0.0,Clear,clear sky,18
Pettend,47.26,18.708889,2026-03-14 18:53:19.207419,10.78,9.3,10.78,10.78,1006,53,6.15,140,5,0.0,Clear,clear sky,18
Kápolnásnyék,47.245556,18.692222,2026-03-14 18:53:20.453614,10.88,9.41,10.88,10.88,1006,53,6.05,139,5,0.0,Clear,clear sky,18
Velence,47.226944,18.663889,2026-03-14 18:53:21.689037,11.0,9.54,11.0,11.0,1005,53,5.78,138,5,0.0,Clear,clear sky,18
Velencefürdő,47.218611,18.648056,2026-03-14 18:53:22.920081,10.99,9.53,10.99,10.99,1005,53,5.9,138,5,0.0,Clear,clear sky,18
Gárdony,47.205833,18.624722,2026-03-14 18:53:24.157760,11.06,9.61,11.06,11.06,1005,53,5.59,137,5,0.0,Clear,clear sky,18
Agárd,47.197666,18.604907,2026-03-14 18:53:25.392059,11.06,9.61,11.06,11.06,1005,53,5.59,137,5,0.0,Clear,clear sky,18
Dinnyés,47.179722,18.560833,2026-03-14 18:53:26.631018,11.09,9.66,11.09,11.09,1005,54,5.04,134,4,0.0,Clear,clear sky,18
Székesfehérvár,47.183611,18.424722,2026-03-14 18:53:27.868069,11.23,9.87,11.23,11.23,1005,56,3.61,132,4,0.0,Clear,clear sky,18
Szabadbattyán,47.105278,18.388333,2026-03-14 18:53:29.109412,11.19,9.83,11.19,11.19,1005,56,3.73,135,3,0.0,Clear,clear sky,18
Kiscséripuszta,47.048056,18.355,2026-03-14 18:53:30.349372,11.03,9.65,11.03,11.03,1005,56,3.73,138,4,0.0,Clear,clear sky,18
Lepsény,46.9875,18.248056,2026-03-14 18:53:31.586795,11.34,9.99,11.34,11.34,1005,56,3.45,143,5,0.0,Clear,clear sky,18
Balatonaliga,46.984444,18.171389,2026-03-14 18:53:32.823555,11.21,9.85,11.21,11.21,1005,56,2.91,152,6,0.0,Clear,clear sky,18
Balatonvilágos,46.964167,18.157222,2026-03-14 18:53:34.070449,11.57,10.24,11.57,11.57,1005,56,2.78,154,6,0.0,Clear,clear sky,18
Szabadifürdő,46.926111,18.103333,2026-03-14 18:53:35.305418,11.56,10.23,11.56,11.56,1005,56,2.7,156,6,0.0,Clear,clear sky,18
Ózd alsó,48.227778,20.306111,2026-03-14 18:53:36.552403,10.67,9.05,10.67,10.67,1009,48,1.57,121,0,0.0,Clear,clear sky,18
Ózd,48.2225,20.294722,2026-03-14 18:53:37.783767,10.67,9.05,10.67,10.67,1009,48,1.57,121,0,0.0,Clear,clear sky,18
Alsóboldva,48.212778,20.792222,2026-03-14 18:53:39.016247,10.29,8.6,10.29,10.29,1008,47,2.17,155,0,0.0,Clear,clear sky,18
Boldva,48.223333,20.790278,2026-03-14 18:53:40.253625,10.29,8.6,10.29,10.29,1008,47,2.17,155,0,0.0,Clear,clear sky,18
Borsodszirák,48.259167,20.770556,2026-03-14 18:53:41.496167,10.31,8.62,10.31,10.31,1008,47,1.97,150,0,0.0,Clear,clear sky,18
Edelény alsó,48.279167,20.760833,2026-03-14 18:53:42.732304,10.31,8.62,10.31,10.31,1008,47,1.97,150,0,0.0,Clear,clear sky,18
Edelény,48.299722,20.749444,2026-03-14 18:53:43.972289,10.26,8.57,10.26,10.26,1008,47,1.84,145,0,0.0,Clear,clear sky,18
Szendrőlád,48.334444,20.731944,2026-03-14 18:53:45.203955,9.22,8.8,9.22,9.22,1008,47,1.46,129,0,0.0,Clear,clear sky,18
Szendrő,48.400725,20.721346,2026-03-14 18:53:46.437816,10.11,8.43,10.11,10.11,1008,48,1.22,105,0,0.0,Clear,clear sky,18
Szendrő felső,48.409907,20.720148,2026-03-14 18:53:47.670365,10.11,8.43,10.11,10.11,1008,48,1.22,105,0,0.0,Clear,clear sky,18
Szalonna,48.449444,20.722222,2026-03-14 18:53:48.906573,10.12,8.44,10.12,10.12,1008,48,1.21,81,0,0.0,Clear,clear sky,18
Perkupa,48.471389,20.691111,2026-03-14 18:53:50.152384,9.44,9.14,9.44,9.44,1008,49,1.38,69,0,0.0,Clear,clear sky,18
Szemeretelep,47.443056,19.214167,2026-03-14 18:53:51.396637,10.23,8.64,10.23,10.23,1006,51,5.05,147,9,0.0,Clear,clear sky,18
Jósvafő-Aggtelek,48.489722,20.693889,2026-03-14 18:53:52.635114,9.74,9.45,9.74,9.74,1008,49,1.41,66,0,0.0,Clear,clear sky,18
Bódvaszilas,48.5375,20.738056,2026-03-14 18:53:53.881463,9.27,9.27,9.27,9.27,1008,49,1.23,68,0,0.0,Clear,clear sky,18
Komjáti,48.5475,20.759722,2026-03-14 18:53:55.113817,8.76,8.76,8.76,8.76,1008,50,1.11,73,1,0.0,Clear,clear sky,18
Tornanádaska,48.558333,20.787222,2026-03-14 18:53:56.350314,9.87,9.87,9.87,9.87,1008,49,1.05,78,1,0.0,Clear,clear sky,18
Onga,48.121111,20.906667,2026-03-14 18:53:57.581546,10.17,8.47,10.17,10.17,1008,47,2.38,154,1,0.0,Clear,clear sky,18
Szikszó-Vásártér,48.193056,20.934722,2026-03-14 18:53:58.830416,10.17,8.47,10.17,10.17,1008,47,2.32,149,2,0.0,Clear,clear sky,18
Szikszó,48.201667,20.941667,2026-03-14 18:54:00.062712,10.17,8.47,10.17,10.17,1008,47,2.31,146,2,0.0,Clear,clear sky,18
Aszaló,48.219867,20.961466,2026-03-14 18:54:01.299884,10.03,8.29,10.03,10.03,1008,46,2.25,143,2,0.0,Clear,clear sky,18
Halmaj,48.246667,20.991667,2026-03-14 18:54:02.552368,10.11,8.38,10.11,10.11,1008,46,2.17,137,3,0.0,Clear,clear sky,18
Csobád,48.277222,21.033889,2026-03-14 18:54:03.794661,10.07,8.33,10.07,10.07,1008,46,2.08,131,4,0.0,Clear,clear sky,18
Ináncs,48.291111,21.057778,2026-03-14 18:54:05.031572,9.97,9.16,9.97,9.97,1008,46,2.0,120,4,0.0,Clear,clear sky,18
Forró-Encs,48.3275,21.117778,2026-03-14 18:54:06.274615,9.86,9.05,9.86,9.86,1008,46,1.97,114,4,0.0,Clear,clear sky,18
Méra,48.363056,21.140278,2026-03-14 18:54:07.507015,9.57,8.72,9.57,9.57,1008,47,1.96,109,4,0.0,Clear,clear sky,18
Novajidrány,48.404444,21.170556,2026-03-14 18:54:08.739419,9.72,8.92,9.72,9.72,1008,47,1.94,107,4,0.0,Clear,clear sky,18
Hernádszurdok,48.487222,21.213889,2026-03-14 18:54:09.977599,9.53,8.78,9.53,9.53,1008,48,1.84,108,5,0.0,Clear,clear sky,18
Hidasnémeti,48.508333,21.229722,2026-03-14 18:54:11.224883,9.35,8.59,9.35,9.35,1008,49,1.82,109,5,0.0,Clear,clear sky,18
Mád,48.19,21.268889,2026-03-14 18:54:12.465693,9.57,8.75,9.57,9.57,1008,45,1.93,112,4,0.0,Clear,clear sky,18
Rátka,48.215,21.230278,2026-03-14 18:54:13.706706,9.94,9.18,9.94,9.94,1008,45,1.93,111,4,0.0,Clear,clear sky,18
Tállya,48.226944,21.225278,2026-03-14 18:54:14.948678,9.94,9.18,9.94,9.94,1008,45,1.93,111,4,0.0,Clear,clear sky,18
Golop,48.242778,21.204167,2026-03-14 18:54:16.186546,9.99,9.19,9.99,9.99,1008,46,1.99,115,4,0.0,Clear,clear sky,18
Abaújszántó,48.286944,21.181667,2026-03-14 18:54:17.434601,9.67,8.86,9.67,9.67,1008,46,1.94,109,4,0.0,Clear,clear sky,18
Abaújszántói fürdő,48.268333,21.179722,2026-03-14 18:54:18.669035,9.94,9.16,9.94,9.94,1008,46,1.96,112,4,0.0,Clear,clear sky,18
Abaújkér,48.309444,21.198333,2026-03-14 18:54:19.911600,9.64,8.83,9.64,9.64,1008,46,1.93,108,4,0.0,Clear,clear sky,18
Boldogkőváralja,48.345,21.208889,2026-03-14 18:54:21.150323,9.57,8.83,9.57,9.57,1008,47,1.84,100,4,0.0,Clear,clear sky,18
Korlát-Vizsoly,48.365,21.219167,2026-03-14 18:54:22.389948,9.65,8.91,9.65,9.65,1008,47,1.85,101,4,0.0,Clear,clear sky,18
Fony,48.411389,21.242778,2026-03-14 18:54:23.622976,9.64,8.9,9.64,9.64,1008,48,1.85,104,4,0.0,Clear,clear sky,18
Hejce-Vilmány,48.419444,21.245556,2026-03-14 18:54:24.854230,9.64,8.9,9.64,9.64,1008,48,1.85,104,4,0.0,Clear,clear sky,18
Göncruszka,48.445,21.246944,2026-03-14 18:54:26.092592,9.58,8.84,9.58,9.58,1008,48,1.84,106,4,0.0,Clear,clear sky,18
Gönc,48.470556,21.261389,2026-03-14 18:54:27.329890,9.49,8.8,9.49,9.49,1008,49,1.77,107,4,0.0,Clear,clear sky,18
Zsujta,48.4925,21.265,2026-03-14 18:54:28.588252,9.45,8.75,9.45,9.45,1008,49,1.77,108,4,0.0,Clear,clear sky,18
Bodrogkeresztúr,48.175556,21.354167,2026-03-14 18:54:29.835021,9.16,8.3,9.16,9.16,1008,45,1.9,111,3,0.0,Clear,clear sky,18
Szegi,48.201944,21.387778,2026-03-14 18:54:31.074003,9.63,8.99,9.63,9.63,1008,45,1.74,99,1,0.0,Clear,clear sky,18
Erdőbénye,48.218056,21.401944,2026-03-14 18:54:32.310810,9.95,9.44,9.95,9.95,1008,45,1.65,93,1,0.0,Clear,clear sky,18
Olaszliszka-Tolcsva,48.258333,21.448056,2026-03-14 18:54:33.541569,9.86,9.48,9.86,9.86,1008,45,1.51,88,0,0.0,Clear,clear sky,18
Bodrogolaszi,48.286944,21.512778,2026-03-14 18:54:34.777116,8.47,8.02,8.47,8.47,1008,46,1.4,92,0,0.0,Clear,clear sky,18
Sárospatak,48.325833,21.566111,2026-03-14 18:54:36.016366,9.66,9.36,9.66,9.66,1008,47,1.41,114,0,0.0,Clear,clear sky,18
Sátoraljaújhely,48.385833,21.657778,2026-03-14 18:54:37.246896,8.9,8.29,8.9,8.9,1008,48,1.6,137,0,0.0,Clear,clear sky,18
Vecsés,47.40855,19.25652,2026-03-14 18:54:38.484319,10.22,8.66,10.22,10.22,1006,52,5.38,147,9,0.0,Clear,clear sky,18
Vecsés-Kertekalja,47.403333,19.271389,2026-03-14 18:54:39.717935,10.22,8.66,10.22,10.22,1006,52,5.38,147,9,0.0,Clear,clear sky,18
Üllő,47.390833,19.348889,2026-03-14 18:54:40.950214,10.23,8.67,10.23,10.23,1006,52,5.64,147,9,0.0,Clear,clear sky,18
Monor,47.34545,19.43701,2026-03-14 18:54:42.181847,10.11,8.53,10.11,10.11,1006,52,5.96,149,7,0.0,Clear,clear sky,18
Pilis,47.279722,19.536389,2026-03-14 18:54:43.419964,10.02,8.44,10.02,10.02,1007,52,6.14,151,6,0.0,Clear,clear sky,18
Albertirsa,47.240278,19.606389,2026-03-14 18:54:44.660154,10.08,8.48,10.08,10.08,1007,51,6.12,153,7,0.0,Clear,clear sky,18
Ceglédbercel-Cserő,47.210278,19.686944,2026-03-14 18:54:45.896486,10.16,8.56,10.16,10.16,1007,51,6.05,155,8,0.0,Clear,clear sky,18
Cegléd,47.182778,19.806111,2026-03-14 18:54:47.140470,10.21,8.59,10.21,10.21,1007,50,5.9,159,10,0.0,Clear,clear sky,18
Abony,47.173056,20.016389,2026-03-14 18:54:48.373493,10.18,8.51,10.18,10.18,1007,48,5.57,165,9,0.0,Clear,clear sky,18
Szolnok,47.179167,20.175833,2026-03-14 18:54:49.608866,10.1,8.39,10.1,10.1,1008,47,5.13,168,3,0.0,Clear,clear sky,18
Szajol,47.170556,20.295278,2026-03-14 18:54:50.847351,9.98,7.72,9.98,9.98,1008,47,4.61,170,0,0.0,Clear,clear sky,18
Törökszentmiklós,47.170278,20.413611,2026-03-14 18:54:52.079156,9.85,7.84,9.85,9.85,1008,47,3.96,172,0,0.0,Clear,clear sky,18
Rákoscsaba-Újtelep,47.4875,19.271944,2026-03-14 18:54:53.320331,9.97,7.64,9.97,9.97,1006,51,4.78,146,7,0.0,Clear,clear sky,18
Rákoscsaba,47.492222,19.284722,2026-03-14 18:54:54.554765,10.04,8.43,10.04,10.04,1006,51,4.84,146,7,0.0,Clear,clear sky,18
Pécel,47.493889,19.338889,2026-03-14 18:54:55.793183,9.91,7.53,9.91,9.91,1006,51,4.87,146,8,0.0,Clear,clear sky,18
Isaszeg,47.537719,19.388955,2026-03-14 18:54:57.035232,9.78,7.48,9.78,9.78,1006,52,4.57,144,7,0.0,Clear,clear sky,18
Gödöllő,47.592222,19.358611,2026-03-14 18:54:58.269736,9.69,7.51,9.69,9.69,1006,53,4.25,142,6,0.0,Clear,clear sky,18
Máriabesnyő,47.595556,19.389722,2026-03-14 18:54:59.506460,9.69,7.51,9.69,9.69,1006,53,4.25,142,6,0.0,Clear,clear sky,18
Bag,47.641111,19.471667,2026-03-14 18:55:00.739532,10.35,8.88,10.35,10.35,1006,55,3.87,137,6,0.0,Clear,clear sky,18
Aszód,47.647467,19.492882,2026-03-14 18:55:01.980183,10.23,8.74,10.23,10.23,1007,55,3.83,136,7,0.0,Clear,clear sky,18
Hévízgyörk,47.638611,19.526667,2026-03-14 18:55:03.230044,10.22,8.73,10.22,10.22,1007,55,3.81,135,6,0.0,Clear,clear sky,18
Galgahévíz,47.6325,19.558333,2026-03-14 18:55:04.479698,10.4,8.93,10.4,10.4,1007,55,3.97,138,6,0.0,Clear,clear sky,18
Tura,47.626389,19.5975,2026-03-14 18:55:05.709345,10.34,8.87,10.34,10.34,1007,55,3.96,137,5,0.0,Clear,clear sky,18
Hatvan,47.663611,19.671389,2026-03-14 18:55:06.942491,10.49,9.03,10.49,10.49,1007,55,3.57,129,2,0.0,Clear,clear sky,18
Vámosgyörk,47.686111,19.927778,2026-03-14 18:55:08.177822,10.5,8.96,10.5,10.5,1007,52,2.88,128,2,0.0,Clear,clear sky,18
Adács,47.696389,19.975278,2026-03-14 18:55:09.417833,10.54,9.01,10.54,10.54,1008,52,2.54,125,2,0.0,Clear,clear sky,18
Karácsond,47.718056,20.048611,2026-03-14 18:55:10.652398,10.45,8.91,10.45,10.45,1008,52,2.35,122,2,0.0,Clear,clear sky,18
Ludas,47.723889,20.095556,2026-03-14 18:55:11.891375,10.6,9.05,10.6,10.6,1008,51,2.22,128,1,0.0,Clear,clear sky,18
Nagyút,47.72666666666667,20.161388888888887,2026-03-14 18:55:13.132207,10.54,8.98,10.54,10.54,1008,51,2.21,130,1,0.0,Clear,clear sky,18
Kál-Kápolna,47.734167,20.254167,2026-03-14 18:55:14.372029,10.45,8.86,10.45,10.45,1008,50,2.35,141,0,0.0,Clear,clear sky,18
Füzesabony,47.751389,20.415278,2026-03-14 18:55:15.608562,10.36,8.73,10.36,10.36,1008,49,2.6,150,0,0.0,Clear,clear sky,18
Szihalom,47.766944,20.491944,2026-03-14 18:55:16.844257,10.25,8.61,10.25,10.25,1008,49,2.6,151,0,0.0,Clear,clear sky,18
Mezőkövesd,47.797222,20.5675,2026-03-14 18:55:18.091150,10.24,8.6,10.24,10.24,1008,49,2.5,152,0,0.0,Clear,clear sky,18
Mezőkövesd felső,47.807222,20.591389,2026-03-14 18:55:19.338491,10.24,8.6,10.24,10.24,1008,49,2.5,152,0,0.0,Clear,clear sky,18
Mezőkeresztes-Mezőnyárád,47.845556,20.670278,2026-03-14 18:55:20.577624,10.08,8.42,10.08,10.08,1008,49,2.08,154,0,0.0,Clear,clear sky,18
Csincse,47.890833,20.764167,2026-03-14 18:55:21.816685,10.02,8.36,10.02,10.02,1008,49,2.0,157,0,0.0,Clear,clear sky,18
Emőd,47.930556,20.822778,2026-03-14 18:55:23.049052,9.7,8.96,9.7,9.7,1008,49,1.86,160,0,0.0,Clear,clear sky,18
Nyékládháza,47.9925,20.840556,2026-03-14 18:55:24.280672,9.98,9.25,9.98,9.98,1008,49,1.9,162,0,0.0,Clear,clear sky,18
Miskolc-Tiszai,48.098611,20.811389,2026-03-14 18:55:25.513943,10.15,8.45,10.15,10.15,1008,47,1.91,164,0,0.0,Clear,clear sky,18
Felsőzsolca,48.083611,20.866111,2026-03-14 18:55:26.753669,10.14,8.44,10.14,10.14,1008,47,2.17,160,0,0.0,Clear,clear sky,18
Hernádnémeti-Bőcs,48.051389,20.985,2026-03-14 18:55:27.986093,10.05,8.34,10.05,10.05,1008,47,2.62,151,1,0.0,Clear,clear sky,18
Tiszalúc,48.039722,21.0575,2026-03-14 18:55:29.233756,10.01,8.29,10.01,10.01,1008,47,2.89,148,3,0.0,Clear,clear sky,18
Taktaharkány,48.091667,21.128611,2026-03-14 18:55:30.478916,10.09,8.38,10.09,10.09,1008,47,2.7,142,4,0.0,Clear,clear sky,18
Taktaszada,48.1125,21.149444,2026-03-14 18:55:31.719102,10.05,8.31,10.05,10.05,1008,46,2.55,138,4,0.0,Clear,clear sky,18
Szerencs,48.155556,21.214444,2026-03-14 18:55:32.949535,10.08,8.32,10.08,10.08,1008,45,2.1,121,4,0.0,Clear,clear sky,18
Mezőzombor,48.156944,21.267778,2026-03-14 18:55:34.188928,9.97,9.13,9.97,9.97,1008,45,2.03,118,4,0.0,Clear,clear sky,18
Tarcal,48.125,21.34,2026-03-14 18:55:35.422526,10.04,8.27,10.04,10.04,1008,45,2.15,122,4,0.0,Clear,clear sky,18
Tokaj,48.112778,21.406667,2026-03-14 18:55:36.654711,9.45,8.52,9.45,9.45,1008,44,2.04,115,1,0.0,Clear,clear sky,18
Rakamaz,48.12,21.475,2026-03-14 18:55:37.891338,9.95,9.1,9.95,9.95,1008,44,2.04,114,0,0.0,Clear,clear sky,18
Görögszállás,48.04,21.555,2026-03-14 18:55:39.136027,9.87,8.66,9.87,9.87,1008,44,2.52,124,0,0.0,Clear,clear sky,18
Nyírtelek,48.005,21.615556,2026-03-14 18:55:40.371590,9.82,8.4,9.82,9.82,1008,43,2.83,123,0,0.0,Clear,clear sky,18
Rákoshegy,47.468611,19.245556,2026-03-14 18:55:41.602177,10.07,8.46,10.07,10.07,1006,51,4.97,146,8,0.0,Clear,clear sky,18
Ecser,47.439444,19.318056,2026-03-14 18:55:42.836630,10.16,8.59,10.16,10.16,1006,52,5.21,146,8,0.0,Clear,clear sky,18
Maglód,47.438889,19.340833,2026-03-14 18:55:44.076110,9.96,7.45,9.96,9.96,1006,52,5.24,146,8,0.0,Clear,clear sky,18
Maglódi nyaraló,47.434167,19.363611,2026-03-14 18:55:45.318112,9.73,7.15,9.73,9.73,1006,52,5.26,147,8,0.0,Clear,clear sky,18
Gyömrő,47.429722,19.393333,2026-03-14 18:55:46.553575,9.73,7.15,9.73,9.73,1006,52,5.26,147,8,0.0,Clear,clear sky,18
Mende,47.426944,19.439722,2026-03-14 18:55:47.787786,9.69,7.04,9.69,9.69,1006,52,5.45,149,8,0.0,Clear,clear sky,18
Szőlősnyaraló,47.450278,19.561111,2026-03-14 18:55:49.031983,10.1,8.55,10.1,10.1,1007,53,5.28,151,7,0.0,Clear,clear sky,18
Sülysáp,47.451944,19.5275,2026-03-14 18:55:50.265272,9.98,7.46,9.98,9.98,1007,53,5.28,149,7,0.0,Clear,clear sky,18
Tápiószecső,47.443056,19.614722,2026-03-14 18:55:51.496524,10.17,8.63,10.17,10.17,1007,53,5.28,152,7,0.0,Clear,clear sky,18
Szentmártonkáta,47.431944,19.680556,2026-03-14 18:55:52.728842,10.17,8.63,10.17,10.17,1007,53,5.26,153,7,0.0,Clear,clear sky,18
Nagykáta,47.409722,19.737778,2026-03-14 18:55:53.960790,10.22,8.66,10.22,10.22,1007,52,5.36,155,7,0.0,Clear,clear sky,18
Farmos,47.355278,19.8375,2026-03-14 18:55:55.198535,10.31,8.73,10.31,10.31,1007,51,5.43,158,9,0.0,Clear,clear sky,18
Tápiószele,47.346313,19.873504,2026-03-14 18:55:56.435285,10.28,8.67,10.28,10.28,1007,50,5.45,159,10,0.0,Clear,clear sky,18
Tápiógyörgye,47.325,19.95,2026-03-14 18:55:57.671252,10.3,8.67,10.3,10.3,1007,49,5.29,161,10,0.0,Clear,clear sky,18
Újszász,47.285833,20.066944,2026-03-14 18:55:58.907205,10.25,8.58,10.25,10.25,1007,48,5.13,164,7,0.0,Clear,clear sky,18
Szurdokpüspöki,47.851944,19.690278,2026-03-14 18:56:00.150578,10.64,9.17,10.64,10.64,1007,54,3.11,125,1,0.0,Clear,clear sky,18
Lőrinci,47.739444,19.673611,2026-03-14 18:56:01.392584,10.5,9.04,10.5,10.5,1007,55,3.35,123,2,0.0,Clear,clear sky,18
Selyp,47.759167,19.670833,2026-03-14 18:56:02.640656,10.53,9.07,10.53,10.53,1007,55,3.29,122,1,0.0,Clear,clear sky,18
Apc-Zagyvaszántó,47.791328,19.66822,2026-03-14 18:56:03.883626,10.58,9.13,10.58,10.58,1007,55,3.23,121,1,0.0,Clear,clear sky,18
Pásztó,47.918889,19.688889,2026-03-14 18:56:05.131505,10.58,9.1,10.58,10.58,1007,54,3.05,129,2,0.0,Clear,clear sky,18
Mátraszőlős-Hasznos,47.938506,19.706122,2026-03-14 18:56:06.376084,10.63,9.16,10.63,10.63,1007,54,2.91,132,2,0.0,Clear,clear sky,18
Tar,47.956111,19.746389,2026-03-14 18:56:07.613455,10.24,8.73,10.24,10.24,1008,54,2.69,134,2,0.0,Clear,clear sky,18
Mátraverebély,47.968333,19.778611,2026-03-14 18:56:08.860069,10.24,8.73,10.24,10.24,1008,54,2.69,134,2,0.0,Clear,clear sky,18
Nagybátony,47.981111,19.82,2026-03-14 18:56:10.105595,10.45,8.93,10.45,10.45,1008,53,2.6,137,2,0.0,Clear,clear sky,18
Kisterenye,48.009444,19.831944,2026-03-14 18:56:11.345375,10.57,9.07,10.57,10.57,1008,53,2.52,139,2,0.0,Clear,clear sky,18
Kisterenye-Bányatelep,48.021389,19.831944,2026-03-14 18:56:12.576525,10.57,9.07,10.57,10.57,1008,53,2.52,139,2,0.0,Clear,clear sky,18
Salgótarján külső,48.089444,19.790833,2026-03-14 18:56:13.808860,10.09,8.56,10.09,10.09,1008,54,2.2,133,1,0.0,Clear,clear sky,18
Balatonfenyves GV,46.7125,17.479167,2026-03-14 18:56:15.051232,11.57,10.32,11.57,11.57,1005,59,2.98,149,11,0.0,Clouds,few clouds,18
Várhegyalja,47.737778,18.366667,2026-03-14 18:56:16.292522,11.75,10.39,11.75,11.75,1005,54,3.82,132,6,0.0,Clear,clear sky,18
Imremajor,46.680556,17.499722,2026-03-14 18:56:17.533906,11.57,10.32,11.57,11.57,1005,59,2.98,149,12,0.0,Clouds,few clouds,18
Rákospalota-Kertváros,47.578333,19.122778,2026-03-14 18:56:18.769087,10.21,8.62,10.21,10.21,1006,51,3.84,146,5,0.0,Clear,clear sky,18
Vicziántelep,47.675833,19.286111,2026-03-14 18:56:20.003840,9.97,8.03,9.97,9.97,1006,53,3.86,139,3,0.0,Clear,clear sky,18
Pálmajor,46.662831,17.457526,2026-03-14 18:56:21.241154,11.49,10.24,11.49,11.49,1005,59,2.94,151,10,0.0,Clear,clear sky,18
Somogyszentpál felső,46.649758,17.471404,2026-03-14 18:56:22.481636,11.52,10.27,11.52,11.52,1005,59,2.97,149,13,0.0,Clouds,few clouds,18
Somogyszentpál,46.638611,17.478611,2026-03-14 18:56:23.714367,11.42,10.16,11.42,11.42,1005,59,2.93,148,15,0.0,Clouds,few clouds,18
Rudnaykert,47.7175,19.257778,2026-03-14 18:56:24.947403,10.14,8.59,10.14,10.14,1006,53,3.69,138,2,0.0,Clear,clear sky,18
Maroshegy,47.158333,18.406667,2026-03-14 18:56:26.183902,11.2,9.84,11.2,11.2,1005,56,3.72,133,4,0.0,Clear,clear sky,18
Bánhida,47.573703,18.371737,2026-03-14 18:56:27.422559,11.3,9.9,11.3,11.3,1005,54,4.02,137,8,0.0,Clear,clear sky,18
Magyarkút,47.850278,19.045,2026-03-14 18:56:28.657497,10.23,8.74,10.23,10.23,1006,55,3.12,129,5,0.0,Clear,clear sky,18
Becske alsó,47.897222,19.364722,2026-03-14 18:56:29.894821,9.8,8.01,9.8,9.8,1006,54,3.48,132,0,0.0,Clear,clear sky,18
Hosszúberek-Péteri,47.370556,19.389722,2026-03-14 18:56:31.127040,10.19,8.62,10.19,10.19,1006,52,5.85,148,9,0.0,Clear,clear sky,18
Monorierdő,47.308889,19.499167,2026-03-14 18:56:32.366111,10.05,8.47,10.05,10.05,1006,52,6.07,150,7,0.0,Clear,clear sky,18
Ceglédbercel,47.215833,19.658611,2026-03-14 18:56:33.605347,10.1,8.5,10.1,10.1,1007,51,6.13,154,7,0.0,Clear,clear sky,18
Budai út,47.208333,19.731389,2026-03-14 18:56:34.837038,10.06,8.43,10.06,10.06,1007,50,5.97,156,8,0.0,Clear,clear sky,18
Büdöskútpuszta,48.373056,20.726111,2026-03-14 18:56:36.073186,10.27,8.58,10.27,10.27,1008,47,1.32,118,0,0.0,Clear,clear sky,18
Bánrévei Vízmű,48.282778,20.368333,2026-03-14 18:56:37.312171,10.69,9.07,10.69,10.69,1009,48,1.3,106,0,0.0,Clear,clear sky,18
Rákoskert,47.456389,19.296111,2026-03-14 18:56:38.542187,9.98,7.56,9.98,9.98,1006,51,5.02,146,8,0.0,Clear,clear sky,18
Szirmabesenyő,48.146944,20.783056,2026-03-14 18:56:39.777883,9.72,8.89,9.72,9.72,1008,47,1.97,162,0,0.0,Clear,clear sky,18
Kitérőgyár,47.766944,19.935278,2026-03-14 18:56:41.020723,10.39,8.87,10.39,10.39,1008,53,2.47,117,1,0.0,Clear,clear sky,18
Tápiószentmárton,47.373333,19.797778,2026-03-14 18:56:42.261728,10.22,8.63,10.22,10.22,1007,51,5.47,157,9,0.0,Clear,clear sky,18
Zagyvarékas,47.244229,20.097435,2026-03-14 18:56:43.494667,10.2,8.5,10.2,10.2,1008,47,5.18,166,6,0.0,Clear,clear sky,18
Abonyi út,47.206401,20.125204,2026-03-14 18:56:44.729313,10.18,8.48,10.18,10.18,1008,47,5.26,166,6,0.0,Clear,clear sky,18
Jászkisér felső,47.438056,20.202222,2026-03-14 18:56:45.970545,10.24,8.57,10.24,10.24,1008,48,4.16,159,2,0.0,Clear,clear sky,18
Szellőhát,47.425556,20.188889,2026-03-14 18:56:47.208526,10.22,8.55,10.22,10.22,1008,48,4.3,161,2,0.0,Clear,clear sky,18
Szilvásvárad-Szalajkavölgy,48.0956,20.38272,2026-03-14 18:56:48.453698,9.22,8.4,9.22,9.22,1009,47,1.87,128,0,0.0,Clear,clear sky,18
Vásárosnamény külső,48.084444,22.255556,2026-03-14 18:56:49.694032,9.23,7.34,9.23,9.23,1009,41,3.44,141,0,0.0,Clear,clear sky,18
Újváros,46.660556,20.536111,2026-03-14 18:56:50.932489,9.02,6.32,9.02,9.02,1008,45,5.12,180,0,0.0,Clear,clear sky,18
Városi park,46.697778,19.864722,2026-03-14 18:56:52.169803,9.97,6.94,9.97,9.97,1008,47,6.85,161,0,0.0,Clear,clear sky,18
Belsőkamaráspuszta,46.341944,20.848889,2026-03-14 18:56:53.406032,8.18,5.33,8.18,8.18,1008,47,4.95,184,7,0.0,Clear,clear sky,18
Sajószöged,47.945278,20.981667,2026-03-14 18:56:54.646607,10.08,8.4,10.08,10.08,1008,48,2.71,153,2,0.0,Clear,clear sky,18
Kazincbarcika alsó,48.255278,20.649167,2026-03-14 18:56:55.883516,10.23,8.56,10.23,10.23,1008,48,1.68,148,0,0.0,Clear,clear sky,18
Nyárjas,46.857778,19.923611,2026-03-14 18:56:57.120911,9.92,7.0,9.92,9.92,1008,47,6.46,163,3,0.0,Clear,clear sky,18
Pogonyipuszta,48.296389,20.381667,2026-03-14 18:56:58.358436,10.69,9.07,10.69,10.69,1009,48,1.3,106,0,0.0,Clear,clear sky,18
Sióvölgy,46.911103,18.076964,2026-03-14 18:56:59.599164,11.65,10.33,11.65,11.65,1005,56,2.54,159,5,0.0,Clear,clear sky,18
Répáspuszta,46.430278,17.847222,2026-03-14 18:57:00.841957,11.06,9.71,11.06,11.06,1005,57,2.81,147,58,0.0,Clouds,broken clouds,18
Virányos,48.066667,21.527222,2026-03-14 18:57:02.083093,9.89,8.78,9.89,9.89,1008,44,2.38,121,0,0.0,Clear,clear sky,18
Füzesbokor,47.988611,21.6475,2026-03-14 18:57:03.316073,9.81,8.28,9.81,9.81,1008,43,3.0,123,0,0.0,Clear,clear sky,18
Kunfehértó,46.355833,19.417222,2026-03-14 18:57:04.549545,10.15,8.45,10.15,10.15,1007,47,8.13,149,0,0.0,Clear,clear sky,18
Erdőszél,46.329444,19.395,2026-03-14 18:57:05.786768,10.08,8.37,10.08,10.08,1007,47,8.12,147,0,0.0,Clear,clear sky,18
Jánoshalma,46.293056,19.330278,2026-03-14 18:57:07.026350,10.24,8.57,10.24,10.24,1007,48,8.11,146,0,0.0,Clear,clear sky,18
Mélykút,46.213056,19.370556,2026-03-14 18:57:08.260116,10.23,8.54,10.23,10.23,1007,47,8.19,145,1,0.0,Clear,clear sky,18
Bácsalmás,46.118056,19.346389,2026-03-14 18:57:09.497892,10.32,8.63,10.32,10.32,1007,47,8.21,142,3,0.0,Clear,clear sky,18
Almás,46.116216,19.328803,2026-03-14 18:57:10.737525,10.32,8.63,10.32,10.32,1007,47,8.21,142,3,0.0,Clear,clear sky,18
Bácsbokod-Bácsborsód,46.115833,19.16,2026-03-14 18:57:11.972869,10.53,8.89,10.53,10.53,1007,48,8.23,140,4,0.0,Clear,clear sky,18
Baja,46.187014,18.957602,2026-03-14 18:57:13.211556,10.94,9.37,10.94,10.94,1006,49,7.92,140,0,0.0,Clear,clear sky,18
Harkakötöny,46.458333,19.601944,2026-03-14 18:57:14.444691,10.06,8.35,10.06,10.06,1007,47,7.81,154,0,0.0,Clear,clear sky,18
Tajó,46.473056,19.650556,2026-03-14 18:57:15.679754,10.05,8.34,10.05,10.05,1007,47,7.75,155,0,0.0,Clear,clear sky,18
Kiskunmajsa,46.501667,19.728056,2026-03-14 18:57:16.918815,10.01,8.29,10.01,10.01,1008,47,7.57,157,0,0.0,Clear,clear sky,18
Jászszentlászló,46.565833,19.753611,2026-03-14 18:57:18.153016,10.02,8.3,10.02,10.02,1007,47,7.34,158,0,0.0,Clear,clear sky,18
Galambos,46.625,19.801111,2026-03-14 18:57:19.388283,9.98,6.87,9.98,9.98,1008,47,7.17,159,0,0.0,Clear,clear sky,18
Pestszentimre,47.402222,19.188611,2026-03-14 18:57:20.623077,10.4,8.83,10.4,10.4,1006,51,5.45,147,10,0.0,Clear,clear sky,18
Gyál felső,47.390278,19.204722,2026-03-14 18:57:21.860742,10.32,8.74,10.32,10.32,1006,51,5.51,147,10,0.0,Clear,clear sky,18
Gyál,47.376667,19.219444,2026-03-14 18:57:23.100559,10.32,8.74,10.32,10.32,1006,51,5.51,147,10,0.0,Clear,clear sky,18
Ócsa,47.301389,19.232222,2026-03-14 18:57:24.332313,10.38,8.83,10.38,10.38,1006,52,6.17,147,11,0.0,Clouds,few clouds,18
Inárcs-Kakucs,47.247222,19.317778,2026-03-14 18:57:25.571225,10.35,8.8,10.35,10.35,1006,52,6.51,148,10,0.0,Clear,clear sky,18
Dabas,47.194722,19.328889,2026-03-14 18:57:26.806744,10.27,8.71,10.27,10.27,1006,52,6.71,148,9,0.0,Clear,clear sky,18
Gyón,47.178333,19.355556,2026-03-14 18:57:28.051443,10.3,8.74,10.3,10.3,1006,52,6.8,149,9,0.0,Clear,clear sky,18
Hernád,47.161389,19.4025,2026-03-14 18:57:29.285365,10.17,8.57,10.17,10.17,1006,51,6.8,150,6,0.0,Clear,clear sky,18
Bakonygyirót,47.416389,17.811944,2026-03-14 18:57:30.531713,12.01,10.73,12.01,12.01,1004,56,3.47,149,8,0.0,Clear,clear sky,18
Vinye,47.360317,17.819635,2026-03-14 18:57:31.767793,11.42,10.08,11.42,11.42,1005,56,3.21,151,8,0.0,Clear,clear sky,18
Nemesgörzsöny,47.402924,17.376385,2026-03-14 18:57:33.003301,12.54,11.36,12.54,12.54,1004,58,3.63,166,20,0.0,Clouds,few clouds,18
Rábahíd,47.438618,17.337525,2026-03-14 18:57:34.245778,12.6,11.43,12.6,12.6,1004,58,3.63,170,27,0.0,Clouds,scattered clouds,18
Öskü,47.162222,18.076389,2026-03-14 18:57:35.480880,11.3,9.97,11.3,11.3,1005,57,2.35,161,6,0.0,Clear,clear sky,18
Márkó,47.1275,17.813889,2026-03-14 18:57:36.725258,10.65,9.31,10.65,10.65,1005,59,2.09,148,7,0.0,Clear,clear sky,18
Nemeskocs,47.203333,17.188889,2026-03-14 18:57:37.961769,12.03,10.91,12.03,12.03,1004,62,3.3,188,35,0.0,Clouds,scattered clouds,18
Zalagyömörő,47.011111,17.220833,2026-03-14 18:57:39.198172,11.61,10.47,11.61,11.61,1004,63,3.01,183,21,0.0,Clouds,few clouds,18
Rigács,47.061667,17.199167,2026-03-14 18:57:40.440243,11.61,10.47,11.61,11.61,1004,63,3.05,184,21,0.0,Clouds,few clouds,18
Kemenespálfa,47.139722,17.183056,2026-03-14 18:57:41.677091,11.83,10.69,11.83,11.83,1004,62,3.19,188,29,0.0,Clouds,scattered clouds,18
Lentiszombathely,46.611389,16.5725,2026-03-14 18:57:42.913004,10.49,9.4,10.49,10.49,1004,69,1.56,223,100,0.0,Clouds,overcast clouds,18
Ortaháza,46.626667,16.685833,2026-03-14 18:57:44.152157,10.4,9.3,10.4,10.4,1004,69,1.25,236,95,0.0,Clouds,overcast clouds,18
Rádiháza,46.654722,16.765833,2026-03-14 18:57:45.385778,10.44,9.34,10.44,10.44,1004,69,1.29,237,92,0.0,Clouds,overcast clouds,18
Baktüttös,46.690833,16.826389,2026-03-14 18:57:46.619729,10.63,9.52,10.63,10.63,1004,68,1.58,231,91,0.0,Clouds,overcast clouds,18
Budafa,46.851667,16.624722,2026-03-14 18:57:47.860454,10.72,9.62,10.72,10.72,1004,68,2.41,209,93,0.0,Clouds,overcast clouds,18
Zalapatakalja,46.845556,16.603889,2026-03-14 18:57:49.107095,10.7,9.6,10.7,10.7,1004,68,2.69,207,97,0.0,Clouds,overcast clouds,18
Tormásliget,47.430556,16.781667,2026-03-14 18:57:50.340800,12.33,11.16,12.33,12.33,1003,59,5.04,192,99,0.0,Clouds,overcast clouds,18
Belecska,46.64,18.411389,2026-03-14 18:57:51.577448,11.35,9.95,11.35,11.35,1005,54,4.87,130,1,0.0,Clear,clear sky,18
Almár,47.956111,20.356944,2026-03-14 18:57:52.815795,9.66,8.66,9.66,9.66,1008,49,2.17,131,0,0.0,Clear,clear sky,18
Vasútmúzeum,47.543889,19.099444,2026-03-14 18:57:54.052505,10.33,8.72,10.33,10.33,1006,50,4.0,146,5,0.0,Clear,clear sky,18
Abda,47.690833,17.540556,2026-03-14 18:57:55.288374,12.98,11.8,12.98,12.98,1004,56,3.94,156,30,0.0,Clouds,scattered clouds,18
Vadaspark,47.526111,18.949167,2026-03-14 18:57:56.524595,9.31,7.18,9.31,9.31,1006,51,3.94,143,6,0.0,Clear,clear sky,18
Barosstelep,47.398889,18.989167,2026-03-14 18:57:57.763639,10.7,9.13,10.7,10.7,1006,50,5.24,145,8,0.0,Clear,clear sky,18
Fegyvernek-Örményes,47.194444,20.5575,2026-03-14 18:57:59.013664,9.65,7.9,9.65,9.65,1008,48,3.34,176,0,0.0,Clear,clear sky,18
Zagyvapálfalva,48.068889,19.785,2026-03-14 18:58:00.248243,10.3,8.8,10.3,10.3,1008,54,2.33,136,2,0.0,Clear,clear sky,18
Salgótarján,48.105556,19.807222,2026-03-14 18:58:01.488294,9.66,8.76,9.66,9.66,1008,54,2.04,128,1,0.0,Clear,clear sky,18
Szabadisóstó,46.933889,18.118056,2026-03-14 18:58:02.721400,11.6,10.28,11.6,11.6,1005,56,2.68,156,6,0.0,Clear,clear sky,18
Siófok,46.907778,18.053889,2026-03-14 18:58:03.966057,11.65,10.33,11.65,11.65,1005,56,2.54,159,5,0.0,Clear,clear sky,18
Balatonszéplak felső,46.898056,18.018056,2026-03-14 18:58:05.202278,11.59,10.27,11.59,11.59,1005,56,2.56,159,4,0.0,Clear,clear sky,18
Balatonszéplak alsó,46.891944,17.993333,2026-03-14 18:58:06.450515,11.71,10.42,11.71,11.71,1005,57,2.54,159,3,0.0,Clear,clear sky,18
Zamárdi felső,46.886111,17.969444,2026-03-14 18:58:07.689712,11.74,10.46,11.74,11.74,1005,57,2.51,158,3,0.0,Clear,clear sky,18
Zamárdi,46.88,17.944722,2026-03-14 18:58:08.925583,11.74,10.46,11.74,11.74,1005,57,2.51,158,3,0.0,Clear,clear sky,18
Szántód,46.861944,17.899167,2026-03-14 18:58:10.159554,11.76,10.48,11.76,11.76,1005,57,2.58,155,1,0.0,Clear,clear sky,18
Szőny-Déli,47.735278,18.141944,2026-03-14 18:58:11.395259,12.24,10.96,12.24,12.24,1005,55,4.1,137,7,0.0,Clear,clear sky,18
Várpalota,47.194444,18.149167,2026-03-14 18:58:12.648597,10.97,9.61,10.97,10.97,1005,57,2.46,154,5,0.0,Clear,clear sky,18
Pétfürdő,47.1675,18.121389,2026-03-14 18:58:13.885037,11.43,10.12,11.43,11.43,1005,57,2.41,157,6,0.0,Clear,clear sky,18
Hajmáskér,47.141111,18.009444,2026-03-14 18:58:15.129267,11.11,9.76,11.11,11.11,1005,57,2.33,161,6,0.0,Clear,clear sky,18
Veszprém,47.118889,17.91,2026-03-14 18:58:16.366036,11.11,9.79,11.11,11.11,1005,58,2.11,157,7,0.0,Clear,clear sky,18
Herend,47.136944,17.760278,2026-03-14 18:58:17.618723,10.58,9.23,10.58,10.58,1005,59,2.15,144,7,0.0,Clear,clear sky,18
Városlőd,47.144167,17.652778,2026-03-14 18:58:18.861251,10.49,9.11,10.49,10.49,1005,58,2.76,136,8,0.0,Clear,clear sky,18
Városlőd-Kislőd,47.133889,17.631111,2026-03-14 18:58:20.095185,10.88,9.54,10.88,10.88,1005,58,2.63,134,9,0.0,Clear,clear sky,18
Ajka,47.105902,17.572938,2026-03-14 18:58:21.334871,11.3,10.0,11.3,11.3,1005,58,2.81,135,11,0.0,Clouds,few clouds,18
Ajka-Gyártelep,47.096806,17.555219,2026-03-14 18:58:22.573741,11.3,10.0,11.3,11.3,1005,58,2.81,135,11,0.0,Clouds,few clouds,18
Devecser,47.1125,17.435278,2026-03-14 18:58:23.809980,11.65,10.39,11.65,11.65,1004,58,2.96,143,10,0.0,Clear,clear sky,18
Somlóvásárhely,47.124444,17.369167,2026-03-14 18:58:25.047207,11.73,10.5,11.73,11.73,1004,59,3.06,159,9,0.0,Clear,clear sky,18
Tüskevár,47.128611,17.331389,2026-03-14 18:58:26.283642,11.81,10.61,11.81,11.81,1004,60,3.07,164,11,0.0,Clouds,few clouds,18
Karakószörcsök,47.133611,17.287778,2026-03-14 18:58:27.525079,11.84,10.65,11.84,11.84,1004,60,3.09,170,13,0.0,Clouds,few clouds,18
Kerta,47.151944,17.237222,2026-03-14 18:58:28.759548,11.94,10.81,11.94,11.94,1004,62,3.2,184,25,0.0,Clouds,scattered clouds,18
Boba,47.183333,17.191389,2026-03-14 18:58:29.994693,11.95,10.82,11.95,11.95,1004,62,3.26,188,33,0.0,Clouds,scattered clouds,18
Börgönd,47.140278,18.515,2026-03-14 18:58:31.227643,10.99,9.55,10.99,10.99,1005,54,4.99,134,3,0.0,Clear,clear sky,18
Belsőbáránd,47.102778,18.499722,2026-03-14 18:58:32.463024,10.99,9.55,10.99,10.99,1005,54,4.82,134,2,0.0,Clear,clear sky,18
Zichyújfalu,47.124444,18.6725,2026-03-14 18:58:33.700782,10.81,9.3,10.81,10.81,1006,52,6.54,141,5,0.0,Clear,clear sky,18
Seregélyes,47.121111,18.580556,2026-03-14 18:58:34.941610,11.09,9.66,11.09,11.09,1005,54,5.3,135,3,0.0,Clear,clear sky,18
Polgárdi-Ipartelepek,47.079167,18.314444,2026-03-14 18:58:36.185736,10.93,9.54,10.93,10.93,1005,56,3.4,140,4,0.0,Clear,clear sky,18
Polgárdi,47.07,18.284167,2026-03-14 18:58:37.423972,10.93,9.54,10.93,10.93,1005,56,3.4,140,4,0.0,Clear,clear sky,18
Füle,47.05,18.255278,2026-03-14 18:58:38.664998,10.94,9.55,10.94,10.94,1005,56,3.3,143,5,0.0,Clear,clear sky,18
Zánka-Erzsébettábor,46.8775,17.709167,2026-03-14 18:58:39.905002,11.83,10.58,11.83,11.83,1005,58,2.7,141,2,0.0,Clear,clear sky,18
Csajág,47.033889,18.186389,2026-03-14 18:58:41.151876,11.17,9.8,11.17,11.17,1005,56,2.86,152,6,0.0,Clear,clear sky,18
Balatonakarattya,47.017222,18.167778,2026-03-14 18:58:42.399177,11.17,9.8,11.17,11.17,1005,56,2.86,152,6,0.0,Clear,clear sky,18
Csittényhegy,47.025278,18.1375,2026-03-14 18:58:43.644755,11.47,10.13,11.47,11.47,1005,56,2.71,154,6,0.0,Clear,clear sky,18
Balatonkenese,47.0325,18.105556,2026-03-14 18:58:44.877586,11.64,10.35,11.64,11.64,1005,57,2.58,157,6,0.0,Clear,clear sky,18
Balatonfűzfő,47.060278,18.0425,2026-03-14 18:58:46.109332,11.5,10.19,11.5,11.5,1005,57,2.28,160,6,0.0,Clear,clear sky,18
Balatonalmádi,47.028333,18.015,2026-03-14 18:58:47.344747,11.68,10.39,11.68,11.68,1005,57,2.3,160,6,0.0,Clear,clear sky,18
Káptalanfüred,47.008889,18.003889,2026-03-14 18:58:48.592291,10.83,9.46,10.83,10.83,1005,57,2.27,159,6,0.0,Clear,clear sky,18
Alsóörs,46.985278,17.974722,2026-03-14 18:58:49.825261,10.83,9.46,10.83,10.83,1005,57,2.27,159,6,0.0,Clear,clear sky,18
Csopak,46.974722,17.931111,2026-03-14 18:58:51.066221,11.23,9.92,11.23,11.23,1005,58,2.13,155,4,0.0,Clear,clear sky,18
Balatonarács,46.9625,17.8975,2026-03-14 18:58:52.301805,11.23,9.92,11.23,11.23,1005,58,2.13,155,4,0.0,Clear,clear sky,18
Balatonfüred,46.955833,17.883056,2026-03-14 18:58:53.538698,11.65,10.39,11.65,11.65,1005,58,2.18,152,3,0.0,Clear,clear sky,18
Aszófő,46.925556,17.8325,2026-03-14 18:58:54.778305,11.62,10.35,11.62,11.62,1005,58,2.28,150,2,0.0,Clear,clear sky,18
Örvényes,46.9125,17.818056,2026-03-14 18:58:56.029480,11.62,10.35,11.62,11.62,1005,58,2.28,150,2,0.0,Clear,clear sky,18
Balatonudvari,46.904722,17.808056,2026-03-14 18:58:57.268588,11.11,9.79,11.11,11.11,1005,58,2.29,147,2,0.0,Clear,clear sky,18
Fövenyes,46.893611,17.789444,2026-03-14 18:58:58.508597,11.74,10.48,11.74,11.74,1005,58,2.43,148,1,0.0,Clear,clear sky,18
Balatonakali-Dörgicse,46.88,17.747778,2026-03-14 18:58:59.756570,11.39,10.1,11.39,11.39,1005,58,2.46,145,1,0.0,Clear,clear sky,18
Zánka-Köveskál,46.872778,17.687778,2026-03-14 18:59:00.998868,11.44,10.15,11.44,11.44,1005,58,2.72,140,3,0.0,Clear,clear sky,18
Balatonszepezd,46.851111,17.663056,2026-03-14 18:59:02.238402,11.82,10.57,11.82,11.82,1005,58,2.86,141,4,0.0,Clear,clear sky,18
Szepezdfürdő,46.839722,17.649444,2026-03-14 18:59:03.471573,10.78,9.43,10.78,10.78,1005,58,2.85,140,5,0.0,Clear,clear sky,18
Révfülöp,46.829167,17.632222,2026-03-14 18:59:04.716458,10.78,9.43,10.78,10.78,1005,58,2.85,140,5,0.0,Clear,clear sky,18
Balatonrendes,46.824722,17.582778,2026-03-14 18:59:05.954018,11.39,10.13,11.39,11.39,1005,59,2.88,143,10,0.0,Clear,clear sky,18
Ábrahámhegy,46.815,17.572222,2026-03-14 18:59:07.188013,11.39,10.13,11.39,11.39,1005,59,2.88,143,10,0.0,Clear,clear sky,18
Badacsonyörs,46.805556,17.531667,2026-03-14 18:59:08.424810,11.62,10.38,11.62,11.62,1005,59,2.85,145,11,0.0,Clouds,few clouds,18
Kisújszállás,47.223889,20.751111,2026-03-14 18:59:09.662889,9.58,7.91,9.58,9.58,1008,49,3.16,182,1,0.0,Clear,clear sky,18
Karcag,47.303333,20.928056,2026-03-14 18:59:10.902250,9.6,7.94,9.6,9.6,1008,48,3.15,180,8,0.0,Clear,clear sky,18
Püspökladány,47.3275,21.128889,2026-03-14 18:59:12.133512,9.67,8.28,9.67,9.67,1008,46,2.73,175,10,0.0,Clear,clear sky,18
Kaba,47.368889,21.259444,2026-03-14 18:59:13.373621,9.65,8.7,9.65,9.65,1008,45,2.11,165,7,0.0,Clear,clear sky,18
Hajdúszoboszló,47.429444,21.406944,2026-03-14 18:59:14.611096,9.6,8.87,9.6,9.6,1008,44,1.83,141,5,0.0,Clear,clear sky,18
Ebes,47.462778,21.488889,2026-03-14 18:59:15.848892,9.51,8.67,9.51,9.51,1008,44,1.94,131,4,0.0,Clear,clear sky,18
Debrecen,47.520278,21.628611,2026-03-14 18:59:17.080616,9.36,8.16,9.36,9.36,1008,42,2.36,116,2,0.0,Clear,clear sky,18
Debrecen-Csapókert,47.540556,21.648056,2026-03-14 18:59:18.323206,9.27,7.93,9.27,9.27,1008,42,2.54,113,1,0.0,Clear,clear sky,18
Apafa,47.584045,21.655858,2026-03-14 18:59:19.557488,9.28,7.85,9.28,9.28,1008,42,2.67,114,1,0.0,Clear,clear sky,18
Bocskaikert,47.6425,21.666389,2026-03-14 18:59:20.799156,9.22,7.61,9.22,9.22,1009,43,2.94,117,1,0.0,Clear,clear sky,18
Hajdúhadház,47.686944,21.679167,2026-03-14 18:59:22.038337,9.31,7.67,9.31,9.31,1009,43,3.03,116,1,0.0,Clear,clear sky,18
Téglás,47.714722,21.684722,2026-03-14 18:59:23.274035,9.36,7.69,9.36,9.36,1009,43,3.09,117,1,0.0,Clear,clear sky,18
Újfehértó,47.814444,21.706389,2026-03-14 18:59:24.510533,9.6,7.91,9.6,9.6,1009,43,3.22,121,0,0.0,Clear,clear sky,18
Nyíregyháza,47.946667,21.705556,2026-03-14 18:59:25.747271,9.73,8.08,9.73,9.73,1009,43,3.18,123,0,0.0,Clear,clear sky,18
Sóstó,47.998051,21.729047,2026-03-14 18:59:26.988636,9.71,8.05,9.71,9.71,1009,43,3.2,124,0,0.0,Clear,clear sky,18
Sóstóhegy,48.012222,21.742778,2026-03-14 18:59:28.229797,9.8,8.18,9.8,9.8,1009,43,3.16,124,0,0.0,Clear,clear sky,18
Kemecse,48.065556,21.801667,2026-03-14 18:59:29.466006,9.78,8.11,9.78,9.78,1009,44,3.24,128,0,0.0,Clear,clear sky,18
Nyírbogdány,48.082222,21.855278,2026-03-14 18:59:30.703523,9.72,8.01,9.72,9.72,1009,44,3.3,131,0,0.0,Clear,clear sky,18
Kék,48.093333,21.883889,2026-03-14 18:59:31.941849,9.72,7.93,9.72,9.72,1009,44,3.44,133,0,0.0,Clear,clear sky,18
Demecser,48.111667,21.926667,2026-03-14 18:59:33.178923,9.7,7.89,9.7,9.7,1009,44,3.48,135,0,0.0,Clear,clear sky,18
Gégény,48.128333,21.951944,2026-03-14 18:59:34.413001,9.65,7.81,9.65,9.65,1009,44,3.52,137,0,0.0,Clear,clear sky,18
Pátroha,48.158611,21.996667,2026-03-14 18:59:35.651498,9.64,7.77,9.64,9.64,1009,45,3.56,138,0,0.0,Clear,clear sky,18
Ajak,48.1865,22.048972,2026-03-14 18:59:36.890331,9.6,7.71,9.6,9.6,1009,45,3.58,139,0,0.0,Clear,clear sky,18
Kisvárda,48.208333,22.078333,2026-03-14 18:59:38.127964,9.58,7.67,9.58,9.58,1009,44,3.62,139,0,0.0,Clear,clear sky,18
Kisvárda-Hármasút,48.228333,22.091944,2026-03-14 18:59:39.367700,9.58,7.67,9.58,9.58,1009,44,3.62,139,0,0.0,Clear,clear sky,18
Fényeslitke,48.267222,22.107222,2026-03-14 18:59:40.604819,9.48,7.52,9.48,9.48,1009,45,3.67,138,0,0.0,Clear,clear sky,18
Komoró,48.305278,22.118056,2026-03-14 18:59:41.843982,9.49,7.51,9.49,9.49,1009,45,3.71,137,0,0.0,Clear,clear sky,18
Tuzsér,48.342222,22.131667,2026-03-14 18:59:43.088321,9.41,7.38,9.41,9.41,1009,45,3.78,135,0,0.0,Clear,clear sky,18
Tiszabezdéd,48.371389,22.145,2026-03-14 18:59:44.328547,9.37,7.33,9.37,9.37,1009,45,3.78,132,0,0.0,Clear,clear sky,18
Záhony,48.402222,22.183611,2026-03-14 18:59:45.566799,9.31,7.27,9.31,9.31,1009,45,3.75,129,0,0.0,Clear,clear sky,18
Karcag-Vásártér,47.3225,20.9075,2026-03-14 18:59:46.800675,9.6,7.94,9.6,9.6,1008,48,3.15,180,8,0.0,Clear,clear sky,18
Berekfürdő,47.374722,20.827222,2026-03-14 18:59:48.046785,9.6,7.89,9.6,9.6,1008,48,3.25,177,3,0.0,Clear,clear sky,18
Kunmadaras,47.415278,20.793056,2026-03-14 18:59:49.293668,9.59,7.87,9.59,9.59,1008,49,3.26,174,1,0.0,Clear,clear sky,18
Tiszaszentimre,47.490833,20.733056,2026-03-14 18:59:50.526749,9.6,7.9,9.6,9.6,1008,49,3.23,169,0,0.0,Clear,clear sky,18
Tiszaszőlős,47.555556,20.728056,2026-03-14 18:59:51.762082,9.75,8.09,9.75,9.75,1008,49,3.22,166,0,0.0,Clear,clear sky,18
Hosszúhát,47.235556,21.101944,2026-03-14 18:59:53.002656,9.54,8.04,9.54,9.54,1008,47,2.86,183,11,0.0,Clouds,few clouds,18
Szerep,47.234444,21.145833,2026-03-14 18:59:54.240101,9.54,8.09,9.54,9.54,1008,46,2.78,182,10,0.0,Clear,clear sky,18
Sárrétudvari,47.231667,21.180833,2026-03-14 18:59:55.480283,9.52,8.13,9.52,9.52,1008,46,2.68,181,9,0.0,Clear,clear sky,18
Biharnagybajom,47.208889,21.221944,2026-03-14 18:59:56.723200,9.47,8.18,9.47,9.47,1008,46,2.52,181,8,0.0,Clear,clear sky,18
Füzesgyarmat,47.113056,21.194444,2026-03-14 18:59:57.958272,9.28,7.71,9.28,9.28,1008,47,2.89,192,9,0.0,Clear,clear sky,18
Füzesgyarmatfürdő,47.093787,21.201582,2026-03-14 18:59:59.200072,9.28,7.71,9.28,9.28,1008,47,2.89,192,9,0.0,Clear,clear sky,18
Báránd,47.299722,21.235278,2026-03-14 19:00:00.438414,9.63,8.52,9.63,9.63,1008,45,2.31,172,8,0.0,Clear,clear sky,18
Sáp,47.259722,21.360556,2026-03-14 19:00:01.668930,9.52,8.58,9.52,9.52,1008,45,2.07,173,6,0.0,Clear,clear sky,18
Berettyóújfalu,47.211944,21.535556,2026-03-14 19:00:02.912395,9.39,8.95,9.39,9.39,1008,44,1.5,166,4,0.0,Clear,clear sky,18
Mezőpeterd,47.176111,21.625278,2026-03-14 19:00:04.143594,9.35,9.03,9.35,9.35,1008,44,1.39,162,2,0.0,Clear,clear sky,18
Biharkeresztes,47.135556,21.721389,2026-03-14 19:00:05.379155,9.27,8.87,9.27,9.27,1008,43,1.45,159,0,0.0,Clear,clear sky,18
Tócóvölgy,47.529444,21.588889,2026-03-14 19:00:06.612499,9.42,8.27,9.42,9.42,1008,43,2.31,119,2,0.0,Clear,clear sky,18
Sáregres,46.7825,18.588889,2026-03-14 19:00:07.842888,11.15,9.68,11.15,11.15,1006,52,6.75,141,1,0.0,Clear,clear sky,18
Simontornya,46.756582,18.540674,2026-03-14 19:00:09.077890,11.14,9.69,11.14,11.14,1006,53,6.12,135,3,0.0,Clear,clear sky,18
Tolnanémedi,46.727778,18.475833,2026-03-14 19:00:10.311659,11.25,9.81,11.25,11.25,1006,53,5.86,134,3,0.0,Clear,clear sky,18
Pincehely,46.681389,18.43,2026-03-14 19:00:11.556814,11.19,9.77,11.19,11.19,1005,54,4.86,131,3,0.0,Clear,clear sky,18
Keszőhidegkút-Gyönk,46.597778,18.426111,2026-03-14 19:00:12.789653,11.29,9.88,11.29,11.29,1005,54,4.88,130,1,0.0,Clear,clear sky,18
Szárazd,46.575556,18.420833,2026-03-14 19:00:14.026948,11.35,9.95,11.35,11.35,1005,54,4.89,130,1,0.0,Clear,clear sky,18
Regöly,46.568889,18.396111,2026-03-14 19:00:15.259588,11.35,9.95,11.35,11.35,1005,54,4.89,130,1,0.0,Clear,clear sky,18
Szakály-Hőgyész,46.523611,18.389444,2026-03-14 19:00:16.492541,11.33,9.93,11.33,11.33,1005,54,4.62,128,4,0.0,Clear,clear sky,18
Dúzs,46.493889,18.377222,2026-03-14 19:00:17.735578,11.39,9.99,11.39,11.39,1005,54,4.64,129,5,0.0,Clear,clear sky,18
Csibrák,46.466667,18.336389,2026-03-14 19:00:18.987492,11.5,10.12,11.5,11.5,1005,54,4.41,128,5,0.0,Clear,clear sky,18
Kurd,46.449167,18.319167,2026-03-14 19:00:20.226020,11.17,9.75,11.17,11.17,1005,54,4.44,128,6,0.0,Clear,clear sky,18
Döbrököz,46.418889,18.255,2026-03-14 19:00:21.457256,11.5,10.12,11.5,11.5,1005,54,4.02,128,4,0.0,Clear,clear sky,18
Dombóvár,46.37,18.149722,2026-03-14 19:00:22.707441,11.45,10.09,11.45,11.45,1005,55,3.32,134,0,0.0,Clear,clear sky,18
Dombóvár alsó,46.363889,18.134167,2026-03-14 19:00:23.945620,11.45,10.09,11.45,11.45,1005,55,3.32,134,0,0.0,Clear,clear sky,18
Somoskőújfalu,48.154722,19.815556,2026-03-14 19:00:25.181509,8.57,7.73,8.57,8.57,1008,55,1.78,114,0,0.0,Clear,clear sky,18
Jászfényszaru,47.593056,19.754444,2026-03-14 19:00:26.420945,10.44,8.92,10.44,10.44,1007,53,4.02,142,2,0.0,Clear,clear sky,18
Pusztamonostor,47.564444,19.794167,2026-03-14 19:00:27.674109,10.42,8.9,10.42,10.42,1007,53,4.21,146,3,0.0,Clear,clear sky,18
Jászberény,47.494444,19.893333,2026-03-14 19:00:28.912189,10.42,8.85,10.42,10.42,1007,51,4.78,154,6,0.0,Clear,clear sky,18
Meggyespele,47.441944,19.938889,2026-03-14 19:00:30.151869,10.4,8.8,10.4,10.4,1007,50,4.9,158,7,0.0,Clear,clear sky,18
Portelek,47.418056,19.958889,2026-03-14 19:00:31.388659,10.38,8.78,10.38,10.38,1007,50,5.03,159,8,0.0,Clear,clear sky,18
Jászboldogháza-Jánoshida,47.366944,20.001389,2026-03-14 19:00:32.622962,10.31,8.68,10.31,10.31,1007,49,5.15,160,9,0.0,Clear,clear sky,18
Jászárokszállás,47.635556,19.971111,2026-03-14 19:00:33.864260,10.55,8.99,10.55,10.55,1007,51,3.24,139,3,0.0,Clear,clear sky,18
Jászdózsa,47.563056,20.028056,2026-03-14 19:00:35.099536,10.5,8.91,10.5,10.5,1008,50,3.62,148,4,0.0,Clear,clear sky,18
Jászapáti,47.513611,20.155,2026-03-14 19:00:36.332827,10.34,8.71,10.34,10.34,1008,49,3.74,154,2,0.0,Clear,clear sky,18
Jászkisér,47.456111,20.203333,2026-03-14 19:00:37.587162,10.25,8.58,10.25,10.25,1008,48,4.01,158,2,0.0,Clear,clear sky,18
Jászladány,47.373333,20.159167,2026-03-14 19:00:38.826985,10.24,8.57,10.24,10.24,1008,48,4.67,162,4,0.0,Clear,clear sky,18
Szászberek,47.320556,20.090833,2026-03-14 19:00:40.059339,10.23,8.56,10.23,10.23,1007,48,4.97,164,5,0.0,Clear,clear sky,18
Gyöngyöshalász,47.743056,19.932222,2026-03-14 19:00:41.309926,10.54,9.03,10.54,10.54,1008,53,2.53,118,1,0.0,Clear,clear sky,18
Gyöngyös,47.783056,19.937222,2026-03-14 19:00:42.543007,10.21,8.67,10.21,10.21,1008,53,2.38,118,1,0.0,Clear,clear sky,18
Erdőtelek,47.683333,20.3025,2026-03-14 19:00:43.783545,10.33,8.7,10.33,10.33,1008,49,2.58,147,0,0.0,Clear,clear sky,18
Heves,47.609444,20.306111,2026-03-14 19:00:45.043500,10.25,8.61,10.25,10.25,1008,49,2.97,153,0,0.0,Clear,clear sky,18
Hevesvezekény,47.562222,20.365833,2026-03-14 19:00:46.290730,10.11,8.46,10.11,10.11,1008,49,3.1,158,0,0.0,Clear,clear sky,18
Tarnaszentmiklós,47.546944,20.390833,2026-03-14 19:00:47.530517,10.04,8.38,10.04,10.04,1008,49,3.19,159,0,0.0,Clear,clear sky,18
Kisköre,47.495556,20.481667,2026-03-14 19:00:48.767110,9.48,7.74,9.48,9.48,1008,49,3.25,166,0,0.0,Clear,clear sky,18
Abádszalók,47.455278,20.553056,2026-03-14 19:00:50.009582,9.11,7.29,9.11,9.11,1008,49,3.26,168,0,0.0,Clear,clear sky,18
Kunhegyes,47.376667,20.641111,2026-03-14 19:00:51.261117,9.39,7.64,9.39,9.39,1008,49,3.25,173,0,0.0,Clear,clear sky,18
Kenderes,47.254444,20.686111,2026-03-14 19:00:52.501403,9.59,7.9,9.59,9.59,1008,48,3.2,178,0,0.0,Clear,clear sky,18
Maklár,47.808056,20.404722,2026-03-14 19:00:53.742153,10.35,8.72,10.35,10.35,1008,49,2.44,146,0,0.0,Clear,clear sky,18
Andornaktálya,47.852203,20.402295,2026-03-14 19:00:54.980554,10.24,8.6,10.24,10.24,1008,49,2.24,142,0,0.0,Clear,clear sky,18
Eger,47.891667,20.381667,2026-03-14 19:00:56.221380,10.2,8.56,10.2,10.2,1008,49,2.22,136,0,0.0,Clear,clear sky,18
Egervár,47.908056,20.380556,2026-03-14 19:00:57.465720,10.34,8.71,10.34,10.34,1008,49,2.17,134,0,0.0,Clear,clear sky,18
Eger-Felnémet,47.936667,20.370556,2026-03-14 19:00:58.706551,10.3,8.67,10.3,10.3,1008,49,2.13,133,0,0.0,Clear,clear sky,18
Szarvaskő,47.988611,20.3325,2026-03-14 19:00:59.939461,9.77,8.81,9.77,9.77,1008,48,2.14,130,0,0.0,Clear,clear sky,18
Mónosbél,48.031944,20.33,2026-03-14 19:01:01.181784,9.89,9.01,9.89,9.89,1008,48,2.07,130,0,0.0,Clear,clear sky,18
Bélapátfalva,48.055556,20.340556,2026-03-14 19:01:02.422465,9.64,8.75,9.64,9.64,1008,48,2.03,129,0,0.0,Clear,clear sky,18
Bélapátfalvi Cementgyár,48.058056,20.355,2026-03-14 19:01:03.659843,9.64,8.75,9.64,9.64,1008,48,2.03,129,0,0.0,Clear,clear sky,18
Szilvásvárad,48.11345,20.37919,2026-03-14 19:01:04.900537,9.28,8.53,9.28,9.28,1009,47,1.8,128,0,0.0,Clear,clear sky,18
Hejőkeresztúr,47.960278,20.869444,2026-03-14 19:01:06.138362,10.03,8.37,10.03,10.03,1008,49,2.08,159,0,0.0,Clear,clear sky,18
Tiszaújváros,47.926111,21.030556,2026-03-14 19:01:07.383739,10.08,8.4,10.08,10.08,1008,48,2.82,152,2,0.0,Clear,clear sky,18
Miskolc-Gömöri,48.106667,20.800278,2026-03-14 19:01:08.622426,10.22,8.52,10.22,10.22,1008,47,2.0,163,0,0.0,Clear,clear sky,18
Sajókeresztúr,48.168008,20.774014,2026-03-14 19:01:09.855488,10.24,8.55,10.24,10.24,1008,47,2.05,161,0,0.0,Clear,clear sky,18
Sajóecseg,48.186111,20.766667,2026-03-14 19:01:11.096561,10.32,8.63,10.32,10.32,1008,47,2.1,158,0,0.0,Clear,clear sky,18
Sajószentpéter,48.222222,20.708056,2026-03-14 19:01:12.338297,10.35,8.67,10.35,10.35,1008,47,2.01,156,0,0.0,Clear,clear sky,18
Kazincbarcika,48.264444,20.6275,2026-03-14 19:01:13.576442,10.45,8.8,10.45,10.45,1008,48,1.53,140,0,0.0,Clear,clear sky,18
Sajókaza,48.272778,20.581944,2026-03-14 19:01:14.813613,10.5,8.86,10.5,10.5,1008,48,1.46,136,0,0.0,Clear,clear sky,18
Vadna,48.276389,20.555278,2026-03-14 19:01:16.051110,10.5,8.86,10.5,10.5,1008,48,1.46,136,0,0.0,Clear,clear sky,18
Dubicsány,48.280833,20.504722,2026-03-14 19:01:17.291964,10.59,8.96,10.59,10.59,1008,48,1.34,122,0,0.0,Clear,clear sky,18
Raposka,46.851389,17.412778,2026-03-14 19:01:18.528584,11.61,10.42,11.61,11.61,1004,61,2.72,156,10,0.0,Clear,clear sky,18
Ivacs,47.641944,19.273889,2026-03-14 19:01:19.760313,9.89,7.89,9.89,9.89,1006,52,3.94,141,4,0.0,Clear,clear sky,18
Kisköre-Tiszahíd,47.480835,20.507698,2026-03-14 19:01:20.999615,9.38,7.61,9.38,9.38,1008,49,3.28,167,0,0.0,Clear,clear sky,18
Rozsály,47.912778,22.7825,2026-03-14 19:01:22.242814,8.59,6.57,8.59,8.59,1009,35,3.43,121,0,0.0,Clear,clear sky,18
Pusztakettős,47.453611,20.749722,2026-03-14 19:01:23.482088,9.57,7.85,9.57,9.57,1008,49,3.25,172,1,0.0,Clear,clear sky,18
Kisvác,47.795278,19.113611,2026-03-14 19:01:24.715569,10.68,9.21,10.68,10.68,1006,54,3.25,135,3,0.0,Clear,clear sky,18
Tiszafüred-Gyártelep,47.6075,20.736111,2026-03-14 19:01:25.955271,9.91,8.3,9.91,9.91,1008,49,3.18,162,0,0.0,Clear,clear sky,18
Újkenéz,48.251111,22.221667,2026-03-14 19:01:27.193215,9.35,7.44,9.35,9.35,1009,43,3.52,137,0,0.0,Clear,clear sky,18
Püspökladány-Vásártér,47.319167,21.096111,2026-03-14 19:01:28.434012,9.64,8.22,9.64,9.64,1008,46,2.77,177,11,0.0,Clouds,few clouds,18
Végegyháza alsó,46.3675,20.866944,2026-03-14 19:01:29.683794,8.14,5.37,8.14,8.14,1008,47,4.75,186,8,0.0,Clear,clear sky,18
Orosháza felső,46.553611,20.655278,2026-03-14 19:01:30.920500,8.65,5.89,8.65,8.65,1008,45,5.04,184,3,0.0,Clear,clear sky,18
Ambrózfalva,46.353056,20.740556,2026-03-14 19:01:32.159164,8.41,5.51,8.41,8.41,1008,46,5.22,183,6,0.0,Clear,clear sky,18
Alsónyék,46.199444,18.738056,2026-03-14 19:01:33.392106,11.27,9.78,11.27,11.27,1006,51,6.69,142,15,0.0,Clouds,few clouds,18
Tompapuszta,46.321389,20.966389,2026-03-14 19:01:34.635821,8.0,5.31,8.0,8.0,1008,49,4.49,184,8,0.0,Clear,clear sky,18
Halászlak,46.911879,20.56228,2026-03-14 19:01:35.876492,9.37,7.23,9.37,9.37,1008,47,3.99,181,0,0.0,Clear,clear sky,18
Sirató,46.840556,20.61,2026-03-14 19:01:37.110926,9.17,6.89,9.17,9.17,1008,47,4.19,183,1,0.0,Clear,clear sky,18
Csabacsűd felső,46.829167,20.649167,2026-03-14 19:01:38.345402,9.08,6.85,9.08,9.08,1008,47,4.05,185,1,0.0,Clear,clear sky,18
Orosháza-Üveggyár,46.579979,20.683644,2026-03-14 19:01:39.585152,8.56,5.84,8.56,8.56,1008,46,4.87,186,4,0.0,Clear,clear sky,18
Gyulai városerdő,46.69482,21.32281,2026-03-14 19:01:40.818064,7.87,5.83,7.87,7.87,1009,50,3.2,196,8,0.0,Clear,clear sky,18
Kórógyszentgyörgy,46.564377,20.224998,2026-03-14 19:01:42.053189,9.53,6.58,9.53,9.53,1008,45,6.2,169,0,0.0,Clear,clear sky,18
Kunszállás,46.784444,19.767222,2026-03-14 19:01:43.292977,10.02,8.33,10.02,10.02,1007,48,6.98,159,1,0.0,Clear,clear sky,18
Selymes,46.655321,19.8534,2026-03-14 19:01:44.524827,9.97,6.89,9.97,9.97,1008,47,7.04,160,0,0.0,Clear,clear sky,18
Petőfiszállási tanyák,46.587805,19.874509,2026-03-14 19:01:45.767762,9.94,6.85,9.94,9.94,1008,47,7.05,160,0,0.0,Clear,clear sky,18
Kisteleki szőlők,46.514199,19.92868,2026-03-14 19:01:47.001627,9.84,6.73,9.84,9.84,1008,46,7.0,161,0,0.0,Clear,clear sky,18
Kapitányság,46.435336,19.987564,2026-03-14 19:01:48.239285,9.78,6.67,9.78,9.78,1008,45,6.96,162,0,0.0,Clear,clear sky,18
Őszeszék,46.39025,20.016017,2026-03-14 19:01:49.482654,9.71,6.58,9.71,9.71,1008,45,6.97,162,0,0.0,Clear,clear sky,18
Vilmaszállás,46.366389,20.030833,2026-03-14 19:01:50.723934,9.7,6.55,9.7,9.7,1008,45,7.01,162,0,0.0,Clear,clear sky,18
Jánosszállás,46.334359,20.051199,2026-03-14 19:01:51.967694,9.7,6.54,9.7,9.7,1008,45,7.04,162,0,0.0,Clear,clear sky,18
Felsőpakony,47.343056,19.230556,2026-03-14 19:01:53.201037,10.38,8.81,10.38,10.38,1006,51,5.97,147,11,0.0,Clouds,few clouds,18
Felsőméntelek,46.987074,19.557745,2026-03-14 19:01:54.440760,10.04,8.41,10.04,10.04,1007,50,6.97,155,4,0.0,Clear,clear sky,18
Alsóméntelek,46.961558,19.579121,2026-03-14 19:01:55.683018,10.04,8.41,10.04,10.04,1007,50,7.02,155,3,0.0,Clear,clear sky,18
Nagynyír,46.943319,19.585447,2026-03-14 19:01:56.919289,10.04,8.41,10.04,10.04,1007,50,7.07,155,3,0.0,Clear,clear sky,18
Úrihegy,46.917778,19.621389,2026-03-14 19:01:58.156497,10.07,8.41,10.07,10.07,1007,49,7.07,156,2,0.0,Clear,clear sky,18
Miklóstelep,46.913412,19.630913,2026-03-14 19:01:59.396415,10.07,8.41,10.07,10.07,1007,49,7.0,156,2,0.0,Clear,clear sky,18
Tiszajenő alsó,47.016944,20.134444,2026-03-14 19:02:00.648588,10.04,8.33,10.04,10.04,1008,47,5.65,170,3,0.0,Clear,clear sky,18
Óbög,46.987222,20.111111,2026-03-14 19:02:01.887854,10.05,8.34,10.05,10.05,1008,47,5.8,169,3,0.0,Clear,clear sky,18
Árpádszállás,46.866456,19.989163,2026-03-14 19:02:03.126548,9.95,7.08,9.95,9.95,1008,47,6.32,165,3,0.0,Clear,clear sky,18
Tőserdő,46.851111,19.980278,2026-03-14 19:02:04.365704,9.96,7.08,9.96,9.96,1008,47,6.34,164,2,0.0,Clear,clear sky,18
Tiszaalpár felső,46.836256,19.976753,2026-03-14 19:02:05.600327,9.96,7.08,9.96,9.96,1008,47,6.34,164,2,0.0,Clear,clear sky,18
Borsihalom,46.773056,19.92,2026-03-14 19:02:06.840505,9.98,7.04,9.98,9.98,1008,47,6.57,162,1,0.0,Clear,clear sky,18
Petőfiváros,46.725556,19.848611,2026-03-14 19:02:08.079255,10.0,6.97,10.0,10.0,1008,47,6.9,160,0,0.0,Clear,clear sky,18
Csorna,47.601944,17.248889,2026-03-14 19:02:09.322232,12.93,11.82,12.93,12.93,1004,59,3.82,177,52,0.0,Clouds,broken clouds,18
Szorgalmatos,47.986667,21.366389,2026-03-14 19:02:10.567443,9.96,8.58,9.96,9.96,1008,45,2.8,135,3,0.0,Clear,clear sky,18
Fótfürdő,47.6225,19.200556,2026-03-14 19:02:11.807762,10.16,8.56,10.16,10.16,1006,51,3.81,144,4,0.0,Clear,clear sky,18
Fenyveshegy,47.818333,19.068056,2026-03-14 19:02:13.038642,10.89,9.47,10.89,10.89,1006,55,3.09,134,4,0.0,Clear,clear sky,18
Hűvösvölgy,47.541202,18.96351,2026-03-14 19:02:14.281500,9.53,7.56,9.53,9.53,1006,51,3.71,142,6,0.0,Clear,clear sky,18
Hárshegy,47.535318,18.961433,2026-03-14 19:02:15.506383,9.53,7.56,9.53,9.53,1006,51,3.71,142,6,0.0,Clear,clear sky,18
Szépjuhászné,47.528277,18.955246,2026-03-14 19:02:16.748377,9.31,7.18,9.31,9.31,1006,51,3.94,143,6,0.0,Clear,clear sky,18
Jánoshegy,47.51433,18.95047,2026-03-14 19:02:17.995642,9.31,7.18,9.31,9.31,1006,51,3.94,143,6,0.0,Clear,clear sky,18
Virágvölgy,47.505965,18.95876,2026-03-14 19:02:19.240103,9.45,7.24,9.45,9.45,1006,50,4.19,143,6,0.0,Clear,clear sky,18
Csillebérc,47.498196,18.961694,2026-03-14 19:02:20.514901,9.45,7.24,9.45,9.45,1006,50,4.19,143,6,0.0,Clear,clear sky,18
Normafa,47.5,18.970558,2026-03-14 19:02:21.753189,9.45,7.24,9.45,9.45,1006,50,4.19,143,6,0.0,Clear,clear sky,18
Széchenyihegy,47.49413,18.977049,2026-03-14 19:02:22.993277,8.6,6.19,8.6,8.6,1006,50,4.19,145,6,0.0,Clear,clear sky,18
Balatonfőkajár felső,47.031389,18.215278,2026-03-14 19:02:24.232696,11.25,9.89,11.25,11.25,1005,56,3.02,149,6,0.0,Clear,clear sky,18
Piroska,47.148333,20.129722,2026-03-14 19:02:25.465016,10.12,8.41,10.12,10.12,1008,47,5.33,168,4,0.0,Clear,clear sky,18
Somodor,46.4725,17.836667,2026-03-14 19:02:26.700072,11.17,9.83,11.17,11.17,1005,57,2.87,147,55,0.0,Clouds,broken clouds,18
Középmező,45.995833,18.668889,2026-03-14 19:02:27.949159,11.31,9.83,11.31,11.31,1006,51,6.25,135,11,0.0,Clouds,few clouds,18
Jobbágyi,47.828889,19.6875,2026-03-14 19:02:29.191684,10.58,9.1,10.58,10.58,1007,54,3.15,123,1,0.0,Clear,clear sky,18
Ferihegy,47.437222,19.223889,2026-03-14 19:02:30.439700,10.23,8.64,10.23,10.23,1006,51,5.05,147,9,0.0,Clear,clear sky,18
Máriapócs,47.852778,22.019167,2026-03-14 19:02:31.680019,9.22,7.36,9.22,9.22,1009,42,3.38,129,0,0.0,Clear,clear sky,18
Máriaudvar,47.751944,19.165,2026-03-14 19:02:32.916950,10.77,9.31,10.77,10.77,1006,54,3.36,138,2,0.0,Clear,clear sky,18
Nagyberki,46.353333,18.004167,2026-03-14 19:02:34.155398,11.19,9.83,11.19,11.19,1005,56,2.85,146,22,0.0,Clouds,few clouds,18
Badacsonytomaj,46.804722,17.518056,2026-03-14 19:02:35.400302,11.62,10.38,11.62,11.62,1005,59,2.85,145,11,0.0,Clouds,few clouds,18
Badacsony,46.788611,17.506389,2026-03-14 19:02:36.640364,11.63,10.39,11.63,11.63,1005,59,2.88,148,11,0.0,Clouds,few clouds,18
Badacsonylábdihegy,46.793889,17.470833,2026-03-14 19:02:37.877836,11.63,10.39,11.63,11.63,1005,59,2.88,148,11,0.0,Clouds,few clouds,18
Badacsonytördemic-Szigliget,46.809722,17.469167,2026-03-14 19:02:39.110711,11.64,10.4,11.64,11.64,1005,59,2.82,147,11,0.0,Clouds,few clouds,18
Nemesgulács-Kisapáti,46.836944,17.476389,2026-03-14 19:02:40.357544,11.68,10.44,11.68,11.68,1004,59,2.77,145,11,0.0,Clouds,few clouds,18
Tapolca,46.877778,17.428611,2026-03-14 19:02:41.590114,11.6,10.41,11.6,11.6,1004,61,2.7,155,11,0.0,Clouds,few clouds,18
Uzsabánya alsó,46.898333,17.345278,2026-03-14 19:02:42.827409,10.51,9.21,10.51,10.51,1004,61,2.7,164,12,0.0,Clouds,few clouds,18
Uzsa,46.920278,17.331667,2026-03-14 19:02:44.072991,11.33,10.11,11.33,11.33,1004,61,2.72,164,12,0.0,Clouds,few clouds,18
Sümegi Bazaltbánya,46.9525,17.2925,2026-03-14 19:02:45.318402,11.36,10.17,11.36,11.36,1004,62,2.78,169,14,0.0,Clouds,few clouds,18
Sümeg,46.981111,17.270833,2026-03-14 19:02:46.556494,11.55,10.38,11.55,11.55,1004,62,2.89,179,18,0.0,Clouds,few clouds,18
Gógánfa,47.021111,17.207778,2026-03-14 19:02:47.795475,11.61,10.47,11.61,11.61,1004,63,3.01,183,21,0.0,Clouds,few clouds,18
Ukk,47.041944,17.195833,2026-03-14 19:02:49.040678,11.68,10.55,11.68,11.68,1004,63,3.07,188,25,0.0,Clouds,scattered clouds,18
Nemeskeresztúr,47.093611,17.183611,2026-03-14 19:02:50.275495,11.71,10.58,11.71,11.71,1004,63,3.15,188,27,0.0,Clouds,scattered clouds,18
Jánosháza,47.115833,17.171667,2026-03-14 19:02:51.511985,11.83,10.69,11.83,11.83,1004,62,3.19,188,29,0.0,Clouds,scattered clouds,18
Keszthely,46.758333,17.248056,2026-03-14 19:02:52.744025,11.37,10.21,11.37,11.37,1004,63,2.66,180,18,0.0,Clouds,few clouds,18
Alsógyenes,46.765844,17.276435,2026-03-14 19:02:53.980015,11.43,10.25,11.43,11.43,1004,62,2.71,170,11,0.0,Clouds,few clouds,18
Gyenesdiás,46.763333,17.292778,2026-03-14 19:02:55.212064,11.43,10.25,11.43,11.43,1004,62,2.71,170,11,0.0,Clouds,few clouds,18
Vonyarcvashegy,46.755278,17.318333,2026-03-14 19:02:56.450451,10.89,9.65,10.89,10.89,1004,62,2.74,166,9,0.0,Clear,clear sky,18
Balatongyörök,46.751944,17.354444,2026-03-14 19:02:57.688950,11.5,10.3,11.5,11.5,1004,61,2.77,162,8,0.0,Clear,clear sky,18
Becehegy,46.776111,17.372778,2026-03-14 19:02:58.933967,10.38,9.07,10.38,10.38,1004,61,2.74,161,9,0.0,Clear,clear sky,18
Balatonederics,46.8025,17.385,2026-03-14 19:03:00.176060,10.35,9.03,10.35,10.35,1004,61,2.72,161,10,0.0,Clear,clear sky,18
Dabronc,47.025766,17.167006,2026-03-14 19:03:01.413996,11.63,10.49,11.63,11.63,1004,63,3.03,188,24,0.0,Clouds,few clouds,18
Türje,46.994444,17.093611,2026-03-14 19:03:02.644299,11.52,10.4,11.52,11.52,1004,64,3.0,196,34,0.0,Clouds,scattered clouds,18
Zalabér-Batyk,46.983056,17.040833,2026-03-14 19:03:03.875073,11.53,10.46,11.53,11.53,1004,66,2.92,204,52,0.0,Clouds,broken clouds,18
Pakod,46.959167,16.996667,2026-03-14 19:03:05.113044,11.39,10.31,11.39,11.39,1004,66,2.89,206,58,0.0,Clouds,broken clouds,18
Pókaszepetk,46.924444,16.972222,2026-03-14 19:03:06.363605,11.43,10.35,11.43,11.43,1004,66,2.74,208,60,0.0,Clouds,broken clouds,18
Kemendollár,46.905833,16.946667,2026-03-14 19:03:07.612117,11.1,10.02,11.1,11.1,1004,67,2.7,210,66,0.0,Clouds,broken clouds,18
Zalaegerszeg,46.833056,16.848333,2026-03-14 19:03:08.844412,10.95,9.88,10.95,10.95,1004,68,2.18,216,82,0.0,Clouds,broken clouds,18
Bocfölde,46.780278,16.853611,2026-03-14 19:03:10.087380,11.0,9.93,11.0,11.0,1004,68,2.03,221,82,0.0,Clouds,broken clouds,18
Sárhida,46.755833,16.851389,2026-03-14 19:03:11.331076,10.13,8.97,10.13,10.13,1004,68,1.85,223,84,0.0,Clouds,broken clouds,18
Bak,46.7325,16.849167,2026-03-14 19:03:12.614181,10.51,9.39,10.51,10.51,1004,68,1.75,226,86,0.0,Clouds,overcast clouds,18
Tófej,46.670833,16.801944,2026-03-14 19:03:13.854199,10.25,9.13,10.25,10.25,1004,69,1.49,233,90,0.0,Clouds,overcast clouds,18
Gutorfölde,46.646944,16.739722,2026-03-14 19:03:15.094986,10.44,9.34,10.44,10.44,1004,69,1.29,237,92,0.0,Clouds,overcast clouds,18
Csömödér-Páka,46.608056,16.641111,2026-03-14 19:03:16.341762,10.51,9.42,10.51,10.51,1004,69,1.24,236,98,0.0,Clouds,overcast clouds,18
Iklódbördőce,46.603056,16.604722,2026-03-14 19:03:17.580153,10.32,9.21,10.32,10.32,1004,69,1.44,227,100,0.0,Clouds,overcast clouds,18
Lenti,46.621389,16.528611,2026-03-14 19:03:18.820197,10.5,9.41,10.5,10.5,1004,69,1.79,218,100,0.0,Clouds,overcast clouds,18
Rédics,46.618056,16.471111,2026-03-14 19:03:20.059716,10.49,9.4,10.49,10.49,1004,69,1.91,216,100,0.0,Clouds,overcast clouds,18
Zalalövő,46.845556,16.576389,2026-03-14 19:03:21.300417,10.62,9.51,10.62,10.62,1004,68,2.83,207,98,0.0,Clouds,overcast clouds,18
Zalaegerszeg-Ola,46.849167,16.844722,2026-03-14 19:03:22.536628,10.95,9.88,10.95,10.95,1004,68,2.18,216,82,0.0,Clouds,broken clouds,18
Andráshida,46.863116,16.7792,2026-03-14 19:03:23.769801,10.92,9.84,10.92,10.92,1004,68,2.29,213,85,0.0,Clouds,overcast clouds,18
Bagod,46.875,16.746111,2026-03-14 19:03:25.014351,10.99,9.92,10.99,10.99,1004,68,2.31,210,88,0.0,Clouds,overcast clouds,18
Zalaszentgyörgy,46.872222,16.7125,2026-03-14 19:03:26.248695,10.91,9.83,10.91,10.91,1004,68,2.37,209,90,0.0,Clouds,overcast clouds,18
Zalacséb-Salomvár,46.858056,16.662222,2026-03-14 19:03:27.487939,10.65,9.55,10.65,10.65,1004,68,2.47,208,92,0.0,Clouds,overcast clouds,18
Kópháza,47.631389,16.6375,2026-03-14 19:03:28.733013,12.59,11.39,12.59,12.59,1002,57,6.18,188,100,0.0,Clouds,overcast clouds,18
Nagycenk,47.601111,16.690278,2026-03-14 19:03:29.970845,12.71,11.52,12.71,12.71,1002,57,6.03,188,100,0.0,Clouds,overcast clouds,18
Sopronkövesd,47.548333,16.748056,2026-03-14 19:03:31.201023,12.43,11.22,12.43,12.43,1003,57,5.67,189,100,0.0,Clouds,overcast clouds,18
Lövő,47.509444,16.7775,2026-03-14 19:03:32.449306,12.34,11.14,12.34,12.34,1003,58,5.3,189,98,0.0,Clouds,overcast clouds,18
Újkér,47.457778,16.786667,2026-03-14 19:03:33.696672,12.29,11.09,12.29,12.29,1003,58,5.14,191,98,0.0,Clouds,overcast clouds,18
Bük,47.388611,16.752222,2026-03-14 19:03:34.931877,12.14,10.95,12.14,12.14,1003,59,5.04,195,100,0.0,Clouds,overcast clouds,18
Acsád,47.308333,16.734722,2026-03-14 19:03:36.171491,11.61,10.42,11.61,11.61,1003,61,4.69,198,100,0.0,Clouds,overcast clouds,18
Salköveskút-Vassurány,47.291389,16.704167,2026-03-14 19:03:37.409669,11.58,10.39,11.58,11.58,1003,61,4.56,198,100,0.0,Clouds,overcast clouds,18
Zalaszentiván,46.8875,16.909444,2026-03-14 19:03:38.644558,11.19,10.11,11.19,11.19,1004,67,2.52,212,76,0.0,Clouds,broken clouds,18
Alsónemesapáti,46.854167,16.936389,2026-03-14 19:03:39.899821,11.28,10.21,11.28,11.28,1004,67,2.53,213,69,0.0,Clouds,broken clouds,18
Józsa,47.600833,21.584444,2026-03-14 19:03:41.131625,9.34,7.93,9.34,9.34,1008,43,2.67,121,2,0.0,Clear,clear sky,18
Hajdúszentgyörgy,47.608056,21.578333,2026-03-14 19:03:42.374488,9.34,7.93,9.34,9.34,1008,43,2.67,121,2,0.0,Clear,clear sky,18
Zelemér,47.627778,21.578333,2026-03-14 19:03:43.614651,9.34,7.86,9.34,9.34,1008,43,2.77,122,3,0.0,Clear,clear sky,18
Hajdúböszörmény,47.668056,21.524167,2026-03-14 19:03:44.854610,9.52,8.03,9.52,9.52,1008,43,2.84,129,4,0.0,Clear,clear sky,18
Hajdúvid,47.749444,21.508056,2026-03-14 19:03:46.092955,9.74,8.21,9.74,9.74,1008,44,2.99,133,4,0.0,Clear,clear sky,18
Hajdúdorog,47.805556,21.493056,2026-03-14 19:03:47.334036,9.77,8.2,9.77,9.77,1008,44,3.07,134,3,0.0,Clear,clear sky,18
Hajdúnánás,47.831944,21.426667,2026-03-14 19:03:48.566741,9.92,8.38,9.92,9.92,1008,44,3.06,138,4,0.0,Clear,clear sky,18
Hajdúnánás-Vásártér,47.843056,21.407222,2026-03-14 19:03:49.804519,9.92,8.38,9.92,9.92,1008,44,3.06,138,4,0.0,Clear,clear sky,18
Tedej,47.903611,21.404444,2026-03-14 19:03:51.042764,9.94,8.42,9.94,9.94,1008,44,3.03,137,3,0.0,Clear,clear sky,18
Tiszavasvári,47.945278,21.374722,2026-03-14 19:03:52.280722,9.95,8.46,9.95,9.95,1008,45,2.99,138,4,0.0,Clear,clear sky,18
Egyházerdő,47.9725,21.365,2026-03-14 19:03:53.524294,9.97,8.53,9.97,9.97,1008,45,2.9,137,4,0.0,Clear,clear sky,18
Tiszalök,48.013056,21.369167,2026-03-14 19:03:54.767652,9.95,8.65,9.95,9.95,1008,45,2.67,133,3,0.0,Clear,clear sky,18
Hajnalos,47.998889,21.414167,2026-03-14 19:03:56.004176,9.96,8.6,9.96,9.96,1008,45,2.77,133,2,0.0,Clear,clear sky,18
Kisfástanya,47.989167,21.47,2026-03-14 19:03:57.241231,9.9,8.54,9.9,9.9,1008,44,2.76,131,1,0.0,Clear,clear sky,18
Tiszaeszlár,48.010556,21.491944,2026-03-14 19:03:58.473606,9.91,8.63,9.91,9.91,1008,44,2.63,127,0,0.0,Clear,clear sky,18
Bashalom,48.026111,21.514722,2026-03-14 19:03:59.718880,9.95,8.76,9.95,9.95,1008,44,2.5,125,0,0.0,Clear,clear sky,18
Sáránd,47.415556,21.625,2026-03-14 19:04:00.956993,9.46,8.78,9.46,9.46,1008,43,1.75,120,2,0.0,Clear,clear sky,18
Derecske,47.365,21.584167,2026-03-14 19:04:02.189765,9.48,9.09,9.48,9.48,1008,43,1.47,132,2,0.0,Clear,clear sky,18
Derecske-Vásártér,47.352222,21.58,2026-03-14 19:04:03.428943,9.48,9.09,9.48,9.48,1008,43,1.47,132,2,0.0,Clear,clear sky,18
Konyár,47.323611,21.666111,2026-03-14 19:04:04.670337,9.44,9.44,9.44,9.44,1008,43,1.28,135,1,0.0,Clear,clear sky,18
Konyári Sóstófürdő,47.324167,21.744444,2026-03-14 19:04:05.909159,9.42,9.42,9.42,9.42,1008,43,1.3,125,0,0.0,Clear,clear sky,18
Pocsaj-Esztár,47.288333,21.793056,2026-03-14 19:04:07.147359,9.37,9.37,9.37,9.37,1008,42,1.25,126,0,0.0,Clear,clear sky,18
Kismarja,47.243889,21.813889,2026-03-14 19:04:08.390277,9.35,9.35,9.35,9.35,1008,42,1.17,138,0,0.0,Clear,clear sky,18
Nagykereki,47.191667,21.8,2026-03-14 19:04:09.625547,9.29,9.29,9.29,9.29,1008,42,1.24,149,0,0.0,Clear,clear sky,18
Debrecen-Szabadságtelep,47.527778,21.658611,2026-03-14 19:04:10.864546,9.31,8.06,9.31,9.31,1008,42,2.42,113,1,0.0,Clear,clear sky,18
Kondoroskert,47.525556,21.713889,2026-03-14 19:04:12.106738,9.32,7.95,9.32,9.32,1009,42,2.6,107,0,0.0,Clear,clear sky,18
Nagycsere,47.523889,21.763056,2026-03-14 19:04:13.337714,9.31,7.89,9.31,9.31,1009,42,2.67,105,0,0.0,Clear,clear sky,18
Haláp,47.521667,21.818333,2026-03-14 19:04:14.583199,9.27,7.81,9.27,9.27,1009,42,2.72,105,0,0.0,Clear,clear sky,18
Vámospércs,47.518056,21.893889,2026-03-14 19:04:15.825306,9.2,7.62,9.2,9.2,1009,43,2.89,106,0,0.0,Clear,clear sky,18
Szentannapuszta,47.52,21.965833,2026-03-14 19:04:17.058380,9.19,7.59,9.19,9.19,1009,43,2.92,107,0,0.0,Clear,clear sky,18
Nyírábrány,47.523889,22.016944,2026-03-14 19:04:18.299743,9.16,7.55,9.16,9.16,1009,43,2.92,108,0,0.0,Clear,clear sky,18
Dombostanya,47.602778,21.706389,2026-03-14 19:04:19.545692,9.31,7.79,9.31,9.31,1009,42,2.82,112,1,0.0,Clear,clear sky,18
Hajdúsámson,47.608056,21.755278,2026-03-14 19:04:20.783619,9.29,7.67,9.29,9.29,1009,43,2.98,108,0,0.0,Clear,clear sky,18
Tamásipuszta,47.632778,21.796111,2026-03-14 19:04:22.020748,9.24,7.54,9.24,9.24,1009,43,3.1,109,0,0.0,Clear,clear sky,18
Aradványpuszta,47.662778,21.8425,2026-03-14 19:04:23.270590,9.23,7.48,9.23,9.23,1009,43,3.19,110,0,0.0,Clear,clear sky,18
Nyíradony,47.699444,21.903333,2026-03-14 19:04:24.507388,9.16,7.33,9.16,9.16,1009,44,3.3,116,0,0.0,Clear,clear sky,18
Nyírmihálydi,47.7375,21.958889,2026-03-14 19:04:25.739276,9.14,7.3,9.14,9.14,1009,43,3.3,119,0,0.0,Clear,clear sky,18
Nyírgelse,47.750833,21.987778,2026-03-14 19:04:26.980314,9.07,7.21,9.07,9.07,1009,43,3.31,122,0,0.0,Clear,clear sky,18
Nyírbogát,47.793056,22.066389,2026-03-14 19:04:28.219758,9.1,7.27,9.1,9.1,1009,42,3.28,128,0,0.0,Clear,clear sky,18
Nagykálló,47.871111,21.825833,2026-03-14 19:04:29.459535,9.54,7.75,9.54,9.54,1009,43,3.37,122,0,0.0,Clear,clear sky,18
Kállósemjén,47.854722,21.935,2026-03-14 19:04:30.697034,9.4,7.57,9.4,9.4,1009,43,3.4,124,0,0.0,Clear,clear sky,18
Nyírbátor,47.8425,22.131111,2026-03-14 19:04:31.932940,9.04,7.19,9.04,9.04,1009,42,3.28,131,0,0.0,Clear,clear sky,18
Nyírcsászári,47.865556,22.179167,2026-03-14 19:04:33.185342,9.02,7.18,9.02,9.02,1009,41,3.26,133,0,0.0,Clear,clear sky,18
Hodász,47.896111,22.213611,2026-03-14 19:04:34.418637,8.95,7.1,8.95,8.95,1009,40,3.25,135,0,0.0,Clear,clear sky,18
Nyírmeggyes,47.9225,22.256667,2026-03-14 19:04:35.662702,9.02,7.17,9.02,9.02,1009,40,3.29,137,0,0.0,Clear,clear sky,18
Mátészalka,47.951389,22.313333,2026-03-14 19:04:36.899820,9.06,7.2,9.06,9.06,1009,40,3.31,137,0,0.0,Clear,clear sky,18
Kocsord,47.941944,22.375833,2026-03-14 19:04:38.143527,9.07,7.23,9.07,9.07,1009,38,3.29,134,0,0.0,Clear,clear sky,18
Kocsord alsó,47.946389,22.400556,2026-03-14 19:04:39.376723,9.07,7.23,9.07,9.07,1009,38,3.29,134,0,0.0,Clear,clear sky,18
Győrtelek,47.936667,22.424722,2026-03-14 19:04:40.634057,9.04,7.18,9.04,9.04,1009,38,3.3,133,0,0.0,Clear,clear sky,18
Győrtelek alsó,47.921111,22.443333,2026-03-14 19:04:41.865673,8.95,7.07,8.95,8.95,1009,37,3.3,131,0,0.0,Clear,clear sky,18
Ököritófülpös,47.911389,22.495,2026-03-14 19:04:43.120811,8.91,7.01,8.91,8.91,1009,37,3.33,129,0,0.0,Clear,clear sky,18
Porcsalma-Tyukod,47.868056,22.568333,2026-03-14 19:04:44.358973,8.72,6.76,8.72,8.72,1009,36,3.36,125,0,0.0,Clear,clear sky,18
Csenger,47.826111,22.666389,2026-03-14 19:04:45.606836,8.53,6.52,8.53,8.53,1009,35,3.38,121,0,0.0,Clear,clear sky,18
Kisfái,46.888303,19.807366,2026-03-14 19:04:46.843761,10.03,8.34,10.03,10.03,1007,48,6.73,160,3,0.0,Clear,clear sky,18
Nyárlőrinci szőlők,46.8775,19.828333,2026-03-14 19:04:48.079046,10.02,8.33,10.02,10.02,1007,48,6.71,161,3,0.0,Clear,clear sky,18
Nyárlőrinc alsó,46.863889,19.878889,2026-03-14 19:04:49.316612,9.97,7.01,9.97,9.97,1007,48,6.63,161,3,0.0,Clear,clear sky,18
Tiszaug-Tiszahídfő,46.866106,20.052098,2026-03-14 19:04:50.554415,10.02,8.3,10.02,10.02,1008,47,6.24,165,3,0.0,Clear,clear sky,18
Csongrádi úti tanyák,46.690278,19.921667,2026-03-14 19:04:51.794179,9.95,6.96,9.95,9.95,1008,46,6.72,162,0,0.0,Clear,clear sky,18
Kettőshalom,46.689167,20.0225,2026-03-14 19:04:53.034210,9.87,6.93,9.87,9.87,1008,46,6.48,164,0,0.0,Clear,clear sky,18
Csongrád alsó,46.711389,20.126389,2026-03-14 19:04:54.275566,9.82,6.95,9.82,9.82,1008,46,6.21,167,1,0.0,Clear,clear sky,18
Dónát,46.66988,20.368168,2026-03-14 19:04:55.515495,9.38,6.61,9.38,9.38,1008,45,5.56,175,0,0.0,Clear,clear sky,18
Pusztatemplom,46.676667,20.407222,2026-03-14 19:04:56.766032,9.3,6.58,9.3,9.3,1008,45,5.35,177,0,0.0,Clear,clear sky,18
Előhát,47.364722,20.653611,2026-03-14 19:04:58.002389,9.44,7.69,9.44,9.44,1008,49,3.26,174,0,0.0,Clear,clear sky,18
Polgárdi-Tekerespuszta,47.017778,18.297778,2026-03-14 19:04:59.254417,11.17,9.8,11.17,11.17,1005,56,3.6,141,5,0.0,Clear,clear sky,18
Szatina-Kishajmás,46.202778,18.083611,2026-03-14 19:05:00.495632,10.94,9.53,10.94,10.94,1005,55,3.06,134,0,0.0,Clear,clear sky,18
Márok,45.886944,18.499167,2026-03-14 19:05:01.745026,11.08,9.63,11.08,11.08,1006,53,4.95,137,24,0.0,Clouds,few clouds,18
Nagynyárád,45.953333,18.564722,2026-03-14 19:05:02.979926,11.16,9.72,11.16,11.16,1006,53,4.84,135,24,0.0,Clouds,few clouds,18
Szászvár,46.2875,18.369722222222222,2026-03-14 19:05:04.224364,10.98,9.57,10.98,10.98,1006,55,4.75,134,32,0.0,Clouds,scattered clouds,18
Cikó,46.263514,18.557605,2026-03-14 19:05:05.456978,11.13,9.71,11.13,11.13,1006,54,5.84,141,46,0.0,Clouds,scattered clouds,18
Gyöngyfa-Magyarmecske,45.983889,17.958889,2026-03-14 19:05:06.705530,11.37,10.02,11.37,11.37,1005,56,3.95,117,5,0.0,Clear,clear sky,18
Nagyhát,47.581389,21.445,2026-03-14 19:05:07.950321,9.52,8.34,9.52,9.52,1008,44,2.38,133,5,0.0,Clear,clear sky,18
Balmazújváros,47.613889,21.348056,2026-03-14 19:05:09.180918,9.83,8.69,9.83,9.83,1008,45,2.4,143,7,0.0,Clear,clear sky,18
Kónya,47.600833,21.2375,2026-03-14 19:05:10.432272,9.88,8.81,9.88,9.88,1008,45,2.31,150,8,0.0,Clear,clear sky,18
Hortobágy,47.586111,21.154722,2026-03-14 19:05:11.665058,9.91,8.74,9.91,9.91,1008,45,2.46,155,8,0.0,Clear,clear sky,18
Hortobágyi Halastó,47.604167,21.074167,2026-03-14 19:05:12.899605,9.93,8.67,9.93,9.93,1008,46,2.61,157,7,0.0,Clear,clear sky,18
Ohat-Pusztakócs,47.623333,20.951111,2026-03-14 19:05:14.135635,9.96,8.55,9.96,9.96,1008,47,2.85,158,5,0.0,Clear,clear sky,18
Egyek,47.616944,20.883611,2026-03-14 19:05:15.373434,9.98,8.48,9.98,9.98,1008,48,3.01,159,2,0.0,Clear,clear sky,18
Tiszafüred,47.627778,20.756111,2026-03-14 19:05:16.612702,9.96,8.4,9.96,9.96,1008,48,3.12,160,0,0.0,Clear,clear sky,18
Poroszló,47.657778,20.654444,2026-03-14 19:05:17.854334,10.09,8.43,10.09,10.09,1008,49,3.14,160,0,0.0,Clear,clear sky,18
Kétútköz,47.694167,20.565,2026-03-14 19:05:19.087575,10.22,8.58,10.22,10.22,1008,49,2.99,157,0,0.0,Clear,clear sky,18
Egerfarmos,47.711667,20.5225,2026-03-14 19:05:20.327368,10.24,8.6,10.24,10.24,1008,49,2.93,156,0,0.0,Clear,clear sky,18
Piliscsaba,47.638056,18.829722,2026-03-14 19:05:21.559901,9.78,8.24,9.78,9.78,1006,55,3.02,131,6,0.0,Clear,clear sky,18
Pilisjászfalu,47.656111,18.797778,2026-03-14 19:05:22.788965,10.57,9.12,10.57,10.57,1006,55,3.07,130,6,0.0,Clear,clear sky,18
Leányvár,47.687594,18.772553,2026-03-14 19:05:24.026160,10.66,9.24,10.66,10.66,1006,56,2.99,128,6,0.0,Clear,clear sky,18
Dorog,47.723333,18.732778,2026-03-14 19:05:25.258576,11.13,9.76,11.13,11.13,1006,56,2.94,126,5,0.0,Clear,clear sky,18
Esztergom-Kertváros,47.743333,18.719167,2026-03-14 19:05:26.498704,11.25,9.89,11.25,11.25,1005,56,2.92,125,5,0.0,Clear,clear sky,18
Esztergom,47.7775,18.743611,2026-03-14 19:05:27.741106,10.92,9.53,10.92,10.92,1006,56,2.87,125,5,0.0,Clear,clear sky,18
Dunaalmás,47.733056,18.326389,2026-03-14 19:05:28.974441,11.92,10.58,11.92,11.92,1005,54,3.89,132,6,0.0,Clear,clear sky,18
Neszmély,47.734444,18.345278,2026-03-14 19:05:30.206176,11.92,10.58,11.92,11.92,1005,54,3.89,132,6,0.0,Clear,clear sky,18
Süttő,47.761111,18.455,2026-03-14 19:05:31.450603,11.74,10.38,11.74,11.74,1005,54,3.52,131,5,0.0,Clear,clear sky,18
Piszke,47.75307,18.478017,2026-03-14 19:05:32.694021,11.7,10.34,11.7,11.7,1005,54,3.42,131,5,0.0,Clear,clear sky,18
Lábatlan,47.751944,18.513333,2026-03-14 19:05:33.938886,11.62,10.27,11.62,11.62,1005,55,3.33,131,5,0.0,Clear,clear sky,18
Eternitgyár,47.755544,18.530014,2026-03-14 19:05:35.211414,11.62,10.27,11.62,11.62,1005,55,3.33,131,5,0.0,Clear,clear sky,18
Nyergesújfalu felső,47.762222,18.540556,2026-03-14 19:05:36.450024,11.62,10.27,11.62,11.62,1005,55,3.33,131,5,0.0,Clear,clear sky,18
Nyergesújfalu,47.761111,18.561667,2026-03-14 19:05:37.690589,11.5,10.14,11.5,11.5,1005,55,3.24,130,5,0.0,Clear,clear sky,18
Tokod,47.735,18.675,2026-03-14 19:05:38.929303,11.22,9.86,11.22,11.22,1005,56,3.0,127,5,0.0,Clear,clear sky,18
Környe,47.541667,18.330278,2026-03-14 19:05:40.179285,11.37,9.97,11.37,11.37,1005,54,3.98,138,9,0.0,Clear,clear sky,18
Kecskéd alsó,47.519722,18.316667,2026-03-14 19:05:41.419687,11.42,10.03,11.42,11.42,1005,54,3.89,139,10,0.0,Clear,clear sky,18
Oroszlány,47.486944,18.308611,2026-03-14 19:05:42.661671,11.3,9.9,11.3,11.3,1005,54,3.81,139,10,0.0,Clear,clear sky,18
Győrszabadhegy,47.663056,17.648056,2026-03-14 19:05:43.899763,12.79,11.59,12.79,12.79,1004,56,4.02,150,15,0.0,Clouds,few clouds,18
Ménfőcsanak felső,47.638333,17.615,2026-03-14 19:05:45.146821,12.85,11.65,12.85,12.85,1004,56,3.97,151,16,0.0,Clouds,few clouds,18
Gyömöre-Tét,47.501672,17.559596,2026-03-14 19:05:46.380615,12.48,11.22,12.48,12.48,1004,55,3.86,151,7,0.0,Clear,clear sky,18
Szerecseny,47.469167,17.5475,2026-03-14 19:05:47.625447,12.47,11.21,12.47,12.47,1004,55,3.87,150,5,0.0,Clear,clear sky,18
Gecse-Gyarmat,47.456111,17.515,2026-03-14 19:05:48.861862,12.39,11.15,12.39,12.39,1004,56,3.85,152,7,0.0,Clear,clear sky,18
Vaszar,47.4025,17.496389,2026-03-14 19:05:50.101306,12.39,11.12,12.39,12.39,1004,55,3.81,152,6,0.0,Clear,clear sky,18
Pápa,47.340556,17.458889,2026-03-14 19:05:51.339618,12.31,11.06,12.31,12.31,1004,56,3.72,152,6,0.0,Clear,clear sky,18
Mezőlak,47.324722,17.371389,2026-03-14 19:05:52.579553,12.36,11.17,12.36,12.36,1004,58,3.55,164,13,0.0,Clouds,few clouds,18
Mihályháza,47.318889,17.331667,2026-03-14 19:05:53.815757,12.3,11.1,12.3,12.3,1004,58,3.45,168,15,0.0,Clouds,few clouds,18
Vinár,47.306667,17.284722,2026-03-14 19:05:55.048940,12.34,11.17,12.34,12.34,1004,59,3.42,173,19,0.0,Clouds,few clouds,18
Külsővat,47.279167,17.219722,2026-03-14 19:05:56.294565,12.26,11.13,12.26,12.26,1004,61,3.36,184,34,0.0,Clouds,scattered clouds,18
