station_name,station_lat,station_lon,observation_time,temp,feels_like,temp_min,temp_max,pressure,humidity,wind_speed,wind_deg,clouds,precipitation_1h,weather_main,weather_description,collection_hour
Búcsúszentlászló,46.793056,16.932778,2026-03-21 02:29:30.307523,4.21,1.69,4.21,4.21,1015,67,2.83,351,19,0.0,Clouds,few clouds,2
Angyalföld,47.549722,19.09,2026-03-21 02:29:31.504409,5.06,3.66,5.06,5.06,1015,56,1.79,37,99,0.0,Clouds,overcast clouds,2
Felsőjánosfa,46.841389,16.544167,2026-03-21 02:29:32.703501,3.73,1.57,3.73,3.73,1016,72,2.31,7,21,0.0,Clouds,few clouds,2
Pankasz,46.835833,16.496111,2026-03-21 02:29:33.900947,3.38,1.15,3.38,3.38,1015,73,2.32,5,21,0.0,Clouds,few clouds,2
Nagyrákos,46.827222,16.455556,2026-03-21 02:29:35.101857,3.3,1.07,3.3,3.3,1015,73,2.31,3,22,0.0,Clouds,few clouds,2
Őriszentpéter,46.828889,16.415278,2026-03-21 02:29:36.301676,3.37,1.19,3.37,3.37,1015,74,2.27,359,23,0.0,Clouds,few clouds,2
Törökbálint,47.45,18.908611,2026-03-21 02:29:37.507178,4.93,3.63,4.93,4.93,1015,56,1.69,41,99,0.0,Clouds,overcast clouds,2
Bicske alsó,47.486389,18.642778,2026-03-21 02:29:38.709311,4.99,4.99,4.99,4.99,1015,61,1.1,56,100,0.0,Clouds,overcast clouds,2
Bajánsenye,46.818056,16.358056,2026-03-21 02:29:39.914610,3.4,1.14,3.4,3.4,1015,74,2.36,358,21,0.0,Clouds,few clouds,2
Aquincum,47.566218,19.048273,2026-03-21 02:29:41.109685,4.64,3.42,4.64,4.64,1015,58,1.59,36,100,0.0,Clouds,overcast clouds,2
Piliscsév,47.673889,18.791389,2026-03-21 02:29:42.310840,4.77,3.86,4.77,4.77,1015,61,1.37,74,100,0.0,Clouds,overcast clouds,2
Tát,47.741201,18.64783,2026-03-21 02:29:43.509695,5.52,4.07,5.52,5.52,1015,61,1.91,106,98,0.0,Clouds,overcast clouds,2
Süttő felső,47.756667,18.437222,2026-03-21 02:29:44.713149,5.65,4.31,5.65,5.65,1015,61,1.82,123,91,0.0,Clouds,overcast clouds,2
Budatétény,47.405,19.016389,2026-03-21 02:29:45.916814,5.07,3.54,5.07,5.07,1015,55,1.91,46,99,0.0,Clouds,overcast clouds,2
Seregélyes-Szőlőhegy,47.119444,18.612222,2026-03-21 02:29:47.112181,5.25,3.61,5.25,5.25,1015,60,2.05,59,95,0.0,Clouds,overcast clouds,2
Gödöllő-Állami telepek,47.564444,19.375556,2026-03-21 02:29:48.311221,4.73,2.93,4.73,4.73,1015,59,2.12,35,99,0.0,Clouds,overcast clouds,2
Dunakeszi alsó,47.607778,19.128889,2026-03-21 02:29:49.506610,5.07,3.69,5.07,5.07,1015,58,1.78,32,99,0.0,Clouds,overcast clouds,2
Vác-Alsóváros,47.773056,19.149722,2026-03-21 02:29:50.700527,5.34,3.91,5.34,5.34,1015,62,1.86,32,100,0.0,Clouds,overcast clouds,2
Szob alsó,47.816667,18.8725,2026-03-21 02:29:51.894072,5.47,4.1,5.47,5.47,1015,62,1.82,84,100,0.0,Clouds,overcast clouds,2
Zalaszentmihály-Pacsa,46.7225,16.951944,2026-03-21 02:29:53.094419,4.17,1.68,4.17,4.17,1015,66,2.78,352,20,0.0,Clouds,few clouds,2
Pötréte,46.682778,16.9575,2026-03-21 02:29:54.293465,4.14,1.74,4.14,4.14,1015,66,2.67,353,22,0.0,Clouds,few clouds,2
Felsőrajk,46.667222,16.982778,2026-03-21 02:29:55.516379,4.14,1.66,4.14,4.14,1015,66,2.76,353,24,0.0,Clouds,few clouds,2
Gelse,46.600556,16.982778,2026-03-21 02:29:56.717456,4.07,1.74,4.07,4.07,1015,66,2.57,355,31,0.0,Clouds,scattered clouds,2
Őrtilos,46.297778,16.887778,2026-03-21 02:29:57.913473,3.9,1.89,3.9,3.9,1015,70,2.19,333,28,0.0,Clouds,scattered clouds,2
Zákány,46.251944,16.9425,2026-03-21 02:29:59.113498,3.71,1.53,3.71,3.71,1015,69,2.33,343,44,0.0,Clouds,scattered clouds,2
Berzence,46.201389,17.143611,2026-03-21 02:30:00.311975,3.61,1.05,3.61,3.61,1015,65,2.74,3,56,0.0,Clouds,broken clouds,2
Somogyudvarhely,46.163333,17.179722,2026-03-21 02:30:01.510805,3.6,1.07,3.6,3.6,1015,65,2.7,2,54,0.0,Clouds,broken clouds,2
Bélavár,46.122778,17.207778,2026-03-21 02:30:02.708332,3.65,1.23,3.65,3.65,1015,66,2.58,359,49,0.0,Clouds,scattered clouds,2
Vízvár,46.101389,17.239444,2026-03-21 02:30:03.908118,3.55,1.18,3.55,3.55,1015,66,2.5,358,45,0.0,Clouds,scattered clouds,2
Babócsa,46.028359,17.342276,2026-03-21 02:30:05.107570,3.58,1.47,3.58,3.58,1015,67,2.23,2,44,0.0,Clouds,scattered clouds,2
Péterhida-Komlósd,46.006667,17.358056,2026-03-21 02:30:06.317547,3.64,1.73,3.64,3.64,1015,68,2.05,3,47,0.0,Clouds,scattered clouds,2
Barcs,45.951944,17.446944,2026-03-21 02:30:07.516806,3.7,2.41,3.7,3.7,1015,68,1.54,9,60,0.0,Clouds,broken clouds,2
Barcs felső,45.958333,17.486389,2026-03-21 02:30:08.744594,3.65,2.35,3.65,3.65,1015,68,1.54,12,63,0.0,Clouds,broken clouds,2
Középrigóc,45.970556,17.525,2026-03-21 02:30:09.948725,3.6,2.28,3.6,3.6,1015,68,1.55,16,65,0.0,Clouds,broken clouds,2
Darány,45.992222,17.598611,2026-03-21 02:30:11.153546,3.71,1.81,3.71,3.71,1015,67,2.05,29,66,0.0,Clouds,broken clouds,2
Kisdobsza,46.012222,17.668056,2026-03-21 02:30:12.356504,3.83,1.51,3.83,3.83,1015,66,2.5,34,67,0.0,Clouds,broken clouds,2
Nemeske,46.023333,17.705278,2026-03-21 02:30:13.555054,3.88,1.52,3.88,3.88,1015,66,2.56,35,69,0.0,Clouds,broken clouds,2
Molvány,46.035278,17.748611,2026-03-21 02:30:14.756186,3.9,1.32,3.9,3.9,1015,65,2.83,38,72,0.0,Clouds,broken clouds,2
Szigetvár,46.043333,17.801944,2026-03-21 02:30:15.950580,3.9,1.32,3.9,3.9,1015,65,2.83,39,76,0.0,Clouds,broken clouds,2
Nagypeterd,46.039444,17.871667,2026-03-21 02:30:17.157958,3.93,1.39,3.93,3.93,1015,64,2.78,40,83,0.0,Clouds,broken clouds,2
Szentdénes,46.036667,17.926944,2026-03-21 02:30:18.360285,3.86,1.35,3.86,3.86,1015,63,2.73,40,86,0.0,Clouds,overcast clouds,2
Háros,47.412222,19.035,2026-03-21 02:30:19.558360,4.5,2.58,4.5,4.5,1015,54,2.2,46,99,0.0,Clouds,overcast clouds,2
Nagytétény-Diósd,47.398333,18.974444,2026-03-21 02:30:20.758392,4.79,2.94,4.79,4.79,1015,55,2.18,49,99,0.0,Clouds,overcast clouds,2
Érdliget,47.390278,18.937778,2026-03-21 02:30:21.960596,4.7,2.89,4.7,4.7,1015,55,2.13,50,99,0.0,Clouds,overcast clouds,2
Érd felső,47.381111,18.922222,2026-03-21 02:30:23.161428,4.37,2.56,4.37,4.37,1015,56,2.07,50,99,0.0,Clouds,overcast clouds,2
Érd,47.369722,18.900833,2026-03-21 02:30:24.359280,4.53,2.74,4.53,4.53,1015,56,2.08,52,99,0.0,Clouds,overcast clouds,2
Százhalombatta,47.322222,18.899167,2026-03-21 02:30:25.556228,4.56,2.71,4.56,4.56,1015,58,2.14,56,99,0.0,Clouds,overcast clouds,2
Dunai Finomító,47.294444,18.878889,2026-03-21 02:30:26.764414,4.45,2.72,4.45,4.45,1015,58,2.01,58,99,0.0,Clouds,overcast clouds,2
Ercsi,47.247222,18.875278,2026-03-21 02:30:27.962302,4.58,2.81,4.58,4.58,1015,59,2.07,59,100,0.0,Clouds,overcast clouds,2
Iváncsa,47.177778,18.811944,2026-03-21 02:30:29.163449,4.58,2.67,4.58,4.58,1015,60,2.21,60,100,0.0,Clouds,overcast clouds,2
Pusztaszabolcs,47.139722,18.761667,2026-03-21 02:30:30.356538,4.66,2.55,4.66,4.66,1015,60,2.44,59,100,0.0,Clouds,overcast clouds,2
Szabadegyháza,47.082778,18.704167,2026-03-21 02:30:31.560499,4.66,2.33,4.66,4.66,1015,61,2.7,61,98,0.0,Clouds,overcast clouds,2
Sárosd,47.039722,18.660278,2026-03-21 02:30:32.758770,4.71,2.3,4.71,4.71,1015,62,2.81,64,93,0.0,Clouds,overcast clouds,2
Nagylók,46.979444,18.635833,2026-03-21 02:30:33.953005,4.57,1.92,4.57,4.57,1015,63,3.1,63,88,0.0,Clouds,overcast clouds,2
Sárbogárd,46.896944,18.611944,2026-03-21 02:30:35.155704,4.76,2.12,4.76,4.76,1015,64,3.13,61,79,0.0,Clouds,broken clouds,2
Rétszilas,46.814167,18.601389,2026-03-21 02:30:36.350380,4.79,2.25,4.79,4.79,1015,64,3.0,57,73,0.0,Clouds,broken clouds,2
Nagyatád,46.228611,17.354167,2026-03-21 02:30:37.552747,3.72,1.16,3.72,3.72,1015,64,2.76,19,50,0.0,Clouds,scattered clouds,2
Budapest-Keleti,47.500278,19.084167,2026-03-21 02:30:38.753610,4.53,2.72,4.53,4.53,1015,53,2.1,39,100,0.0,Clouds,overcast clouds,2
Ferencváros,47.468611,19.088056,2026-03-21 02:30:39.958918,4.69,2.86,4.69,4.69,1015,53,2.15,41,99,0.0,Clouds,overcast clouds,2
Budapest-Nyugati,47.510833,19.0575,2026-03-21 02:30:41.158271,4.47,2.72,4.47,4.47,1015,53,2.03,36,100,0.0,Clouds,overcast clouds,2
Kőbánya felső,47.491944,19.133889,2026-03-21 02:30:42.352309,4.42,2.45,4.42,4.42,1015,53,2.24,38,99,0.0,Clouds,overcast clouds,2
Rákos,47.488889,19.174722,2026-03-21 02:30:43.551388,4.33,2.31,4.33,4.33,1015,53,2.28,38,99,0.0,Clouds,overcast clouds,2
Rákosrendező,47.525556,19.089444,2026-03-21 02:30:44.758760,4.42,2.57,4.42,4.42,1015,53,2.12,35,100,0.0,Clouds,overcast clouds,2
Zugló,47.511389,19.101389,2026-03-21 02:30:45.954151,4.42,2.57,4.42,4.42,1015,53,2.12,35,100,0.0,Clouds,overcast clouds,2
Mezőtárkány,47.725,20.480278,2026-03-21 02:30:47.148034,6.14,2.71,6.14,6.14,1016,74,5.11,30,100,0.0,Clouds,overcast clouds,2
Istvántelek,47.550278,19.106389,2026-03-21 02:30:48.346428,4.32,2.51,4.32,4.32,1015,53,2.06,33,100,0.0,Clouds,overcast clouds,2
Rákospalota-Újpest,47.565833,19.111944,2026-03-21 02:30:49.541090,4.2,2.44,4.2,4.2,1015,54,2.0,31,100,0.0,Clouds,overcast clouds,2
Kőbánya alsó,47.483056,19.127222,2026-03-21 02:30:50.741554,4.42,2.45,4.42,4.42,1015,53,2.24,38,99,0.0,Clouds,overcast clouds,2
Kőbánya-Kispest,47.463889,19.149444,2026-03-21 02:30:51.935951,4.44,2.42,4.44,4.44,1015,53,2.3,41,99,0.0,Clouds,overcast clouds,2
Pestszentlőrinc,47.454722,19.182778,2026-03-21 02:30:53.134161,4.3,2.15,4.3,4.3,1015,54,2.41,43,99,0.0,Clouds,overcast clouds,2
Kispest,47.448135,19.157552,2026-03-21 02:30:54.332016,4.49,2.42,4.49,4.49,1015,53,2.36,43,99,0.0,Clouds,overcast clouds,2
Újpest,47.558889,19.079722,2026-03-21 02:30:55.533302,4.32,2.62,4.32,4.32,1015,54,1.96,34,100,0.0,Clouds,overcast clouds,2
Pestszentimre felső,47.413611,19.173333,2026-03-21 02:30:56.730914,4.33,2.12,4.33,4.33,1015,55,2.48,46,99,0.0,Clouds,overcast clouds,2
Dunakeszi,47.626111,19.136111,2026-03-21 02:30:57.943606,4.33,2.6,4.33,4.33,1015,56,1.99,28,100,0.0,Clouds,overcast clouds,2
Dunakeszi-Gyártelep,47.643611,19.135,2026-03-21 02:30:59.139394,4.43,2.75,4.43,4.43,1015,58,1.96,27,100,0.0,Clouds,overcast clouds,2
Alsógöd,47.676944,19.134444,2026-03-21 02:31:00.348623,4.52,2.86,4.52,4.52,1015,59,1.95,28,100,0.0,Clouds,overcast clouds,2
Göd,47.687778,19.1375,2026-03-21 02:31:01.544871,4.52,2.86,4.52,4.52,1015,59,1.95,28,100,0.0,Clouds,overcast clouds,2
Felsőgöd,47.705556,19.143333,2026-03-21 02:31:02.745045,4.65,3.0,4.65,4.65,1015,60,1.96,30,100,0.0,Clouds,overcast clouds,2
Sződ-Sződliget,47.728056,19.154722,2026-03-21 02:31:03.970775,4.73,3.05,4.73,4.73,1015,61,2.0,33,100,0.0,Clouds,overcast clouds,2
Vác,47.782778,19.133056,2026-03-21 02:31:05.169997,4.73,2.89,4.73,4.73,1016,63,2.16,40,100,0.0,Clouds,overcast clouds,2
Verőce,47.823889,19.029444,2026-03-21 02:31:06.365548,4.12,2.42,4.12,4.12,1016,64,1.93,66,100,0.0,Clouds,overcast clouds,2
Kismaros,47.8275,19.010278,2026-03-21 02:31:07.565033,3.35,1.56,3.35,3.35,1016,63,1.9,70,100,0.0,Clouds,overcast clouds,2
Nagymaros-Visegrád,47.791389,18.959167,2026-03-21 02:31:08.765032,3.63,2.32,3.63,3.63,1016,62,1.55,69,100,0.0,Clouds,overcast clouds,2
Nagymaros,47.780278,18.952222,2026-03-21 02:31:09.963755,3.63,2.32,3.63,3.63,1016,62,1.55,69,100,0.0,Clouds,overcast clouds,2
Zebegény,47.801389,18.908889,2026-03-21 02:31:11.162881,4.42,2.97,4.42,4.42,1016,63,1.75,78,100,0.0,Clouds,overcast clouds,2
Szob,47.821111,18.861944,2026-03-21 02:31:12.363637,4.4,2.56,4.4,4.4,1016,62,2.11,88,100,0.0,Clouds,overcast clouds,2
Alagimajor,47.601944,19.153889,2026-03-21 02:31:13.558631,4.34,2.57,4.34,4.34,1015,55,2.03,29,100,0.0,Clouds,overcast clouds,2
Fót,47.611389,19.181667,2026-03-21 02:31:14.755917,4.22,2.38,4.22,4.22,1015,56,2.08,27,100,0.0,Clouds,overcast clouds,2
Fótújfalu,47.615,19.192778,2026-03-21 02:31:15.949285,4.22,2.38,4.22,4.22,1015,56,2.08,27,100,0.0,Clouds,overcast clouds,2
Csomád,47.635556,19.222778,2026-03-21 02:31:17.144841,3.53,1.49,3.53,3.53,1015,57,2.16,26,100,0.0,Clouds,overcast clouds,2
Veresegyház,47.649167,19.288611,2026-03-21 02:31:18.337071,4.32,2.22,4.32,4.32,1015,59,2.36,24,99,0.0,Clouds,overcast clouds,2
Erdőkertes,47.662222,19.295833,2026-03-21 02:31:19.536154,4.32,2.22,4.32,4.32,1015,59,2.36,24,99,0.0,Clouds,overcast clouds,2
Őrbottyán,47.685833,19.283611,2026-03-21 02:31:20.734684,4.2,2.03,4.2,4.2,1015,60,2.41,24,99,0.0,Clouds,overcast clouds,2
Váchartyán,47.725833,19.248889,2026-03-21 02:31:21.930228,4.34,2.12,4.34,4.34,1016,61,2.5,27,100,0.0,Clouds,overcast clouds,2
Magyarkút-Verőce,47.826111,19.044444,2026-03-21 02:31:23.129112,4.12,2.42,4.12,4.12,1016,64,1.93,66,100,0.0,Clouds,overcast clouds,2
Szokolya,47.871111,19.030556,2026-03-21 02:31:24.332361,3.57,1.36,3.57,3.57,1016,64,2.34,70,100,0.0,Clouds,overcast clouds,2
Berkenye,47.885278,19.071944,2026-03-21 02:31:25.530168,4.31,2.16,4.31,4.31,1016,64,2.41,66,100,0.0,Clouds,overcast clouds,2
Nógrád,47.901944,19.0475,2026-03-21 02:31:26.726460,3.99,1.66,3.99,3.99,1016,64,2.55,72,100,0.0,Clouds,overcast clouds,2
Diósjenő,47.94,19.049444,2026-03-21 02:31:27.927666,3.69,1.15,3.69,3.69,1016,64,2.73,73,100,0.0,Clouds,overcast clouds,2
Borsosberény,47.971389,19.093056,2026-03-21 02:31:29.127552,4.51,1.76,4.51,4.51,1016,64,3.22,67,100,0.0,Clouds,overcast clouds,2
Nagyoroszi,47.993611,19.101111,2026-03-21 02:31:30.327744,4.43,1.56,4.43,4.43,1016,64,3.36,69,100,0.0,Clouds,overcast clouds,2
Drégelyvár,48.001944,19.079444,2026-03-21 02:31:31.525690,4.71,1.99,4.71,4.71,1016,63,3.24,75,100,0.0,Clouds,overcast clouds,2
Drégely,48.042222,19.056111,2026-03-21 02:31:32.721476,5.15,2.47,5.15,5.15,1016,63,3.31,76,100,0.0,Clouds,overcast clouds,2
Drégelypalánk,48.055,19.046111,2026-03-21 02:31:33.927446,5.32,2.68,5.32,5.32,1016,62,3.3,79,100,0.0,Clouds,overcast clouds,2
Ipolyvece,48.056944,19.106389,2026-03-21 02:31:35.135447,5.35,2.58,5.35,5.35,1016,63,3.51,73,100,0.0,Clouds,overcast clouds,2
Dejtár,48.045556,19.196389,2026-03-21 02:31:36.330728,5.28,2.34,5.28,5.28,1016,63,3.76,68,100,0.0,Clouds,overcast clouds,2
Ipolyszög,48.054444,19.221944,2026-03-21 02:31:37.527543,5.41,2.45,5.41,5.41,1016,63,3.85,67,100,0.0,Clouds,overcast clouds,2
Iklad-Domony,47.658056,19.444444,2026-03-21 02:31:38.735091,4.83,2.73,4.83,4.83,1015,62,2.46,23,99,0.0,Clouds,overcast clouds,2
Iklad-Domony felső,47.667778,19.428056,2026-03-21 02:31:39.930443,4.78,2.63,4.78,4.78,1015,62,2.51,22,99,0.0,Clouds,overcast clouds,2
Galgamácsa,47.693889,19.3925,2026-03-21 02:31:41.132784,4.5,2.26,4.5,4.5,1015,61,2.55,23,99,0.0,Clouds,overcast clouds,2
Vácrátót,47.732778,19.217778,2026-03-21 02:31:42.328888,4.53,2.53,4.53,4.53,1016,61,2.29,29,100,0.0,Clouds,overcast clouds,2
Csörög,47.735833,19.196389,2026-03-21 02:31:43.524850,4.72,2.89,4.72,4.72,1015,61,2.15,31,100,0.0,Clouds,overcast clouds,2
Galgagyörk,47.735278,19.372222,2026-03-21 02:31:44.719036,4.64,2.36,4.64,4.64,1016,62,2.64,25,99,0.0,Clouds,overcast clouds,2
Püspökhatvan,47.768611,19.366944,2026-03-21 02:31:45.922512,4.78,2.35,4.78,4.78,1016,63,2.85,30,99,0.0,Clouds,overcast clouds,2
Acsa-Erdőkürt,47.801111,19.386111,2026-03-21 02:31:47.122189,4.7,2.15,4.7,4.7,1016,64,2.99,33,99,0.0,Clouds,overcast clouds,2
Galgaguta,47.848611,19.385556,2026-03-21 02:31:48.320294,4.54,1.74,4.54,4.54,1016,65,3.3,41,99,0.0,Clouds,overcast clouds,2
Nógrádkövesd,47.879444,19.371111,2026-03-21 02:31:49.524171,4.78,1.92,4.78,4.78,1016,65,3.47,44,99,0.0,Clouds,overcast clouds,2
Magyarnándor,47.970833,19.356667,2026-03-21 02:31:50.723451,4.78,1.64,4.78,4.78,1016,66,3.92,55,100,0.0,Clouds,overcast clouds,2
Mohora,47.995556,19.347778,2026-03-21 02:31:51.932963,4.95,1.79,4.95,4.95,1016,65,4.02,57,100,0.0,Clouds,overcast clouds,2
Szügy,48.036389,19.333056,2026-03-21 02:31:53.138073,5.31,2.17,5.31,5.31,1016,65,4.13,60,100,0.0,Clouds,overcast clouds,2
Balassagyarmat,48.071111,19.293611,2026-03-21 02:31:54.339043,5.41,2.32,5.41,5.41,1016,64,4.08,63,100,0.0,Clouds,overcast clouds,2
Őrhalom,48.078773,19.403936,2026-03-21 02:31:55.534272,5.39,2.34,5.39,5.39,1016,66,3.99,56,100,0.0,Clouds,overcast clouds,2
Hugyag,48.083056,19.421111,2026-03-21 02:31:56.737390,5.39,2.34,5.39,5.39,1016,66,3.99,56,100,0.0,Clouds,overcast clouds,2
Szécsény,48.093056,19.521111,2026-03-21 02:31:57.935693,5.84,3.06,5.84,5.84,1016,69,3.71,53,100,0.0,Clouds,overcast clouds,2
Ludányhalászi,48.1325,19.529444,2026-03-21 02:31:59.130453,5.89,3.2,5.89,5.89,1016,69,3.57,54,100,0.0,Clouds,overcast clouds,2
Nógrádszakál,48.178333,19.521667,2026-03-21 02:32:00.334604,5.87,3.25,5.87,5.87,1016,69,3.46,54,100,0.0,Clouds,overcast clouds,2
Ráróspuszta,48.207222,19.541389,2026-03-21 02:32:01.535883,5.37,2.84,5.37,5.37,1016,70,3.16,54,100,0.0,Clouds,overcast clouds,2
Litke,48.215833,19.598611,2026-03-21 02:32:02.738637,6.0,3.76,6.0,6.0,1016,73,2.93,49,100,0.0,Clouds,overcast clouds,2
Nyíregyháza külső,47.943056,21.740278,2026-03-21 02:32:03.938778,6.15,2.43,6.15,6.15,1015,81,5.81,23,100,0.0,Clouds,overcast clouds,2
Oros,47.945833,21.806389,2026-03-21 02:32:05.132805,6.13,2.45,6.13,6.13,1015,81,5.7,22,100,0.0,Clouds,overcast clouds,2
Napkor,47.948889,21.873056,2026-03-21 02:32:06.330493,6.12,2.58,6.12,6.12,1015,80,5.36,20,100,0.0,Clouds,overcast clouds,2
Apagy,47.953775,21.939044,2026-03-21 02:32:07.533917,6.11,2.64,6.11,6.11,1015,80,5.18,20,100,0.0,Clouds,overcast clouds,2
Levelek-Magy,47.948056,21.993611,2026-03-21 02:32:08.731052,6.04,2.75,6.04,6.04,1015,79,4.76,20,100,0.0,Clouds,overcast clouds,2
Ófehértó,47.940556,22.041389,2026-03-21 02:32:09.932567,5.93,2.75,5.93,5.93,1015,79,4.47,23,100,0.0,Clouds,overcast clouds,2
Ligettanya,47.951667,22.071389,2026-03-21 02:32:11.132414,5.89,2.9,5.89,5.89,1015,79,4.09,21,100,0.0,Clouds,overcast clouds,2
Baktalórántháza,47.988611,22.083333,2026-03-21 02:32:12.326779,5.91,2.89,5.91,5.91,1015,79,4.16,19,100,0.0,Clouds,overcast clouds,2
Vaja-Rohod,48.006389,22.164167,2026-03-21 02:32:13.526836,5.9,3.11,5.9,5.9,1015,79,3.74,19,99,0.0,Clouds,overcast clouds,2
Rákóczitanya,48.022222,22.178333,2026-03-21 02:32:14.722830,5.85,3.18,5.85,5.85,1015,79,3.52,20,99,0.0,Clouds,overcast clouds,2
Nyírmada,48.059167,22.203056,2026-03-21 02:32:15.930309,5.9,3.2,5.9,5.9,1015,80,3.6,15,100,0.0,Clouds,overcast clouds,2
Tunyogmatolcs,47.960244,22.442247,2026-03-21 02:32:17.124836,5.83,3.9,5.83,5.83,1015,76,2.48,46,98,0.0,Clouds,overcast clouds,2
Tunyogmatolcs alsó,47.966025,22.464713,2026-03-21 02:32:18.328911,5.78,3.87,5.78,5.78,1015,75,2.44,48,98,0.0,Clouds,overcast clouds,2
Fehérgyarmat,47.979167,22.524444,2026-03-21 02:32:19.525704,5.74,3.93,5.74,5.74,1015,74,2.32,53,98,0.0,Clouds,overcast clouds,2
Penyige,47.995278,22.566944,2026-03-21 02:32:20.724423,5.71,3.92,5.71,5.71,1015,74,2.29,55,98,0.0,Clouds,overcast clouds,2
Nagyszekeres,47.976111,22.6125,2026-03-21 02:32:21.920762,5.66,3.9,5.66,5.66,1015,73,2.25,58,97,0.0,Clouds,overcast clouds,2
Kisszekeres,47.965833,22.629444,2026-03-21 02:32:23.130929,5.63,3.79,5.63,5.63,1015,73,2.33,60,95,0.0,Clouds,overcast clouds,2
Jánkmajtis,47.941944,22.657222,2026-03-21 02:32:24.326859,5.55,3.65,5.55,5.55,1015,72,2.39,65,92,0.0,Clouds,overcast clouds,2
Gacsály,47.926111,22.745,2026-03-21 02:32:25.523103,5.49,3.65,5.49,5.49,1015,71,2.3,70,91,0.0,Clouds,overcast clouds,2
Zajta,47.9025,22.796111,2026-03-21 02:32:26.727032,5.4,3.5,5.4,5.4,1015,70,2.35,74,90,0.0,Clouds,overcast clouds,2
Eperjeske alsó,48.360556,22.19,2026-03-21 02:32:27.933374,6.0,3.49,6.0,6.0,1016,86,3.32,357,100,0.0,Clouds,overcast clouds,2
Mándok,48.326944,22.196389,2026-03-21 02:32:29.130112,5.98,3.36,5.98,5.98,1016,85,3.49,358,100,0.0,Clouds,overcast clouds,2
Tornyospálca,48.268333,22.201944,2026-03-21 02:32:30.323670,6.01,3.32,6.01,6.01,1016,84,3.62,1,100,0.0,Clouds,overcast clouds,2
Aranyosapáti,48.211303,22.253534,2026-03-21 02:32:31.518041,6.04,3.74,6.04,6.04,1016,82,3.02,8,100,0.0,Clouds,overcast clouds,2
Gyüre,48.171389,22.269167,2026-03-21 02:32:32.718813,6.03,3.72,6.03,6.03,1016,81,3.03,11,100,0.0,Clouds,overcast clouds,2
Varsány,48.151722,22.290047,2026-03-21 02:32:33.917325,6.0,3.81,6.0,6.0,1016,80,2.85,15,100,0.0,Clouds,overcast clouds,2
Vásárosnamény,48.126667,22.306111,2026-03-21 02:32:35.111208,6.01,3.83,6.01,6.01,1016,80,2.84,17,100,0.0,Clouds,overcast clouds,2
Vitka,48.095556,22.308056,2026-03-21 02:32:36.308461,5.99,3.82,5.99,5.99,1015,80,2.82,20,100,0.0,Clouds,overcast clouds,2
Nagydobos,48.054167,22.311111,2026-03-21 02:32:37.507206,5.91,3.73,5.91,5.91,1015,79,2.82,22,100,0.0,Clouds,overcast clouds,2
Ópályi,47.997778,22.318333,2026-03-21 02:32:38.699615,5.85,3.66,5.85,5.85,1015,78,2.81,31,99,0.0,Clouds,overcast clouds,2
Nyírcsaholy,47.908056,22.348333,2026-03-21 02:32:39.901557,5.79,3.65,5.79,5.79,1015,77,2.74,44,93,0.0,Clouds,overcast clouds,2
Nagyecsed,47.864722,22.385556,2026-03-21 02:32:41.097519,5.7,3.57,5.7,5.7,1015,74,2.7,56,86,0.0,Clouds,overcast clouds,2
Tiborszállás,47.815278,22.402778,2026-03-21 02:32:42.295557,5.63,3.42,5.63,5.63,1015,73,2.79,61,79,0.0,Clouds,broken clouds,2
Kiskunhalas,46.434444,19.493611,2026-03-21 02:32:43.489581,5.13,2.35,5.13,5.13,1015,64,3.46,39,73,0.0,Clouds,broken clouds,2
Kecskemét alsó,46.895833,19.692222,2026-03-21 02:32:44.680863,5.06,1.84,5.06,5.06,1015,62,4.17,42,90,0.0,Clouds,overcast clouds,2
Putnok,48.286667,20.4375,2026-03-21 02:32:45.879454,7.4,6.38,7.4,7.4,1017,77,1.78,47,100,0.0,Clouds,overcast clouds,2
Bánréve,48.299722,20.351944,2026-03-21 02:32:47.078568,7.73,6.56,7.73,7.73,1017,76,1.99,44,100,0.0,Clouds,overcast clouds,2
Ipolytarnóc,48.236667,19.629167,2026-03-21 02:32:48.272505,6.03,3.95,6.03,6.03,1016,74,2.72,46,100,0.0,Clouds,overcast clouds,2
Rákosliget,47.486111,19.257778,2026-03-21 02:32:49.475619,4.02,1.84,4.02,4.02,1015,55,2.39,39,99,0.0,Clouds,overcast clouds,2
Ikrény,47.657778,17.524167,2026-03-21 02:32:50.670983,4.9,3.64,4.9,4.9,1015,62,1.65,340,100,0.0,Clouds,overcast clouds,2
Rábapatona,47.648889,17.461944,2026-03-21 02:32:51.865463,5.01,3.63,5.01,5.01,1015,62,1.77,342,99,0.0,Clouds,overcast clouds,2
Enese,47.644167,17.425278,2026-03-21 02:32:53.072529,5.04,3.55,5.04,5.04,1015,62,1.87,341,97,0.0,Clouds,overcast clouds,2
Kóny,47.632222,17.357222,2026-03-21 02:32:54.266291,5.01,3.5,5.01,5.01,1015,62,1.89,339,97,0.0,Clouds,overcast clouds,2
Farád,47.595278,17.195833,2026-03-21 02:32:55.465770,5.05,3.05,5.05,5.05,1015,63,2.4,335,95,0.0,Clouds,overcast clouds,2
Rábatamási,47.592778,17.161389,2026-03-21 02:32:56.675227,5.05,3.05,5.05,5.05,1015,63,2.4,335,95,0.0,Clouds,overcast clouds,2
Szárföld,47.589167,17.123889,2026-03-21 02:32:57.871003,5.05,2.93,5.05,5.05,1015,64,2.53,335,95,0.0,Clouds,overcast clouds,2
Veszkény,47.586944,17.101389,2026-03-21 02:32:59.067740,5.06,2.84,5.06,5.06,1015,64,2.66,336,96,0.0,Clouds,overcast clouds,2
Kapuvár,47.581944,17.046944,2026-03-21 02:33:00.270527,5.0,2.54,5.0,5.0,1015,65,2.96,337,98,0.0,Clouds,overcast clouds,2
Vitnyéd-Csermajor,47.5825,16.987222,2026-03-21 02:33:01.471423,4.98,2.3,4.98,4.98,1015,66,3.26,339,99,0.0,Clouds,overcast clouds,2
Petőháza,47.595278,16.893056,2026-03-21 02:33:02.674566,5.03,1.95,5.03,5.03,1015,66,3.91,342,100,0.0,Clouds,overcast clouds,2
Fertőszentmiklós,47.6,16.858889,2026-03-21 02:33:03.873198,5.0,1.83,5.0,5.0,1015,66,4.05,343,100,0.0,Clouds,overcast clouds,2
Pinnye,47.600278,16.768611,2026-03-21 02:33:05.103442,4.84,1.58,4.84,4.84,1015,65,4.15,342,100,0.0,Clouds,overcast clouds,2
Fertőboz,47.625,16.691667,2026-03-21 02:33:06.294109,4.81,1.59,4.81,4.81,1015,65,4.06,340,100,0.0,Clouds,overcast clouds,2
Sopron,47.677778,16.587222,2026-03-21 02:33:07.489123,4.62,1.78,4.62,4.62,1016,64,3.38,333,100,0.0,Clouds,overcast clouds,2
Fertőszéplak-Fertőd,47.618889,16.850833,2026-03-21 02:33:08.686463,5.1,1.76,5.1,5.1,1015,66,4.4,343,100,0.0,Clouds,overcast clouds,2
Nyúl,47.587778,17.698056,2026-03-21 02:33:09.886371,4.45,4.45,4.45,4.45,1015,63,0.97,309,98,0.0,Clouds,overcast clouds,2
Pannonhalma,47.547778,17.740833,2026-03-21 02:33:11.085432,4.19,4.19,4.19,4.19,1015,62,0.86,267,90,0.0,Clouds,overcast clouds,2
Tarjánpuszta,47.504722,17.789167,2026-03-21 02:33:12.276562,4.23,4.23,4.23,4.23,1015,61,0.84,244,84,0.0,Clouds,broken clouds,2
Győrasszonyfa,47.4925,17.799167,2026-03-21 02:33:13.475534,4.23,4.23,4.23,4.23,1015,61,0.84,244,84,0.0,Clouds,broken clouds,2
Veszprémvarsány,47.443333,17.818333,2026-03-21 02:33:14.673411,4.23,4.23,4.23,4.23,1015,61,0.9,218,78,0.0,Clouds,broken clouds,2
Bakonyszentlászló,47.395556,17.8175,2026-03-21 02:33:15.872910,3.93,3.93,3.93,3.93,1015,61,0.98,198,74,0.0,Clouds,broken clouds,2
Porva-Csesznek,47.326944,17.841111,2026-03-21 02:33:17.080586,2.61,2.61,2.61,2.61,1015,61,1.09,178,71,0.0,Clouds,broken clouds,2
Zirc,47.266667,17.878056,2026-03-21 02:33:18.275550,2.7,2.7,2.7,2.7,1015,61,1.27,153,68,0.0,Clouds,broken clouds,2
Eplény,47.192778,17.921667,2026-03-21 02:33:19.477882,3.16,2.07,3.16,3.16,1015,61,1.35,124,65,0.0,Clouds,broken clouds,2
Marcaltő,47.4275,17.348889,2026-03-21 02:33:20.681041,4.76,3.45,4.76,4.76,1015,64,1.68,348,96,0.0,Clouds,overcast clouds,2
Szany-Rábaszentandrás,47.460833,17.315278,2026-03-21 02:33:21.876961,4.81,3.41,4.81,4.81,1015,64,1.76,342,98,0.0,Clouds,overcast clouds,2
Egyed-Rábacsanak,47.521944,17.316389,2026-03-21 02:33:23.072155,4.86,3.37,4.86,4.86,1015,63,1.85,339,98,0.0,Clouds,overcast clouds,2
Rábapordány,47.557222,17.315,2026-03-21 02:33:24.266302,4.92,3.4,4.92,4.92,1015,63,1.88,338,98,0.0,Clouds,overcast clouds,2
Albertfalva,47.440784,19.033965,2026-03-21 02:33:25.467573,4.7,2.86,4.7,4.7,1015,53,2.16,44,99,0.0,Clouds,overcast clouds,2
Budafok,47.425833,19.041389,2026-03-21 02:33:26.663321,4.5,2.58,4.5,4.5,1015,54,2.2,46,99,0.0,Clouds,overcast clouds,2
Tétényliget,47.384722,18.955278,2026-03-21 02:33:27.863474,4.7,2.89,4.7,4.7,1015,55,2.13,50,99,0.0,Clouds,overcast clouds,2
Érd alsó,47.379722,18.923056,2026-03-21 02:33:29.051334,4.37,2.56,4.37,4.37,1015,56,2.07,50,99,0.0,Clouds,overcast clouds,2
Tárnok,47.365556,18.873889,2026-03-21 02:33:30.249003,4.68,3.06,4.68,4.68,1015,57,1.94,54,99,0.0,Clouds,overcast clouds,2
Martonvásár,47.321389,18.781667,2026-03-21 02:33:31.442185,4.63,3.12,4.63,4.63,1015,59,1.83,58,99,0.0,Clouds,overcast clouds,2
Baracska,47.297222,18.753333,2026-03-21 02:33:32.639729,4.7,3.25,4.7,4.7,1015,59,1.79,59,99,0.0,Clouds,overcast clouds,2
Pettend,47.26,18.708889,2026-03-21 02:33:33.834797,4.58,3.2,4.58,4.58,1015,59,1.71,61,99,0.0,Clouds,overcast clouds,2
Kápolnásnyék,47.245556,18.692222,2026-03-21 02:33:35.029624,4.64,3.25,4.64,4.64,1015,59,1.73,62,98,0.0,Clouds,overcast clouds,2
Velence,47.226944,18.663889,2026-03-21 02:33:36.226494,4.72,3.45,4.72,4.72,1015,59,1.64,64,97,0.0,Clouds,overcast clouds,2
Velencefürdő,47.218611,18.648056,2026-03-21 02:33:37.425349,4.72,3.28,4.72,4.72,1015,59,1.78,64,96,0.0,Clouds,overcast clouds,2
Gárdony,47.205833,18.624722,2026-03-21 02:33:38.627696,4.75,3.42,4.75,4.75,1015,59,1.69,66,95,0.0,Clouds,overcast clouds,2
Agárd,47.197666,18.604907,2026-03-21 02:33:39.824532,4.75,3.42,4.75,4.75,1015,59,1.69,66,95,0.0,Clouds,overcast clouds,2
Dinnyés,47.179722,18.560833,2026-03-21 02:33:41.021696,4.75,3.4,4.75,4.75,1015,60,1.71,71,90,0.0,Clouds,overcast clouds,2
Székesfehérvár,47.183611,18.424722,2026-03-21 02:33:42.220650,4.72,3.81,4.72,4.72,1015,60,1.37,85,85,0.0,Clouds,overcast clouds,2
Szabadbattyán,47.105278,18.388333,2026-03-21 02:33:43.419966,4.65,3.07,4.65,4.65,1015,61,1.9,81,74,0.0,Clouds,broken clouds,2
Kiscséripuszta,47.048056,18.355,2026-03-21 02:33:44.618167,4.43,2.51,4.43,4.43,1015,62,2.19,79,66,0.0,Clouds,broken clouds,2
Lepsény,46.9875,18.248056,2026-03-21 02:33:45.813598,4.63,2.61,4.63,4.63,1015,62,2.33,76,57,0.0,Clouds,broken clouds,2
Balatonaliga,46.984444,18.171389,2026-03-21 02:33:47.017783,4.41,2.49,4.41,4.41,1015,62,2.19,75,53,0.0,Clouds,broken clouds,2
Balatonvilágos,46.964167,18.157222,2026-03-21 02:33:48.216879,4.72,2.8,4.72,4.72,1015,61,2.24,72,51,0.0,Clouds,broken clouds,2
Szabadifürdő,46.926111,18.103333,2026-03-21 02:33:49.414370,4.65,2.67,4.65,4.65,1015,62,2.3,69,48,0.0,Clouds,scattered clouds,2
Ózd alsó,48.227778,20.306111,2026-03-21 02:33:50.614481,7.79,6.28,7.79,7.79,1017,75,2.4,44,100,0.0,Clouds,overcast clouds,2
Ózd,48.2225,20.294722,2026-03-21 02:33:51.810757,7.79,6.28,7.79,7.79,1017,75,2.4,44,100,0.0,Clouds,overcast clouds,2
Alsóboldva,48.212778,20.792222,2026-03-21 02:33:53.012502,6.58,3.66,6.58,6.58,1016,76,4.27,14,100,0.0,Clouds,overcast clouds,2
Boldva,48.223333,20.790278,2026-03-21 02:33:54.223520,6.58,3.66,6.58,6.58,1016,76,4.27,14,100,0.0,Clouds,overcast clouds,2
Borsodszirák,48.259167,20.770556,2026-03-21 02:33:55.422071,6.72,4.3,6.72,6.72,1016,77,3.43,16,100,0.0,Clouds,overcast clouds,2
Edelény alsó,48.279167,20.760833,2026-03-21 02:33:56.613033,6.72,4.3,6.72,6.72,1016,77,3.43,16,100,0.0,Clouds,overcast clouds,2
Edelény,48.299722,20.749444,2026-03-21 02:33:57.810012,6.72,4.44,6.72,6.72,1016,78,3.2,16,100,0.0,Clouds,overcast clouds,2
Szendrőlád,48.334444,20.731944,2026-03-21 02:33:59.008668,5.75,3.81,5.75,5.75,1016,80,2.47,15,100,0.0,Clouds,overcast clouds,2
Szendrő,48.400725,20.721346,2026-03-21 02:34:00.217466,6.69,5.18,6.69,6.69,1016,82,2.17,9,100,0.0,Clouds,overcast clouds,2
Szendrő felső,48.409907,20.720148,2026-03-21 02:34:01.418552,6.69,5.18,6.69,6.69,1016,82,2.17,9,100,0.0,Clouds,overcast clouds,2
Szalonna,48.449444,20.722222,2026-03-21 02:34:02.624399,6.75,5.39,6.75,6.75,1016,84,2.02,3,100,0.0,Clouds,overcast clouds,2
Perkupa,48.471389,20.691111,2026-03-21 02:34:03.821400,6.05,4.91,6.05,6.05,1016,86,1.7,358,100,0.0,Clouds,overcast clouds,2
Szemeretelep,47.443056,19.214167,2026-03-21 02:34:05.021753,4.1,1.87,4.1,4.1,1015,55,2.46,44,99,0.0,Clouds,overcast clouds,2
Jósvafő-Aggtelek,48.489722,20.693889,2026-03-21 02:34:06.217503,6.36,5.21,6.36,6.36,1017,87,1.75,356,100,0.0,Clouds,overcast clouds,2
Bódvaszilas,48.5375,20.738056,2026-03-21 02:34:07.413878,5.97,4.48,5.97,5.97,1017,87,2.02,357,100,0.0,Clouds,overcast clouds,2
Komjáti,48.5475,20.759722,2026-03-21 02:34:08.607493,5.53,3.78,5.53,5.53,1017,88,2.21,358,100,0.0,Clouds,overcast clouds,2
Tornanádaska,48.558333,20.787222,2026-03-21 02:34:09.807868,6.73,5.02,6.73,6.73,1017,87,2.41,0,100,0.0,Clouds,overcast clouds,2
Onga,48.121111,20.906667,2026-03-21 02:34:11.002596,6.26,2.67,6.26,6.26,1016,76,5.56,7,100,0.0,Clouds,overcast clouds,2
Szikszó-Vásártér,48.193056,20.934722,2026-03-21 02:34:12.202824,6.46,3.06,6.46,6.46,1016,77,5.24,12,100,0.0,Clouds,overcast clouds,2
Szikszó,48.201667,20.941667,2026-03-21 02:34:13.396889,6.51,3.12,6.51,6.51,1016,77,5.23,12,100,0.0,Clouds,overcast clouds,2
Aszaló,48.219867,20.961466,2026-03-21 02:34:14.601081,6.43,3.05,6.43,6.43,1016,77,5.18,14,100,0.0,Clouds,overcast clouds,2
Halmaj,48.246667,20.991667,2026-03-21 02:34:15.802497,6.61,3.3,6.61,6.61,1016,78,5.11,16,100,0.0,Clouds,overcast clouds,2
Csobád,48.277222,21.033889,2026-03-21 02:34:17.002716,6.67,3.41,6.67,6.67,1016,79,5.04,18,100,0.0,Clouds,overcast clouds,2
Ináncs,48.291111,21.057778,2026-03-21 02:34:18.202527,6.65,3.51,6.65,6.65,1016,80,4.76,21,100,0.0,Clouds,overcast clouds,2
Forró-Encs,48.3275,21.117778,2026-03-21 02:34:19.397622,6.64,3.57,6.64,6.64,1016,80,4.61,22,100,0.0,Clouds,overcast clouds,2
Méra,48.363056,21.140278,2026-03-21 02:34:20.595630,6.51,3.47,6.51,6.51,1016,81,4.48,23,100,0.0,Clouds,overcast clouds,2
Novajidrány,48.404444,21.170556,2026-03-21 02:34:21.794103,6.75,3.85,6.75,6.75,1016,82,4.31,24,100,0.0,Clouds,overcast clouds,2
Hernádszurdok,48.487222,21.213889,2026-03-21 02:34:23.002880,6.85,4.13,6.85,6.85,1016,83,4.0,20,100,0.0,Clouds,overcast clouds,2
Hidasnémeti,48.508333,21.229722,2026-03-21 02:34:24.208539,6.79,4.04,6.79,6.79,1016,84,4.04,19,100,0.0,Clouds,overcast clouds,2
Mád,48.19,21.268889,2026-03-21 02:34:25.410438,6.11,3.87,6.11,6.11,1016,82,2.95,14,100,0.0,Clouds,overcast clouds,2
Rátka,48.215,21.230278,2026-03-21 02:34:26.606356,6.53,4.24,6.53,6.53,1016,82,3.15,16,100,0.0,Clouds,overcast clouds,2
Tállya,48.226944,21.225278,2026-03-21 02:34:27.803254,6.53,4.24,6.53,6.53,1016,82,3.15,16,100,0.0,Clouds,overcast clouds,2
Golop,48.242778,21.204167,2026-03-21 02:34:29.002046,6.61,3.97,6.61,6.61,1016,81,3.75,18,100,0.0,Clouds,overcast clouds,2
Abaújszántó,48.286944,21.181667,2026-03-21 02:34:30.208541,6.41,3.61,6.41,6.41,1016,81,3.97,22,100,0.0,Clouds,overcast clouds,2
Abaújszántói fürdő,48.268333,21.179722,2026-03-21 02:34:31.403058,6.63,3.94,6.63,6.63,1016,81,3.85,21,100,0.0,Clouds,overcast clouds,2
Abaújkér,48.309444,21.198333,2026-03-21 02:34:32.597514,6.45,3.61,6.45,6.45,1016,82,4.06,23,100,0.0,Clouds,overcast clouds,2
Boldogkőváralja,48.345,21.208889,2026-03-21 02:34:33.790892,6.44,3.84,6.44,6.44,1016,83,3.62,24,100,0.0,Clouds,overcast clouds,2
Korlát-Vizsoly,48.365,21.219167,2026-03-21 02:34:34.990795,6.6,3.98,6.6,6.6,1016,83,3.72,24,100,0.0,Clouds,overcast clouds,2
Fony,48.411389,21.242778,2026-03-21 02:34:36.192187,6.77,4.09,6.77,6.77,1016,83,3.89,23,100,0.0,Clouds,overcast clouds,2
Hejce-Vilmány,48.419444,21.245556,2026-03-21 02:34:37.383782,6.77,4.09,6.77,6.77,1016,83,3.89,23,100,0.0,Clouds,overcast clouds,2
Göncruszka,48.445,21.246944,2026-03-21 02:34:38.584111,6.81,4.1,6.81,6.81,1016,83,3.96,22,100,0.0,Clouds,overcast clouds,2
Gönc,48.470556,21.261389,2026-03-21 02:34:39.786700,6.8,4.19,6.8,6.8,1016,84,3.78,20,100,0.0,Clouds,overcast clouds,2
Zsujta,48.4925,21.265,2026-03-21 02:34:40.988514,6.87,4.25,6.87,6.87,1016,84,3.83,18,100,0.0,Clouds,overcast clouds,2
Bodrogkeresztúr,48.175556,21.354167,2026-03-21 02:34:42.186761,5.68,3.39,5.68,5.68,1016,82,2.91,13,100,0.0,Clouds,overcast clouds,2
Szegi,48.201944,21.387778,2026-03-21 02:34:43.397117,6.16,3.83,6.16,6.16,1016,83,3.1,14,100,0.0,Clouds,overcast clouds,2
Erdőbénye,48.218056,21.401944,2026-03-21 02:34:44.593914,6.48,4.14,6.48,6.48,1016,84,3.22,13,100,0.0,Clouds,overcast clouds,2
Olaszliszka-Tolcsva,48.258333,21.448056,2026-03-21 02:34:45.784896,6.39,4.02,6.39,6.39,1016,85,3.23,11,100,0.0,Clouds,overcast clouds,2
Bodrogolaszi,48.286944,21.512778,2026-03-21 02:34:46.995606,4.96,2.24,4.96,4.96,1016,86,3.31,9,100,0.0,Clouds,overcast clouds,2
Sárospatak,48.325833,21.566111,2026-03-21 02:34:48.190736,6.01,3.22,6.01,6.01,1016,88,3.78,4,100,0.0,Clouds,overcast clouds,2
Sátoraljaújhely,48.385833,21.657778,2026-03-21 02:34:49.397392,4.82,1.77,4.82,4.82,1016,91,3.77,357,100,0.0,Clouds,overcast clouds,2
Vecsés,47.40855,19.25652,2026-03-21 02:34:50.590721,4.11,1.73,4.11,4.11,1015,57,2.63,46,100,0.0,Clouds,overcast clouds,2
Vecsés-Kertekalja,47.403333,19.271389,2026-03-21 02:34:51.784837,4.11,1.73,4.11,4.11,1015,57,2.63,46,100,0.0,Clouds,overcast clouds,2
Üllő,47.390833,19.348889,2026-03-21 02:34:52.982317,4.37,1.88,4.37,4.37,1015,59,2.83,48,100,0.0,Clouds,overcast clouds,2
Monor,47.34545,19.43701,2026-03-21 02:34:54.176911,4.45,1.65,4.45,4.45,1015,62,3.27,52,100,0.0,Clouds,overcast clouds,2
Pilis,47.279722,19.536389,2026-03-21 02:34:55.368063,4.44,1.44,4.44,4.44,1015,63,3.56,53,100,0.0,Clouds,overcast clouds,2
Albertirsa,47.240278,19.606389,2026-03-21 02:34:56.564634,4.54,1.42,4.54,4.54,1015,63,3.79,52,100,0.0,Clouds,overcast clouds,2
Ceglédbercel-Cserő,47.210278,19.686944,2026-03-21 02:34:57.762742,4.64,1.49,4.64,4.64,1015,64,3.88,50,99,0.0,Clouds,overcast clouds,2
Cegléd,47.182778,19.806111,2026-03-21 02:34:58.969273,4.74,1.57,4.74,4.74,1015,64,3.94,47,99,0.0,Clouds,overcast clouds,2
Abony,47.173056,20.016389,2026-03-21 02:35:00.172300,4.83,1.51,4.83,4.83,1015,66,4.25,43,100,0.0,Clouds,overcast clouds,2
Szolnok,47.179167,20.175833,2026-03-21 02:35:01.367848,4.95,1.54,4.95,4.95,1015,67,4.47,40,100,0.0,Clouds,overcast clouds,2
Szajol,47.170556,20.295278,2026-03-21 02:35:02.567517,5.05,1.69,5.05,5.05,1015,68,4.41,38,100,0.0,Clouds,overcast clouds,2
Törökszentmiklós,47.170278,20.413611,2026-03-21 02:35:03.760301,5.2,2.03,5.2,5.2,1015,68,4.13,35,96,0.0,Clouds,overcast clouds,2
Rákoscsaba-Újtelep,47.4875,19.271944,2026-03-21 02:35:04.958399,4.02,1.84,4.02,4.02,1015,55,2.39,39,99,0.0,Clouds,overcast clouds,2
Rákoscsaba,47.492222,19.284722,2026-03-21 02:35:06.166865,4.17,1.99,4.17,4.17,1015,56,2.42,39,99,0.0,Clouds,overcast clouds,2
Pécel,47.493889,19.338889,2026-03-21 02:35:07.370734,4.1,1.88,4.1,4.1,1015,57,2.45,39,100,0.0,Clouds,overcast clouds,2
Isaszeg,47.537719,19.388955,2026-03-21 02:35:08.573561,4.05,1.87,4.05,4.05,1015,58,2.39,33,99,0.0,Clouds,overcast clouds,2
Gödöllő,47.592222,19.358611,2026-03-21 02:35:09.772398,3.99,1.82,3.99,3.99,1015,59,2.37,27,99,0.0,Clouds,overcast clouds,2
Máriabesnyő,47.595556,19.389722,2026-03-21 02:35:10.971655,3.99,1.82,3.99,3.99,1015,59,2.37,27,99,0.0,Clouds,overcast clouds,2
Bag,47.641111,19.471667,2026-03-21 02:35:12.175434,4.83,2.73,4.83,4.83,1015,62,2.46,23,99,0.0,Clouds,overcast clouds,2
Aszód,47.647467,19.492882,2026-03-21 02:35:13.382406,4.77,2.65,4.77,4.77,1015,62,2.47,23,99,0.0,Clouds,overcast clouds,2
Hévízgyörk,47.638611,19.526667,2026-03-21 02:35:14.585236,4.84,2.74,4.84,4.84,1015,62,2.47,24,99,0.0,Clouds,overcast clouds,2
Galgahévíz,47.6325,19.558333,2026-03-21 02:35:15.786781,5.04,2.97,5.04,5.04,1015,63,2.47,26,99,0.0,Clouds,overcast clouds,2
Tura,47.626389,19.5975,2026-03-21 02:35:16.996117,5.04,2.95,5.04,5.04,1015,63,2.5,27,99,0.0,Clouds,overcast clouds,2
Hatvan,47.663611,19.671389,2026-03-21 02:35:18.200546,5.44,3.28,5.44,5.44,1015,63,2.67,26,100,0.0,Clouds,overcast clouds,2
Vámosgyörk,47.686111,19.927778,2026-03-21 02:35:19.393508,5.91,3.65,5.91,5.91,1016,64,2.93,28,100,0.0,Clouds,overcast clouds,2
Adács,47.696389,19.975278,2026-03-21 02:35:20.588577,6.2,3.95,6.2,6.2,1016,64,3.0,28,100,0.0,Clouds,overcast clouds,2
Karácsond,47.718056,20.048611,2026-03-21 02:35:21.790571,6.26,4.01,6.26,6.26,1016,64,3.02,27,100,0.0,Clouds,overcast clouds,2
Ludas,47.723889,20.095556,2026-03-21 02:35:22.992415,6.43,4.29,6.43,6.43,1016,65,2.91,27,100,0.0,Clouds,overcast clouds,2
Nagyút,47.72666666666667,20.161388888888887,2026-03-21 02:35:24.188165,6.37,4.23,6.37,6.37,1016,65,2.89,28,100,0.0,Clouds,overcast clouds,2
Kál-Kápolna,47.734167,20.254167,2026-03-21 02:35:25.389730,6.26,3.88,6.26,6.26,1016,67,3.21,30,100,0.0,Clouds,overcast clouds,2
Füzesabony,47.751389,20.415278,2026-03-21 02:35:26.588566,6.18,3.13,6.18,6.18,1016,72,4.33,31,100,0.0,Clouds,overcast clouds,2
Szihalom,47.766944,20.491944,2026-03-21 02:35:27.789818,6.05,2.76,6.05,6.05,1016,74,4.76,29,100,0.0,Clouds,overcast clouds,2
Mezőkövesd,47.797222,20.5675,2026-03-21 02:35:28.991347,6.03,2.39,6.03,6.03,1016,77,5.53,25,100,0.0,Clouds,overcast clouds,2
Mezőkövesd felső,47.807222,20.591389,2026-03-21 02:35:30.190162,6.03,2.39,6.03,6.03,1016,77,5.53,25,100,0.0,Clouds,overcast clouds,2
Mezőkeresztes-Mezőnyárád,47.845556,20.670278,2026-03-21 02:35:31.392440,5.82,1.84,5.82,5.82,1016,79,6.24,17,100,0.0,Clouds,overcast clouds,2
Csincse,47.890833,20.764167,2026-03-21 02:35:32.593774,5.76,1.58,5.76,5.76,1016,79,6.73,11,100,0.0,Clouds,overcast clouds,2
Emőd,47.930556,20.822778,2026-03-21 02:35:33.791715,5.42,1.17,5.42,5.42,1016,79,6.66,7,100,0.0,Clouds,overcast clouds,2
Nyékládháza,47.9925,20.840556,2026-03-21 02:35:34.998560,5.73,1.65,5.73,5.73,1016,78,6.45,5,100,0.0,Clouds,overcast clouds,2
Miskolc-Tiszai,48.098611,20.811389,2026-03-21 02:35:36.192987,5.96,2.26,5.96,5.96,1016,75,5.63,8,100,0.0,Clouds,overcast clouds,2
Felsőzsolca,48.083611,20.866111,2026-03-21 02:35:37.396659,6.09,2.35,6.09,6.09,1016,76,5.81,6,100,0.0,Clouds,overcast clouds,2
Hernádnémeti-Bőcs,48.051389,20.985,2026-03-21 02:35:38.590340,6.15,2.64,6.15,6.15,1016,78,5.3,3,100,0.0,Clouds,overcast clouds,2
Tiszalúc,48.039722,21.0575,2026-03-21 02:35:39.784154,6.19,3.1,6.19,6.19,1016,79,4.42,359,100,0.0,Clouds,overcast clouds,2
Taktaharkány,48.091667,21.128611,2026-03-21 02:35:40.992621,6.37,3.49,6.37,6.37,1016,79,4.09,3,100,0.0,Clouds,overcast clouds,2
Taktaszada,48.1125,21.149444,2026-03-21 02:35:42.188213,6.42,3.72,6.42,6.42,1016,80,3.79,5,100,0.0,Clouds,overcast clouds,2
Szerencs,48.155556,21.214444,2026-03-21 02:35:43.396646,6.57,4.34,6.57,6.57,1016,81,3.08,12,100,0.0,Clouds,overcast clouds,2
Mezőzombor,48.156944,21.267778,2026-03-21 02:35:44.592791,6.48,4.32,6.48,6.48,1016,81,2.95,12,100,0.0,Clouds,overcast clouds,2
Tarcal,48.125,21.34,2026-03-21 02:35:45.792183,6.5,4.28,6.5,6.5,1016,81,3.04,11,100,0.0,Clouds,overcast clouds,2
Tokaj,48.112778,21.406667,2026-03-21 02:35:47.002003,5.92,3.22,5.92,5.92,1016,81,3.6,15,100,0.0,Clouds,overcast clouds,2
Rakamaz,48.12,21.475,2026-03-21 02:35:48.203832,6.41,3.66,6.41,6.41,1016,82,3.87,16,100,0.0,Clouds,overcast clouds,2
Görögszállás,48.04,21.555,2026-03-21 02:35:49.401566,6.31,3.06,6.31,6.31,1016,82,4.81,21,100,0.0,Clouds,overcast clouds,2
Nyírtelek,48.005,21.615556,2026-03-21 02:35:50.600478,6.25,2.67,6.25,6.25,1016,82,5.52,22,100,0.0,Clouds,overcast clouds,2
Rákoshegy,47.468611,19.245556,2026-03-21 02:35:51.799936,4.02,1.78,4.02,4.02,1015,56,2.46,42,99,0.0,Clouds,overcast clouds,2
Ecser,47.439444,19.318056,2026-03-21 02:35:52.996108,4.14,1.82,4.14,4.14,1015,57,2.57,44,100,0.0,Clouds,overcast clouds,2
Maglód,47.438889,19.340833,2026-03-21 02:35:54.196606,4.08,1.71,4.08,4.08,1015,58,2.62,44,100,0.0,Clouds,overcast clouds,2
Maglódi nyaraló,47.434167,19.363611,2026-03-21 02:35:55.403535,3.93,1.49,3.93,3.93,1015,59,2.67,45,100,0.0,Clouds,overcast clouds,2
Gyömrő,47.429722,19.393333,2026-03-21 02:35:56.599840,3.93,1.49,3.93,3.93,1015,59,2.67,45,100,0.0,Clouds,overcast clouds,2
Mende,47.426944,19.439722,2026-03-21 02:35:57.798806,4.01,1.42,4.01,4.01,1015,61,2.87,47,100,0.0,Clouds,overcast clouds,2
Szőlősnyaraló,47.450278,19.561111,2026-03-21 02:35:58.996249,4.54,2.14,4.54,4.54,1015,63,2.76,46,100,0.0,Clouds,overcast clouds,2
Sülysáp,47.451944,19.5275,2026-03-21 02:36:00.196699,4.4,1.97,4.4,4.4,1015,62,2.76,45,100,0.0,Clouds,overcast clouds,2
Tápiószecső,47.443056,19.614722,2026-03-21 02:36:01.394039,4.64,2.25,4.64,4.64,1016,64,2.77,46,100,0.0,Clouds,overcast clouds,2
Szentmártonkáta,47.431944,19.680556,2026-03-21 02:36:02.594506,4.69,2.3,4.69,4.69,1016,64,2.78,46,100,0.0,Clouds,overcast clouds,2
Nagykáta,47.409722,19.737778,2026-03-21 02:36:03.795194,4.69,2.19,4.69,4.69,1015,64,2.92,48,100,0.0,Clouds,overcast clouds,2
Farmos,47.355278,19.8375,2026-03-21 02:36:04.999361,4.65,1.84,4.65,4.65,1015,65,3.34,49,100,0.0,Clouds,overcast clouds,2
Tápiószele,47.346313,19.873504,2026-03-21 02:36:06.197257,4.58,1.61,4.58,4.58,1015,65,3.56,49,100,0.0,Clouds,overcast clouds,2
Tápiógyörgye,47.325,19.95,2026-03-21 02:36:07.393566,4.79,1.7,4.79,4.79,1015,66,3.84,48,99,0.0,Clouds,overcast clouds,2
Újszász,47.285833,20.066944,2026-03-21 02:36:08.590733,4.96,1.54,4.96,4.96,1015,68,4.49,45,99,0.0,Clouds,overcast clouds,2
Szurdokpüspöki,47.851944,19.690278,2026-03-21 02:36:09.785445,5.94,3.69,5.94,5.94,1016,66,2.92,32,99,0.0,Clouds,overcast clouds,2
Lőrinci,47.739444,19.673611,2026-03-21 02:36:10.979386,5.57,3.34,5.57,5.57,1016,64,2.8,25,99,0.0,Clouds,overcast clouds,2
Selyp,47.759167,19.670833,2026-03-21 02:36:12.173804,5.65,3.4,5.65,5.65,1016,64,2.85,25,99,0.0,Clouds,overcast clouds,2
Apc-Zagyvaszántó,47.791328,19.66822,2026-03-21 02:36:13.381884,5.76,3.5,5.76,5.76,1016,64,2.89,26,99,0.0,Clouds,overcast clouds,2
Pásztó,47.918889,19.688889,2026-03-21 02:36:14.576654,5.92,3.68,5.92,5.92,1016,68,2.91,36,99,0.0,Clouds,overcast clouds,2
Mátraszőlős-Hasznos,47.938506,19.706122,2026-03-21 02:36:15.772613,6.1,3.95,6.1,6.1,1016,69,2.83,37,100,0.0,Clouds,overcast clouds,2
Tar,47.956111,19.746389,2026-03-21 02:36:16.968761,5.83,3.7,5.83,5.83,1016,70,2.73,37,100,0.0,Clouds,overcast clouds,2
Mátraverebély,47.968333,19.778611,2026-03-21 02:36:18.168655,5.83,3.7,5.83,5.83,1016,70,2.73,37,100,0.0,Clouds,overcast clouds,2
Nagybátony,47.981111,19.82,2026-03-21 02:36:19.368763,6.12,4.08,6.12,6.12,1016,71,2.69,38,100,0.0,Clouds,overcast clouds,2
Kisterenye,48.009444,19.831944,2026-03-21 02:36:20.568277,6.29,4.27,6.29,6.29,1016,72,2.7,38,100,0.0,Clouds,overcast clouds,2
Kisterenye-Bányatelep,48.021389,19.831944,2026-03-21 02:36:21.762992,6.29,4.27,6.29,6.29,1016,72,2.7,38,100,0.0,Clouds,overcast clouds,2
Salgótarján külső,48.089444,19.790833,2026-03-21 02:36:22.968298,5.65,3.53,5.65,5.65,1016,74,2.67,43,100,0.0,Clouds,overcast clouds,2
Balatonfenyves GV,46.7125,17.479167,2026-03-21 02:36:24.170917,4.14,2.06,4.14,4.14,1015,60,2.31,44,47,0.0,Clouds,scattered clouds,2
Várhegyalja,47.737778,18.366667,2026-03-21 02:36:25.371540,5.11,5.11,5.11,5.11,1015,59,1.21,107,89,0.0,Clouds,overcast clouds,2
Imremajor,46.680556,17.499722,2026-03-21 02:36:26.572624,4.15,2.09,4.15,4.15,1015,60,2.29,43,43,0.0,Clouds,scattered clouds,2
Rákospalota-Kertváros,47.578333,19.122778,2026-03-21 02:36:27.768859,4.2,2.44,4.2,4.2,1015,54,2.0,31,100,0.0,Clouds,overcast clouds,2
Vicziántelep,47.675833,19.286111,2026-03-21 02:36:28.963536,4.2,2.03,4.2,4.2,1015,60,2.41,24,99,0.0,Clouds,overcast clouds,2
Pálmajor,46.662831,17.457526,2026-03-21 02:36:30.164607,4.05,2.09,4.05,4.05,1015,60,2.17,38,41,0.0,Clouds,scattered clouds,2
Somogyszentpál felső,46.649758,17.471404,2026-03-21 02:36:31.366471,4.11,2.08,4.11,4.11,1015,60,2.25,42,39,0.0,Clouds,scattered clouds,2
Somogyszentpál,46.638611,17.478611,2026-03-21 02:36:32.562472,4.02,2.03,4.02,4.02,1015,60,2.19,40,36,0.0,Clouds,scattered clouds,2
Rudnaykert,47.7175,19.257778,2026-03-21 02:36:33.767658,4.34,2.12,4.34,4.34,1016,61,2.5,27,100,0.0,Clouds,overcast clouds,2
Maroshegy,47.158333,18.406667,2026-03-21 02:36:34.970480,4.7,3.53,4.7,4.7,1015,60,1.56,83,82,0.0,Clouds,broken clouds,2
Bánhida,47.573703,18.371737,2026-03-21 02:36:36.200839,4.57,4.57,4.57,4.57,1015,58,1.14,112,76,0.0,Clouds,broken clouds,2
Magyarkút,47.850278,19.045,2026-03-21 02:36:37.399446,4.18,2.28,4.18,4.18,1016,64,2.13,68,100,0.0,Clouds,overcast clouds,2
Becske alsó,47.897222,19.364722,2026-03-21 02:36:38.613913,4.32,1.26,4.32,4.32,1016,65,3.62,47,99,0.0,Clouds,overcast clouds,2
Hosszúberek-Péteri,47.370556,19.389722,2026-03-21 02:36:39.816716,4.43,1.82,4.43,4.43,1015,60,3.0,50,100,0.0,Clouds,overcast clouds,2
Monorierdő,47.308889,19.499167,2026-03-21 02:36:41.020744,4.43,1.52,4.43,4.43,1015,62,3.42,53,100,0.0,Clouds,overcast clouds,2
Ceglédbercel,47.215833,19.658611,2026-03-21 02:36:42.219455,4.58,1.42,4.58,4.58,1015,63,3.87,51,99,0.0,Clouds,overcast clouds,2
Budai út,47.208333,19.731389,2026-03-21 02:36:43.415719,4.54,1.37,4.54,4.54,1015,64,3.88,49,99,0.0,Clouds,overcast clouds,2
Büdöskútpuszta,48.373056,20.726111,2026-03-21 02:36:44.619573,6.82,5.22,6.82,6.82,1016,81,2.3,12,100,0.0,Clouds,overcast clouds,2
Bánrévei Vízmű,48.282778,20.368333,2026-03-21 02:36:45.821108,7.58,6.46,7.58,7.58,1017,77,1.91,45,100,0.0,Clouds,overcast clouds,2
Rákoskert,47.456389,19.296111,2026-03-21 02:36:47.018275,4.16,1.91,4.16,4.16,1015,56,2.49,42,100,0.0,Clouds,overcast clouds,2
Szirmabesenyő,48.146944,20.783056,2026-03-21 02:36:48.228285,5.7,2.3,5.7,5.7,1016,74,4.81,11,100,0.0,Clouds,overcast clouds,2
Kitérőgyár,47.766944,19.935278,2026-03-21 02:36:49.427492,6.31,3.96,6.31,6.31,1016,65,3.17,25,100,0.0,Clouds,overcast clouds,2
Tápiószentmárton,47.373333,19.797778,2026-03-21 02:36:50.632574,4.55,1.76,4.55,4.55,1015,65,3.29,49,100,0.0,Clouds,overcast clouds,2
Zagyvarékas,47.244229,20.097435,2026-03-21 02:36:51.840969,4.95,1.49,4.95,4.95,1015,68,4.56,43,100,0.0,Clouds,overcast clouds,2
Abonyi út,47.206401,20.125204,2026-03-21 02:36:53.047075,4.92,1.49,4.92,4.92,1015,67,4.5,42,100,0.0,Clouds,overcast clouds,2
Jászkisér felső,47.438056,20.202222,2026-03-21 02:36:54.245447,5.37,2.13,5.37,5.37,1015,69,4.34,44,100,0.0,Clouds,overcast clouds,2
Szellőhát,47.425556,20.188889,2026-03-21 02:36:55.446454,5.31,1.99,5.31,5.31,1015,69,4.47,44,99,0.0,Clouds,overcast clouds,2
Szilvásvárad-Szalajkavölgy,48.0956,20.38272,2026-03-21 02:36:56.642800,5.37,3.04,5.37,5.37,1016,76,2.88,36,100,0.0,Clouds,overcast clouds,2
Vásárosnamény külső,48.084444,22.255556,2026-03-21 02:36:57.836000,5.91,3.6,5.91,5.91,1015,80,3.0,17,100,0.0,Clouds,overcast clouds,2
Újváros,46.660556,20.536111,2026-03-21 02:36:59.033244,5.96,3.22,5.96,5.96,1015,66,3.68,40,54,0.0,Clouds,broken clouds,2
Városi park,46.697778,19.864722,2026-03-21 02:37:00.236670,5.87,2.87,5.87,5.87,1015,63,4.1,34,77,0.0,Clouds,broken clouds,2
Belsőkamaráspuszta,46.341944,20.848889,2026-03-21 02:37:01.433950,6.45,4.48,6.45,6.45,1014,68,2.68,63,18,0.0,Clouds,few clouds,2
Sajószöged,47.945278,20.981667,2026-03-21 02:37:02.629313,6.07,2.46,6.07,6.07,1016,80,5.48,359,100,0.0,Clouds,overcast clouds,2
Kazincbarcika alsó,48.255278,20.649167,2026-03-21 02:37:03.828321,6.62,4.86,6.62,6.62,1016,77,2.45,25,100,0.0,Clouds,overcast clouds,2
Nyárjas,46.857778,19.923611,2026-03-21 02:37:05.023914,5.39,2.35,5.39,5.39,1015,63,3.98,33,84,0.0,Clouds,broken clouds,2
Pogonyipuszta,48.296389,20.381667,2026-03-21 02:37:06.223812,7.58,6.46,7.58,7.58,1017,77,1.91,45,100,0.0,Clouds,overcast clouds,2
Sióvölgy,46.911103,18.076964,2026-03-21 02:37:07.426324,4.69,2.71,4.69,4.69,1015,61,2.3,68,47,0.0,Clouds,scattered clouds,2
Répáspuszta,46.430278,17.847222,2026-03-21 02:37:08.639192,3.73,1.53,3.73,3.73,1015,65,2.36,47,51,0.0,Clouds,broken clouds,2
Virányos,48.066667,21.527222,2026-03-21 02:37:09.841479,6.33,3.14,6.33,6.33,1016,82,4.69,20,100,0.0,Clouds,overcast clouds,2
Füzesbokor,47.988611,21.6475,2026-03-21 02:37:11.042850,6.23,2.58,6.23,6.23,1016,82,5.7,22,100,0.0,Clouds,overcast clouds,2
Kunfehértó,46.355833,19.417222,2026-03-21 02:37:12.241221,4.99,2.2,4.99,4.99,1015,64,3.42,38,69,0.0,Clouds,broken clouds,2
Erdőszél,46.329444,19.395,2026-03-21 02:37:13.440550,4.84,2.04,4.84,4.84,1015,65,3.39,37,68,0.0,Clouds,broken clouds,2
Jánoshalma,46.293056,19.330278,2026-03-21 02:37:14.635965,4.89,2.09,4.89,4.89,1015,65,3.4,37,65,0.0,Clouds,broken clouds,2
Mélykút,46.213056,19.370556,2026-03-21 02:37:15.839768,4.9,2.1,4.9,4.9,1015,64,3.41,37,61,0.0,Clouds,broken clouds,2
Bácsalmás,46.118056,19.346389,2026-03-21 02:37:17.033872,4.83,2.07,4.83,4.83,1015,64,3.33,37,58,0.0,Clouds,broken clouds,2
Almás,46.116216,19.328803,2026-03-21 02:37:18.228336,4.83,2.07,4.83,4.83,1015,64,3.33,37,58,0.0,Clouds,broken clouds,2
Bácsbokod-Bácsborsód,46.115833,19.16,2026-03-21 02:37:19.423945,4.61,1.91,4.61,4.61,1015,64,3.17,37,60,0.0,Clouds,broken clouds,2
Baja,46.187014,18.957602,2026-03-21 02:37:20.630882,4.62,2.07,4.62,4.62,1015,64,2.97,28,62,0.0,Clouds,broken clouds,2
Harkakötöny,46.458333,19.601944,2026-03-21 02:37:21.827989,5.32,2.53,5.32,5.32,1015,64,3.53,37,71,0.0,Clouds,broken clouds,2
Tajó,46.473056,19.650556,2026-03-21 02:37:23.022315,5.38,2.61,5.38,5.38,1015,64,3.52,37,70,0.0,Clouds,broken clouds,2
Kiskunmajsa,46.501667,19.728056,2026-03-21 02:37:24.223006,5.52,2.75,5.52,5.52,1015,64,3.57,36,70,0.0,Clouds,broken clouds,2
Jászszentlászló,46.565833,19.753611,2026-03-21 02:37:25.417987,5.64,2.78,5.64,5.64,1015,64,3.77,36,73,0.0,Clouds,broken clouds,2
Galambos,46.625,19.801111,2026-03-21 02:37:26.616337,5.71,2.77,5.71,5.71,1015,63,3.93,35,75,0.0,Clouds,broken clouds,2
Pestszentimre,47.402222,19.188611,2026-03-21 02:37:27.825786,4.45,2.2,4.45,4.45,1015,55,2.56,48,99,0.0,Clouds,overcast clouds,2
Gyál felső,47.390278,19.204722,2026-03-21 02:37:29.024220,4.34,2.01,4.34,4.34,1015,56,2.63,48,99,0.0,Clouds,overcast clouds,2
Gyál,47.376667,19.219444,2026-03-21 02:37:30.217495,4.34,2.01,4.34,4.34,1015,56,2.63,48,99,0.0,Clouds,overcast clouds,2
Ócsa,47.301389,19.232222,2026-03-21 02:37:31.415013,4.55,2.04,4.55,4.55,1015,59,2.9,53,99,0.0,Clouds,overcast clouds,2
Inárcs-Kakucs,47.247222,19.317778,2026-03-21 02:37:32.616706,4.63,1.84,4.63,4.63,1015,61,3.31,54,100,0.0,Clouds,overcast clouds,2
Dabas,47.194722,19.328889,2026-03-21 02:37:33.825506,4.62,1.67,4.62,4.62,1015,62,3.54,55,99,0.0,Clouds,overcast clouds,2
Gyón,47.178333,19.355556,2026-03-21 02:37:35.033860,4.66,1.69,4.66,4.66,1015,62,3.59,55,99,0.0,Clouds,overcast clouds,2
Hernád,47.161389,19.4025,2026-03-21 02:37:36.231772,4.6,1.44,4.6,4.6,1015,63,3.88,55,98,0.0,Clouds,overcast clouds,2
Bakonygyirót,47.416389,17.811944,2026-03-21 02:37:37.433566,4.28,4.28,4.28,4.28,1015,61,0.83,211,78,0.0,Clouds,broken clouds,2
Vinye,47.360317,17.819635,2026-03-21 02:37:38.629920,3.86,3.86,3.86,3.86,1015,61,1.03,188,73,0.0,Clouds,broken clouds,2
Nemesgörzsöny,47.402924,17.376385,2026-03-21 02:37:39.829503,4.75,3.6,4.75,4.75,1015,64,1.55,348,96,0.0,Clouds,overcast clouds,2
Rábahíd,47.438618,17.337525,2026-03-21 02:37:41.027707,4.79,3.43,4.79,4.79,1015,64,1.72,345,97,0.0,Clouds,overcast clouds,2
Öskü,47.162222,18.076389,2026-03-21 02:37:42.226731,4.34,4.34,4.34,4.34,1015,60,1.3,112,68,0.0,Clouds,broken clouds,2
Márkó,47.1275,17.813889,2026-03-21 02:37:43.432076,3.41,2.19,3.41,3.41,1015,62,1.46,97,65,0.0,Clouds,broken clouds,2
Nemeskocs,47.203333,17.188889,2026-03-21 02:37:44.627552,4.4,2.47,4.4,4.4,1015,65,2.2,5,87,0.0,Clouds,overcast clouds,2
Zalagyömörő,47.011111,17.220833,2026-03-21 02:37:45.832910,4.03,1.96,4.03,4.03,1016,65,2.27,2,85,0.0,Clouds,overcast clouds,2
Rigács,47.061667,17.199167,2026-03-21 02:37:47.036064,4.03,1.98,4.03,4.03,1016,65,2.25,3,85,0.0,Clouds,overcast clouds,2
Kemenespálfa,47.139722,17.183056,2026-03-21 02:37:48.235694,4.23,2.18,4.23,4.23,1016,65,2.29,6,84,0.0,Clouds,broken clouds,2
Lentiszombathely,46.611389,16.5725,2026-03-21 02:37:49.446270,3.1,1.07,3.1,3.1,1016,71,2.08,1,17,0.0,Clouds,few clouds,2
Ortaháza,46.626667,16.685833,2026-03-21 02:37:50.650802,3.03,1.19,3.03,3.03,1016,69,1.9,6,17,0.0,Clouds,few clouds,2
Rádiháza,46.654722,16.765833,2026-03-21 02:37:51.845669,3.04,1.16,3.04,3.04,1016,68,1.93,6,18,0.0,Clouds,few clouds,2
Baktüttös,46.690833,16.826389,2026-03-21 02:37:53.049474,3.19,1.02,3.19,3.19,1015,67,2.23,3,23,0.0,Clouds,few clouds,2
Budafa,46.851667,16.624722,2026-03-21 02:37:54.253455,3.26,1.03,3.26,3.26,1016,69,2.3,10,27,0.0,Clouds,scattered clouds,2
Zalapatakalja,46.845556,16.603889,2026-03-21 02:37:55.457069,3.24,1.01,3.24,3.24,1016,69,2.3,11,29,0.0,Clouds,scattered clouds,2
Tormásliget,47.430556,16.781667,2026-03-21 02:37:56.657525,4.39,1.59,4.39,4.39,1015,65,3.25,347,92,0.0,Clouds,overcast clouds,2
Belecska,46.64,18.411389,2026-03-21 02:37:57.853886,4.61,2.33,4.61,4.61,1015,65,2.63,58,56,0.0,Clouds,broken clouds,2
Almár,47.956111,20.356944,2026-03-21 02:37:59.049896,5.54,2.81,5.54,5.54,1016,75,3.52,26,100,0.0,Clouds,overcast clouds,2
Vasútmúzeum,47.543889,19.099444,2026-03-21 02:38:00.265121,4.32,2.51,4.32,4.32,1015,53,2.06,33,100,0.0,Clouds,overcast clouds,2
Abda,47.690833,17.540556,2026-03-21 02:38:01.464062,5.02,3.6,5.02,5.02,1015,62,1.81,341,100,0.0,Clouds,overcast clouds,2
Vadaspark,47.526111,18.949167,2026-03-21 02:38:02.676285,3.06,1.18,3.06,3.06,1015,54,1.94,40,100,0.0,Clouds,overcast clouds,2
Barosstelep,47.398889,18.989167,2026-03-21 02:38:03.871815,4.79,2.94,4.79,4.79,1015,55,2.18,49,99,0.0,Clouds,overcast clouds,2
Fegyvernek-Örményes,47.194444,20.5575,2026-03-21 02:38:05.069934,5.36,2.38,5.36,5.36,1015,69,3.86,32,92,0.0,Clouds,overcast clouds,2
Zagyvapálfalva,48.068889,19.785,2026-03-21 02:38:06.277014,5.88,3.8,5.88,5.88,1016,73,2.68,42,100,0.0,Clouds,overcast clouds,2
Salgótarján,48.105556,19.807222,2026-03-21 02:38:07.484751,5.22,3.02,5.22,5.22,1016,75,2.67,43,100,0.0,Clouds,overcast clouds,2
Szabadisóstó,46.933889,18.118056,2026-03-21 02:38:08.681494,4.7,2.76,4.7,4.7,1015,61,2.26,70,49,0.0,Clouds,scattered clouds,2
Siófok,46.907778,18.053889,2026-03-21 02:38:09.874964,4.69,2.71,4.69,4.69,1015,61,2.3,68,47,0.0,Clouds,scattered clouds,2
Balatonszéplak felső,46.898056,18.018056,2026-03-21 02:38:11.077240,4.58,2.54,4.58,4.58,1015,61,2.35,68,46,0.0,Clouds,scattered clouds,2
Balatonszéplak alsó,46.891944,17.993333,2026-03-21 02:38:12.279189,4.66,2.59,4.66,4.66,1015,61,2.4,68,46,0.0,Clouds,scattered clouds,2
Zamárdi felső,46.886111,17.969444,2026-03-21 02:38:13.475888,4.66,2.52,4.66,4.66,1015,61,2.48,67,47,0.0,Clouds,scattered clouds,2
Zamárdi,46.88,17.944722,2026-03-21 02:38:14.682967,4.66,2.52,4.66,4.66,1015,61,2.48,67,47,0.0,Clouds,scattered clouds,2
Szántód,46.861944,17.899167,2026-03-21 02:38:15.885407,4.64,2.34,4.64,4.64,1015,61,2.66,67,48,0.0,Clouds,scattered clouds,2
Szőny-Déli,47.735278,18.141944,2026-03-21 02:38:17.082504,5.21,5.21,5.21,5.21,1015,59,0.99,168,90,0.0,Clouds,overcast clouds,2
Várpalota,47.194444,18.149167,2026-03-21 02:38:18.285684,4.1,4.1,4.1,4.1,1015,60,1.1,128,78,0.0,Clouds,broken clouds,2
Pétfürdő,47.1675,18.121389,2026-03-21 02:38:19.480875,4.52,4.52,4.52,4.52,1015,60,1.18,120,74,0.0,Clouds,broken clouds,2
Hajmáskér,47.141111,18.009444,2026-03-21 02:38:20.687594,4.09,4.09,4.09,4.09,1015,60,1.32,113,67,0.0,Clouds,broken clouds,2
Veszprém,47.118889,17.91,2026-03-21 02:38:21.881165,3.99,2.78,3.99,3.99,1015,61,1.51,101,63,0.0,Clouds,broken clouds,2
Herend,47.136944,17.760278,2026-03-21 02:38:23.079837,3.3,2.14,3.3,3.3,1015,62,1.41,96,67,0.0,Clouds,broken clouds,2
Városlőd,47.144167,17.652778,2026-03-21 02:38:24.278649,3.05,3.05,3.05,3.05,1015,62,0.87,94,77,0.0,Clouds,broken clouds,2
Városlőd-Kislőd,47.133889,17.631111,2026-03-21 02:38:25.471853,3.47,3.47,3.47,3.47,1015,62,1.0,88,78,0.0,Clouds,broken clouds,2
Ajka,47.105902,17.572938,2026-03-21 02:38:26.674621,3.81,3.81,3.81,3.81,1015,62,0.81,63,88,0.0,Clouds,overcast clouds,2
Ajka-Gyártelep,47.096806,17.555219,2026-03-21 02:38:27.867594,3.81,3.81,3.81,3.81,1015,62,0.81,63,88,0.0,Clouds,overcast clouds,2
Devecser,47.1125,17.435278,2026-03-21 02:38:29.071384,4.09,4.09,4.09,4.09,1015,62,0.87,27,96,0.0,Clouds,overcast clouds,2
Somlóvásárhely,47.124444,17.369167,2026-03-21 02:38:30.274465,4.14,3.12,4.14,4.14,1016,63,1.39,10,96,0.0,Clouds,overcast clouds,2
Tüskevár,47.128611,17.331389,2026-03-21 02:38:31.470091,4.22,2.94,4.22,4.22,1016,64,1.59,8,95,0.0,Clouds,overcast clouds,2
Karakószörcsök,47.133611,17.287778,2026-03-21 02:38:32.667198,4.24,2.74,4.24,4.24,1016,64,1.77,7,94,0.0,Clouds,overcast clouds,2
Kerta,47.151944,17.237222,2026-03-21 02:38:33.868449,4.34,2.44,4.34,4.34,1016,65,2.16,7,88,0.0,Clouds,overcast clouds,2
Boba,47.183333,17.191389,2026-03-21 02:38:35.065785,4.33,2.36,4.33,4.33,1016,65,2.23,6,86,0.0,Clouds,overcast clouds,2
Börgönd,47.140278,18.515,2026-03-21 02:38:36.266376,4.62,2.87,4.62,4.62,1015,61,2.05,73,86,0.0,Clouds,overcast clouds,2
Belsőbáránd,47.102778,18.499722,2026-03-21 02:38:37.464633,4.56,2.64,4.56,4.56,1015,61,2.21,74,82,0.0,Clouds,broken clouds,2
Zichyújfalu,47.124444,18.6725,2026-03-21 02:38:38.669163,4.6,2.56,4.6,4.6,1015,60,2.35,63,97,0.0,Clouds,overcast clouds,2
Seregélyes,47.121111,18.580556,2026-03-21 02:38:39.871154,4.76,2.97,4.76,4.76,1015,61,2.12,71,88,0.0,Clouds,overcast clouds,2
Polgárdi-Ipartelepek,47.079167,18.314444,2026-03-21 02:38:41.069164,4.28,2.58,4.28,4.28,1015,62,1.95,82,67,0.0,Clouds,broken clouds,2
Polgárdi,47.07,18.284167,2026-03-21 02:38:42.278807,4.28,2.58,4.28,4.28,1015,62,1.95,82,67,0.0,Clouds,broken clouds,2
Füle,47.05,18.255278,2026-03-21 02:38:43.474972,4.25,2.43,4.25,4.25,1015,62,2.06,80,62,0.0,Clouds,broken clouds,2
Zánka-Erzsébettábor,46.8775,17.709167,2026-03-21 02:38:44.670706,4.57,2.11,4.57,4.57,1015,61,2.84,64,63,0.0,Clouds,broken clouds,2
Csajág,47.033889,18.186389,2026-03-21 02:38:45.875601,4.38,2.57,4.38,4.38,1015,61,2.07,78,56,0.0,Clouds,broken clouds,2
Balatonakarattya,47.017222,18.167778,2026-03-21 02:38:47.078929,4.38,2.57,4.38,4.38,1015,61,2.07,78,56,0.0,Clouds,broken clouds,2
Csittényhegy,47.025278,18.1375,2026-03-21 02:38:48.278462,4.62,2.88,4.62,4.62,1015,61,2.04,77,55,0.0,Clouds,broken clouds,2
Balatonkenese,47.0325,18.105556,2026-03-21 02:38:49.473151,4.74,3.05,4.74,4.74,1015,61,2.01,77,55,0.0,Clouds,broken clouds,2
Balatonfűzfő,47.060278,18.0425,2026-03-21 02:38:50.667647,4.51,2.93,4.51,4.51,1015,60,1.88,79,58,0.0,Clouds,broken clouds,2
Balatonalmádi,47.028333,18.015,2026-03-21 02:38:51.870881,4.7,2.98,4.7,4.7,1015,60,2.04,75,56,0.0,Clouds,broken clouds,2
Káptalanfüred,47.008889,18.003889,2026-03-21 02:38:53.075229,3.81,1.78,3.81,3.81,1015,60,2.19,72,54,0.0,Clouds,broken clouds,2
Alsóörs,46.985278,17.974722,2026-03-21 02:38:54.276942,3.81,1.78,3.81,3.81,1015,60,2.19,72,54,0.0,Clouds,broken clouds,2
Csopak,46.974722,17.931111,2026-03-21 02:38:55.477510,4.15,1.97,4.15,4.15,1015,61,2.41,68,54,0.0,Clouds,broken clouds,2
Balatonarács,46.9625,17.8975,2026-03-21 02:38:56.678773,4.15,1.97,4.15,4.15,1015,61,2.41,68,54,0.0,Clouds,broken clouds,2
Balatonfüred,46.955833,17.883056,2026-03-21 02:38:57.874911,4.52,2.3,4.52,4.52,1015,61,2.54,67,55,0.0,Clouds,broken clouds,2
Aszófő,46.925556,17.8325,2026-03-21 02:38:59.073709,4.46,2.12,4.46,4.46,1015,61,2.67,66,55,0.0,Clouds,broken clouds,2
Örvényes,46.9125,17.818056,2026-03-21 02:39:00.270755,4.46,2.12,4.46,4.46,1015,61,2.67,66,55,0.0,Clouds,broken clouds,2
Balatonudvari,46.904722,17.808056,2026-03-21 02:39:01.471355,3.92,1.46,3.92,3.92,1015,61,2.69,66,58,0.0,Clouds,broken clouds,2
Fövenyes,46.893611,17.789444,2026-03-21 02:39:02.673119,4.54,2.11,4.54,4.54,1015,61,2.8,65,57,0.0,Clouds,broken clouds,2
Balatonakali-Dörgicse,46.88,17.747778,2026-03-21 02:39:03.872432,4.16,1.65,4.16,4.16,1015,61,2.8,65,59,0.0,Clouds,broken clouds,2
Zánka-Köveskál,46.872778,17.687778,2026-03-21 02:39:05.089779,4.15,1.68,4.15,4.15,1015,60,2.75,64,65,0.0,Clouds,broken clouds,2
Balatonszepezd,46.851111,17.663056,2026-03-21 02:39:06.290743,4.53,2.05,4.53,4.53,1015,60,2.86,63,62,0.0,Clouds,broken clouds,2
Szepezdfürdő,46.839722,17.649444,2026-03-21 02:39:07.489027,3.46,0.85,3.46,3.46,1015,60,2.76,62,63,0.0,Clouds,broken clouds,2
Révfülöp,46.829167,17.632222,2026-03-21 02:39:08.689613,3.46,0.85,3.46,3.46,1015,60,2.76,62,63,0.0,Clouds,broken clouds,2
Balatonrendes,46.824722,17.582778,2026-03-21 02:39:09.891553,4.02,1.79,4.02,4.02,1015,60,2.44,55,63,0.0,Clouds,broken clouds,2
Ábrahámhegy,46.815,17.572222,2026-03-21 02:39:11.106627,4.02,1.79,4.02,4.02,1015,60,2.44,55,63,0.0,Clouds,broken clouds,2
Badacsonyörs,46.805556,17.531667,2026-03-21 02:39:12.311513,4.21,2.16,4.21,4.21,1015,59,2.29,52,65,0.0,Clouds,broken clouds,2
Kisújszállás,47.223889,20.751111,2026-03-21 02:39:13.513488,5.56,2.66,5.56,5.56,1015,70,3.8,29,87,0.0,Clouds,overcast clouds,2
Karcag,47.303333,20.928056,2026-03-21 02:39:14.712105,5.7,2.71,5.7,5.7,1015,73,4.01,27,94,0.0,Clouds,overcast clouds,2
Püspökladány,47.3275,21.128889,2026-03-21 02:39:15.908041,5.84,2.88,5.84,5.84,1015,74,4.02,25,96,0.0,Clouds,overcast clouds,2
Kaba,47.368889,21.259444,2026-03-21 02:39:17.102159,5.92,3.01,5.92,5.92,1015,74,3.97,23,93,0.0,Clouds,overcast clouds,2
Hajdúszoboszló,47.429444,21.406944,2026-03-21 02:39:18.301294,5.95,2.9,5.95,5.95,1015,74,4.23,27,95,0.0,Clouds,overcast clouds,2
Ebes,47.462778,21.488889,2026-03-21 02:39:19.494982,5.94,2.84,5.94,5.94,1015,74,4.33,29,96,0.0,Clouds,overcast clouds,2
Debrecen,47.520278,21.628611,2026-03-21 02:39:20.688571,5.88,2.7,5.88,5.88,1015,73,4.46,32,93,0.0,Clouds,overcast clouds,2
Debrecen-Csapókert,47.540556,21.648056,2026-03-21 02:39:21.881463,5.79,2.55,5.79,5.79,1015,74,4.54,33,93,0.0,Clouds,overcast clouds,2
Apafa,47.584045,21.655858,2026-03-21 02:39:23.076463,5.78,2.45,5.78,5.78,1015,74,4.7,33,95,0.0,Clouds,overcast clouds,2
Bocskaikert,47.6425,21.666389,2026-03-21 02:39:24.277951,5.7,2.14,5.7,5.7,1015,75,5.16,32,99,0.0,Clouds,overcast clouds,2
Hajdúhadház,47.686944,21.679167,2026-03-21 02:39:25.482258,5.8,2.23,5.8,5.8,1015,76,5.23,31,98,0.0,Clouds,overcast clouds,2
Téglás,47.714722,21.684722,2026-03-21 02:39:26.681866,5.85,2.24,5.85,5.85,1015,76,5.35,31,99,0.0,Clouds,overcast clouds,2
Újfehértó,47.814444,21.706389,2026-03-21 02:39:27.877697,6.06,2.34,6.06,6.06,1015,78,5.74,28,99,0.0,Clouds,overcast clouds,2
Nyíregyháza,47.946667,21.705556,2026-03-21 02:39:29.071296,6.17,2.44,6.17,6.17,1016,81,5.84,24,100,0.0,Clouds,overcast clouds,2
Sóstó,47.998051,21.729047,2026-03-21 02:39:30.277911,6.15,2.43,6.15,6.15,1016,82,5.81,21,100,0.0,Clouds,overcast clouds,2
Sóstóhegy,48.012222,21.742778,2026-03-21 02:39:31.475679,6.24,2.55,6.24,6.24,1016,83,5.79,19,100,0.0,Clouds,overcast clouds,2
Kemecse,48.065556,21.801667,2026-03-21 02:39:32.671636,6.23,2.54,6.23,6.23,1016,83,5.8,16,99,0.0,Clouds,overcast clouds,2
Nyírbogdány,48.082222,21.855278,2026-03-21 02:39:33.864101,6.19,2.49,6.19,6.19,1016,83,5.78,13,99,0.0,Clouds,overcast clouds,2
Kék,48.093333,21.883889,2026-03-21 02:39:35.070628,6.22,2.6,6.22,6.22,1016,83,5.62,12,98,0.0,Clouds,overcast clouds,2
Demecser,48.111667,21.926667,2026-03-21 02:39:36.267404,6.22,2.64,6.22,6.22,1016,83,5.52,10,98,0.0,Clouds,overcast clouds,2
Gégény,48.128333,21.951944,2026-03-21 02:39:37.468391,6.18,2.65,6.18,6.18,1016,83,5.37,8,98,0.0,Clouds,overcast clouds,2
Pátroha,48.158611,21.996667,2026-03-21 02:39:38.673585,6.19,2.74,6.19,6.19,1016,83,5.19,6,99,0.0,Clouds,overcast clouds,2
Ajak,48.1865,22.048972,2026-03-21 02:39:39.878629,6.17,2.82,6.17,6.17,1016,84,4.96,4,99,0.0,Clouds,overcast clouds,2
Kisvárda,48.208333,22.078333,2026-03-21 02:39:41.076844,6.16,3.04,6.16,6.16,1016,84,4.46,2,100,0.0,Clouds,overcast clouds,2
Kisvárda-Hármasút,48.228333,22.091944,2026-03-21 02:39:42.274458,6.16,3.04,6.16,6.16,1016,84,4.46,2,100,0.0,Clouds,overcast clouds,2
Fényeslitke,48.267222,22.107222,2026-03-21 02:39:43.470299,6.08,3.13,6.08,6.08,1016,85,4.1,360,100,0.0,Clouds,overcast clouds,2
Komoró,48.305278,22.118056,2026-03-21 02:39:44.665579,6.1,3.21,6.1,6.1,1016,85,4.01,358,100,0.0,Clouds,overcast clouds,2
Tuzsér,48.342222,22.131667,2026-03-21 02:39:45.858955,6.04,3.25,6.04,6.04,1016,86,3.8,356,100,0.0,Clouds,overcast clouds,2
Tiszabezdéd,48.371389,22.145,2026-03-21 02:39:47.055833,6.03,3.42,6.03,6.03,1016,87,3.49,356,100,0.0,Clouds,overcast clouds,2
Záhony,48.402222,22.183611,2026-03-21 02:39:48.254786,5.99,3.55,5.99,5.99,1016,87,3.21,356,100,0.0,Clouds,overcast clouds,2
Karcag-Vásártér,47.3225,20.9075,2026-03-21 02:39:49.454370,5.7,2.71,5.7,5.7,1015,73,4.01,27,94,0.0,Clouds,overcast clouds,2
Berekfürdő,47.374722,20.827222,2026-03-21 02:39:50.661909,5.7,2.57,5.7,5.7,1015,73,4.27,26,97,0.0,Clouds,overcast clouds,2
Kunmadaras,47.415278,20.793056,2026-03-21 02:39:51.861795,5.73,2.42,5.73,5.73,1015,75,4.65,24,99,0.0,Clouds,overcast clouds,2
Tiszaszentimre,47.490833,20.733056,2026-03-21 02:39:53.061183,5.84,2.19,5.84,5.84,1016,77,5.44,22,100,0.0,Clouds,overcast clouds,2
Tiszaszőlős,47.555556,20.728056,2026-03-21 02:39:54.256726,5.9,2.11,5.9,5.9,1016,78,5.83,22,100,0.0,Clouds,overcast clouds,2
Hosszúhát,47.235556,21.101944,2026-03-21 02:39:55.453327,5.79,2.99,5.79,5.79,1015,74,3.72,22,84,0.0,Clouds,broken clouds,2
Szerep,47.234444,21.145833,2026-03-21 02:39:56.651097,5.82,3.05,5.82,5.82,1015,74,3.68,21,83,0.0,Clouds,broken clouds,2
Sárrétudvari,47.231667,21.180833,2026-03-21 02:39:57.850980,5.83,3.1,5.83,5.83,1015,74,3.62,20,82,0.0,Clouds,broken clouds,2
Biharnagybajom,47.208889,21.221944,2026-03-21 02:39:59.052025,5.85,3.21,5.85,5.85,1015,74,3.48,18,73,0.0,Clouds,broken clouds,2
Füzesgyarmat,47.113056,21.194444,2026-03-21 02:40:00.246009,5.84,3.22,5.84,5.84,1015,73,3.45,19,54,0.0,Clouds,broken clouds,2
Füzesgyarmatfürdő,47.093787,21.201582,2026-03-21 02:40:01.444364,5.84,3.22,5.84,5.84,1015,73,3.45,19,54,0.0,Clouds,broken clouds,2
Báránd,47.299722,21.235278,2026-03-21 02:40:02.638084,5.89,3.09,5.89,5.89,1015,74,3.76,22,89,0.0,Clouds,overcast clouds,2
Sáp,47.259722,21.360556,2026-03-21 02:40:03.836963,5.92,3.3,5.92,5.92,1015,73,3.47,18,74,0.0,Clouds,broken clouds,2
Berettyóújfalu,47.211944,21.535556,2026-03-21 02:40:05.037696,5.97,3.58,5.97,5.97,1015,71,3.13,21,45,0.0,Clouds,scattered clouds,2
Mezőpeterd,47.176111,21.625278,2026-03-21 02:40:06.241606,6.01,3.75,6.01,6.01,1015,69,2.96,24,36,0.0,Clouds,scattered clouds,2
Biharkeresztes,47.135556,21.721389,2026-03-21 02:40:07.440930,6.03,4.12,6.03,6.03,1015,66,2.5,30,31,0.0,Clouds,scattered clouds,2
Tócóvölgy,47.529444,21.588889,2026-03-21 02:40:08.644633,5.92,2.72,5.92,5.92,1015,73,4.52,31,96,0.0,Clouds,overcast clouds,2
Sáregres,46.7825,18.588889,2026-03-21 02:40:09.846080,4.77,2.26,4.77,4.77,1015,64,2.96,55,71,0.0,Clouds,broken clouds,2
Simontornya,46.756582,18.540674,2026-03-21 02:40:11.047055,4.64,2.2,4.64,4.64,1015,64,2.83,57,66,0.0,Clouds,broken clouds,2
Tolnanémedi,46.727778,18.475833,2026-03-21 02:40:12.254917,4.69,2.32,4.69,4.69,1015,64,2.76,57,64,0.0,Clouds,broken clouds,2
Pincehely,46.681389,18.43,2026-03-21 02:40:13.451531,4.51,2.18,4.51,4.51,1015,64,2.67,58,60,0.0,Clouds,broken clouds,2
Keszőhidegkút-Gyönk,46.597778,18.426111,2026-03-21 02:40:14.649782,4.52,2.24,4.52,4.52,1015,65,2.61,58,55,0.0,Clouds,broken clouds,2
Szárazd,46.575556,18.420833,2026-03-21 02:40:15.842853,4.54,2.3,4.54,4.54,1015,65,2.57,58,54,0.0,Clouds,broken clouds,2
Regöly,46.568889,18.396111,2026-03-21 02:40:17.050027,4.54,2.3,4.54,4.54,1015,65,2.57,58,54,0.0,Clouds,broken clouds,2
Szakály-Hőgyész,46.523611,18.389444,2026-03-21 02:40:18.242264,4.39,2.23,4.39,4.39,1015,65,2.44,59,54,0.0,Clouds,broken clouds,2
Dúzs,46.493889,18.377222,2026-03-21 02:40:19.437492,4.42,2.36,4.42,4.42,1015,65,2.34,60,56,0.0,Clouds,broken clouds,2
Csibrák,46.466667,18.336389,2026-03-21 02:40:20.638409,4.44,2.47,4.44,4.44,1015,65,2.25,60,58,0.0,Clouds,broken clouds,2
Kurd,46.449167,18.319167,2026-03-21 02:40:21.837566,4.07,2.14,4.07,4.07,1015,65,2.14,59,61,0.0,Clouds,broken clouds,2
Döbrököz,46.418889,18.255,2026-03-21 02:40:23.037759,4.28,2.45,4.28,4.28,1015,66,2.08,60,64,0.0,Clouds,broken clouds,2
Dombóvár,46.37,18.149722,2026-03-21 02:40:24.233002,4.13,2.46,4.13,4.13,1015,66,1.9,56,69,0.0,Clouds,broken clouds,2
Dombóvár alsó,46.363889,18.134167,2026-03-21 02:40:25.426661,4.13,2.46,4.13,4.13,1015,66,1.9,56,69,0.0,Clouds,broken clouds,2
Somoskőújfalu,48.154722,19.815556,2026-03-21 02:40:26.627256,4.13,1.77,4.13,4.13,1017,76,2.62,43,100,0.0,Clouds,overcast clouds,2
Jászfényszaru,47.593056,19.754444,2026-03-21 02:40:27.827394,5.32,3.23,5.32,5.32,1015,63,2.56,33,100,0.0,Clouds,overcast clouds,2
Pusztamonostor,47.564444,19.794167,2026-03-21 02:40:29.025330,5.28,3.2,5.28,5.28,1015,63,2.54,36,100,0.0,Clouds,overcast clouds,2
Jászberény,47.494444,19.893333,2026-03-21 02:40:30.222659,5.15,2.91,5.15,5.15,1015,64,2.7,43,100,0.0,Clouds,overcast clouds,2
Meggyespele,47.441944,19.938889,2026-03-21 02:40:31.422619,5.09,2.47,5.09,5.09,1015,66,3.21,46,100,0.0,Clouds,overcast clouds,2
Portelek,47.418056,19.958889,2026-03-21 02:40:32.626283,5.01,2.26,5.01,5.01,1015,66,3.37,47,100,0.0,Clouds,overcast clouds,2
Jászboldogháza-Jánoshida,47.366944,20.001389,2026-03-21 02:40:33.824343,4.93,1.88,4.93,4.93,1015,66,3.81,47,99,0.0,Clouds,overcast clouds,2
Jászárokszállás,47.635556,19.971111,2026-03-21 02:40:35.022848,5.81,3.59,5.81,5.81,1016,64,2.84,32,100,0.0,Clouds,overcast clouds,2
Jászdózsa,47.563056,20.028056,2026-03-21 02:40:36.216828,5.68,3.36,5.68,5.68,1015,65,2.95,37,100,0.0,Clouds,overcast clouds,2
Jászapáti,47.513611,20.155,2026-03-21 02:40:37.412850,5.56,2.73,5.56,5.56,1015,67,3.68,42,100,0.0,Clouds,overcast clouds,2
Jászkisér,47.456111,20.203333,2026-03-21 02:40:38.610266,5.44,2.29,5.44,5.44,1015,69,4.2,43,100,0.0,Clouds,overcast clouds,2
Jászladány,47.373333,20.159167,2026-03-21 02:40:39.806123,5.17,1.78,5.17,5.17,1015,69,4.53,45,99,0.0,Clouds,overcast clouds,2
Szászberek,47.320556,20.090833,2026-03-21 02:40:41.000828,5.03,1.6,5.03,5.03,1015,68,4.55,45,99,0.0,Clouds,overcast clouds,2
Gyöngyöshalász,47.743056,19.932222,2026-03-21 02:40:42.201019,6.32,4.01,6.32,6.32,1016,64,3.12,26,100,0.0,Clouds,overcast clouds,2
Gyöngyös,47.783056,19.937222,2026-03-21 02:40:43.404313,6.23,3.86,6.23,6.23,1016,65,3.18,25,100,0.0,Clouds,overcast clouds,2
Erdőtelek,47.683333,20.3025,2026-03-21 02:40:44.611776,6.06,3.36,6.06,6.06,1016,68,3.65,33,100,0.0,Clouds,overcast clouds,2
Heves,47.609444,20.306111,2026-03-21 02:40:45.807549,5.89,2.84,5.89,5.89,1016,69,4.21,37,100,0.0,Clouds,overcast clouds,2
Hevesvezekény,47.562222,20.365833,2026-03-21 02:40:47.011603,5.87,2.45,5.87,5.87,1015,72,4.94,36,100,0.0,Clouds,overcast clouds,2
Tarnaszentmiklós,47.546944,20.390833,2026-03-21 02:40:48.209822,5.8,2.3,5.8,5.8,1015,72,5.08,36,100,0.0,Clouds,overcast clouds,2
Kisköre,47.495556,20.481667,2026-03-21 02:40:49.410638,5.75,1.94,5.75,5.75,1015,75,5.76,32,100,0.0,Clouds,overcast clouds,2
Abádszalók,47.455278,20.553056,2026-03-21 02:40:50.620475,5.7,1.91,5.7,5.7,1015,75,5.68,31,100,0.0,Clouds,overcast clouds,2
Kunhegyes,47.376667,20.641111,2026-03-21 02:40:51.817601,5.62,2.18,5.62,5.62,1015,74,4.86,27,100,0.0,Clouds,overcast clouds,2
Kenderes,47.254444,20.686111,2026-03-21 02:40:53.014846,5.51,2.54,5.51,5.51,1015,70,3.91,30,93,0.0,Clouds,overcast clouds,2
Maklár,47.808056,20.404722,2026-03-21 02:40:54.218951,6.17,3.28,6.17,6.17,1016,73,4.03,30,100,0.0,Clouds,overcast clouds,2
Andornaktálya,47.852203,20.402295,2026-03-21 02:40:55.416154,6.04,3.25,6.04,6.04,1016,74,3.79,29,100,0.0,Clouds,overcast clouds,2
Eger,47.891667,20.381667,2026-03-21 02:40:56.610725,6.03,3.41,6.03,6.03,1016,73,3.51,27,100,0.0,Clouds,overcast clouds,2
Egervár,47.908056,20.380556,2026-03-21 02:40:57.806872,6.18,3.6,6.18,6.18,1016,74,3.49,27,100,0.0,Clouds,overcast clouds,2
Eger-Felnémet,47.936667,20.370556,2026-03-21 02:40:58.999575,6.13,3.56,6.13,6.13,1016,75,3.47,27,100,0.0,Clouds,overcast clouds,2
Szarvaskő,47.988611,20.3325,2026-03-21 02:41:00.197754,5.67,2.98,5.67,5.67,1016,76,3.49,27,100,0.0,Clouds,overcast clouds,2
Mónosbél,48.031944,20.33,2026-03-21 02:41:01.399202,5.88,3.34,5.88,5.88,1016,76,3.33,30,100,0.0,Clouds,overcast clouds,2
Bélapátfalva,48.055556,20.340556,2026-03-21 02:41:02.597975,5.71,3.21,5.71,5.71,1016,76,3.21,32,100,0.0,Clouds,overcast clouds,2
Bélapátfalvi Cementgyár,48.058056,20.355,2026-03-21 02:41:03.803225,5.71,3.21,5.71,5.71,1016,76,3.21,32,100,0.0,Clouds,overcast clouds,2
Szilvásvárad,48.11345,20.37919,2026-03-21 02:41:05.005788,5.57,3.39,5.57,5.57,1016,76,2.73,39,100,0.0,Clouds,overcast clouds,2
Hejőkeresztúr,47.960278,20.869444,2026-03-21 02:41:06.208949,5.85,1.8,5.85,5.85,1016,79,6.46,4,100,0.0,Clouds,overcast clouds,2
Tiszaújváros,47.926111,21.030556,2026-03-21 02:41:07.405241,6.13,2.68,6.13,6.13,1016,80,5.16,358,100,0.0,Clouds,overcast clouds,2
Miskolc-Gömöri,48.106667,20.800278,2026-03-21 02:41:08.606479,6.11,2.57,6.11,6.11,1016,74,5.36,9,100,0.0,Clouds,overcast clouds,2
Sajókeresztúr,48.168008,20.774014,2026-03-21 02:41:09.799862,6.34,3.24,6.34,6.34,1016,74,4.52,12,100,0.0,Clouds,overcast clouds,2
Sajóecseg,48.186111,20.766667,2026-03-21 02:41:11.000381,6.52,3.61,6.52,6.52,1016,75,4.22,13,100,0.0,Clouds,overcast clouds,2
Sajószentpéter,48.222222,20.708056,2026-03-21 02:41:12.205428,6.63,4.07,6.63,6.63,1016,76,3.62,16,100,0.0,Clouds,overcast clouds,2
Kazincbarcika,48.264444,20.6275,2026-03-21 02:41:13.400861,6.92,5.55,6.92,6.92,1016,77,2.06,29,100,0.0,Clouds,overcast clouds,2
Sajókaza,48.272778,20.581944,2026-03-21 02:41:14.601211,7.01,5.8,7.01,7.01,1016,77,1.91,34,100,0.0,Clouds,overcast clouds,2
Vadna,48.276389,20.555278,2026-03-21 02:41:15.798358,7.01,5.8,7.01,7.01,1016,77,1.91,34,100,0.0,Clouds,overcast clouds,2
Dubicsány,48.280833,20.504722,2026-03-21 02:41:16.990582,7.23,6.18,7.23,7.23,1016,77,1.78,46,100,0.0,Clouds,overcast clouds,2
Raposka,46.851389,17.412778,2026-03-21 02:41:18.189829,4.11,2.55,4.11,4.11,1015,60,1.8,32,79,0.0,Clouds,broken clouds,2
Ivacs,47.641944,19.273889,2026-03-21 02:41:19.390332,4.05,1.95,4.05,4.05,1015,59,2.31,24,100,0.0,Clouds,overcast clouds,2
Kisköre-Tiszahíd,47.480835,20.507698,2026-03-21 02:41:20.594965,5.69,1.91,5.69,5.69,1015,75,5.66,32,100,0.0,Clouds,overcast clouds,2
Rozsály,47.912778,22.7825,2026-03-21 02:41:21.796469,5.42,3.5,5.42,5.42,1015,71,2.38,73,90,0.0,Clouds,overcast clouds,2
Pusztakettős,47.453611,20.749722,2026-03-21 02:41:22.996156,5.76,2.32,5.76,5.76,1015,75,4.92,23,100,0.0,Clouds,overcast clouds,2
Kisvác,47.795278,19.113611,2026-03-21 02:41:24.204433,4.68,2.87,4.68,4.68,1016,63,2.12,48,100,0.0,Clouds,overcast clouds,2
Tiszafüred-Gyártelep,47.6075,20.736111,2026-03-21 02:41:25.402868,5.96,2.06,5.96,5.96,1016,79,6.13,21,100,0.0,Clouds,overcast clouds,2
Újkenéz,48.251111,22.221667,2026-03-21 02:41:26.605275,5.99,3.56,5.99,5.99,1016,83,3.2,5,100,0.0,Clouds,overcast clouds,2
Püspökladány-Vásártér,47.319167,21.096111,2026-03-21 02:41:27.804440,5.83,2.92,5.83,5.83,1015,74,3.93,24,94,0.0,Clouds,overcast clouds,2
Végegyháza alsó,46.3675,20.866944,2026-03-21 02:41:29.006862,6.48,4.48,6.48,6.48,1014,68,2.72,61,17,0.0,Clouds,few clouds,2
Orosháza felső,46.553611,20.655278,2026-03-21 02:41:30.205375,6.05,3.5,6.05,6.05,1015,65,3.41,45,36,0.0,Clouds,scattered clouds,2
Ambrózfalva,46.353056,20.740556,2026-03-21 02:41:31.399286,6.29,4.13,6.29,6.29,1014,66,2.9,58,21,0.0,Clouds,few clouds,2
Alsónyék,46.199444,18.738056,2026-03-21 02:41:32.592923,4.43,2.1,4.43,4.43,1015,65,2.65,11,68,0.0,Clouds,broken clouds,2
Tompapuszta,46.321389,20.966389,2026-03-21 02:41:33.793115,6.68,4.91,6.68,6.68,1014,69,2.48,65,21,0.0,Clouds,few clouds,2
Halászlak,46.911879,20.56228,2026-03-21 02:41:34.991444,5.55,2.54,5.55,5.55,1015,67,3.99,34,64,0.0,Clouds,broken clouds,2
Sirató,46.840556,20.61,2026-03-21 02:41:36.184597,5.69,2.8,5.69,5.69,1015,68,3.84,35,62,0.0,Clouds,broken clouds,2
Csabacsűd felső,46.829167,20.649167,2026-03-21 02:41:37.381690,5.69,2.82,5.69,5.69,1015,68,3.81,35,60,0.0,Clouds,broken clouds,2
Orosháza-Üveggyár,46.579979,20.683644,2026-03-21 02:41:38.586112,6.01,3.44,6.01,6.01,1015,66,3.42,44,38,0.0,Clouds,scattered clouds,2
Gyulai városerdő,46.69482,21.32281,2026-03-21 02:41:39.790382,6.13,4.13,6.13,6.13,1015,68,2.64,28,16,0.0,Clouds,few clouds,2
Kórógyszentgyörgy,46.564377,20.224998,2026-03-21 02:41:40.991518,6.19,3.54,6.19,6.19,1015,65,3.61,36,62,0.0,Clouds,broken clouds,2
Kunszállás,46.784444,19.767222,2026-03-21 02:41:42.192491,5.41,2.24,5.41,5.41,1015,63,4.23,37,83,0.0,Clouds,broken clouds,2
Selymes,46.655321,19.8534,2026-03-21 02:41:43.391053,5.79,2.83,5.79,5.79,1015,63,4.0,35,76,0.0,Clouds,broken clouds,2
Petőfiszállási tanyák,46.587805,19.874509,2026-03-21 02:41:44.587216,5.88,3.05,5.88,5.88,1015,64,3.81,34,73,0.0,Clouds,broken clouds,2
Kisteleki szőlők,46.514199,19.92868,2026-03-21 02:41:45.790777,5.83,3.15,5.83,5.83,1015,64,3.54,33,69,0.0,Clouds,broken clouds,2
Kapitányság,46.435336,19.987564,2026-03-21 02:41:46.986791,5.9,3.35,5.9,5.9,1015,64,3.36,30,61,0.0,Clouds,broken clouds,2
Őszeszék,46.39025,20.016017,2026-03-21 02:41:48.187687,5.89,3.37,5.89,5.89,1015,64,3.3,28,53,0.0,Clouds,broken clouds,2
Vilmaszállás,46.366389,20.030833,2026-03-21 02:41:49.386019,5.86,3.35,5.86,5.86,1015,64,3.28,27,49,0.0,Clouds,scattered clouds,2
Jánosszállás,46.334359,20.051199,2026-03-21 02:41:50.584619,5.86,3.36,5.86,5.86,1015,63,3.26,25,45,0.0,Clouds,scattered clouds,2
Felsőpakony,47.343056,19.230556,2026-03-21 02:41:51.782686,4.51,2.06,4.51,4.51,1015,58,2.81,51,99,0.0,Clouds,overcast clouds,2
Felsőméntelek,46.987074,19.557745,2026-03-21 02:41:52.977664,4.72,1.46,4.72,4.72,1015,62,4.09,49,93,0.0,Clouds,overcast clouds,2
Alsóméntelek,46.961558,19.579121,2026-03-21 02:41:54.176704,4.76,1.5,4.76,4.76,1015,62,4.11,48,93,0.0,Clouds,overcast clouds,2
Nagynyír,46.943319,19.585447,2026-03-21 02:41:55.377002,4.8,1.54,4.8,4.8,1015,62,4.13,47,92,0.0,Clouds,overcast clouds,2
Úrihegy,46.917778,19.621389,2026-03-21 02:41:56.572747,4.91,1.66,4.91,4.91,1015,62,4.16,45,92,0.0,Clouds,overcast clouds,2
Miklóstelep,46.913412,19.630913,2026-03-21 02:41:57.771073,4.95,1.72,4.95,4.95,1015,62,4.14,44,91,0.0,Clouds,overcast clouds,2
Tiszajenő alsó,47.016944,20.134444,2026-03-21 02:41:58.969111,5.01,2.02,5.01,5.01,1015,65,3.75,34,100,0.0,Clouds,overcast clouds,2
Óbög,46.987222,20.111111,2026-03-21 02:42:00.172068,5.08,2.13,5.08,5.08,1015,65,3.71,34,98,0.0,Clouds,overcast clouds,2
Árpádszállás,46.866456,19.989163,2026-03-21 02:42:01.371904,5.57,2.6,5.57,5.57,1015,64,3.92,32,83,0.0,Clouds,broken clouds,2
Tőserdő,46.851111,19.980278,2026-03-21 02:42:02.570471,5.74,2.79,5.74,5.74,1015,64,3.96,32,80,0.0,Clouds,broken clouds,2
Tiszaalpár felső,46.836256,19.976753,2026-03-21 02:42:03.765831,5.74,2.79,5.74,5.74,1015,64,3.96,32,80,0.0,Clouds,broken clouds,2
Borsihalom,46.773056,19.92,2026-03-21 02:42:04.957348,5.81,2.8,5.81,5.81,1015,63,4.09,33,78,0.0,Clouds,broken clouds,2
Petőfiváros,46.725556,19.848611,2026-03-21 02:42:06.151748,5.72,2.66,5.72,5.72,1015,63,4.16,35,79,0.0,Clouds,broken clouds,2
Csorna,47.601944,17.248889,2026-03-21 02:42:07.361970,5.02,3.2,5.02,5.02,1015,63,2.19,335,94,0.0,Clouds,overcast clouds,2
Szorgalmatos,47.986667,21.366389,2026-03-21 02:42:08.569659,6.34,3.51,6.34,6.34,1016,80,4.0,17,100,0.0,Clouds,overcast clouds,2
Fótfürdő,47.6225,19.200556,2026-03-21 02:42:09.769609,4.22,2.38,4.22,4.22,1015,56,2.08,27,100,0.0,Clouds,overcast clouds,2
Fenyveshegy,47.818333,19.068056,2026-03-21 02:42:10.970651,4.86,3.38,4.86,4.86,1016,63,1.84,57,100,0.0,Clouds,overcast clouds,2
Hűvösvölgy,47.541202,18.96351,2026-03-21 02:42:12.165229,3.26,1.51,3.26,3.26,1015,55,1.85,39,100,0.0,Clouds,overcast clouds,2
Hárshegy,47.535318,18.961433,2026-03-21 02:42:13.352268,3.26,1.51,3.26,3.26,1015,55,1.85,39,100,0.0,Clouds,overcast clouds,2
Szépjuhászné,47.528277,18.955246,2026-03-21 02:42:14.548552,3.06,1.18,3.06,3.06,1015,54,1.94,40,100,0.0,Clouds,overcast clouds,2
Jánoshegy,47.51433,18.95047,2026-03-21 02:42:15.748380,3.06,1.18,3.06,3.06,1015,54,1.94,40,100,0.0,Clouds,overcast clouds,2
Virágvölgy,47.505965,18.95876,2026-03-21 02:42:16.948529,3.28,1.36,3.28,3.28,1015,54,2.0,42,100,0.0,Clouds,overcast clouds,2
Csillebérc,47.498196,18.961694,2026-03-21 02:42:18.143540,3.28,1.36,3.28,3.28,1015,54,2.0,42,100,0.0,Clouds,overcast clouds,2
Normafa,47.5,18.970558,2026-03-21 02:42:19.345520,3.28,1.36,3.28,3.28,1015,54,2.0,42,100,0.0,Clouds,overcast clouds,2
Széchenyihegy,47.49413,18.977049,2026-03-21 02:42:20.556696,2.49,0.41,2.49,2.49,1015,53,2.03,40,100,0.0,Clouds,overcast clouds,2
Balatonfőkajár felső,47.031389,18.215278,2026-03-21 02:42:21.751150,4.51,2.68,4.51,4.51,1015,62,2.11,78,57,0.0,Clouds,broken clouds,2
Piroska,47.148333,20.129722,2026-03-21 02:42:22.958079,4.87,1.51,4.87,4.87,1015,67,4.33,40,100,0.0,Clouds,overcast clouds,2
Somodor,46.4725,17.836667,2026-03-21 02:42:24.154101,3.85,1.6,3.85,3.85,1015,64,2.43,49,51,0.0,Clouds,broken clouds,2
Középmező,45.995833,18.668889,2026-03-21 02:42:25.351896,3.99,1.13,3.99,3.99,1015,64,3.22,15,53,0.0,Clouds,broken clouds,2
Jobbágyi,47.828889,19.6875,2026-03-21 02:42:26.545423,5.86,3.59,5.86,5.86,1016,65,2.93,29,99,0.0,Clouds,overcast clouds,2
Ferihegy,47.437222,19.223889,2026-03-21 02:42:27.740431,4.1,1.87,4.1,4.1,1015,55,2.46,44,99,0.0,Clouds,overcast clouds,2
Máriapócs,47.852778,22.019167,2026-03-21 02:42:28.939356,5.84,2.76,5.84,5.84,1015,78,4.25,29,100,0.0,Clouds,overcast clouds,2
Máriaudvar,47.751944,19.165,2026-03-21 02:42:30.137161,4.81,3.09,4.81,4.81,1016,62,2.06,36,100,0.0,Clouds,overcast clouds,2
Nagyberki,46.353333,18.004167,2026-03-21 02:42:31.333855,3.89,2.09,3.89,3.89,1015,66,1.99,48,63,0.0,Clouds,broken clouds,2
Badacsonytomaj,46.804722,17.518056,2026-03-21 02:42:32.540497,4.21,2.16,4.21,4.21,1015,59,2.29,52,65,0.0,Clouds,broken clouds,2
Badacsony,46.788611,17.506389,2026-03-21 02:42:33.739558,4.19,2.18,4.19,4.19,1015,59,2.24,48,62,0.0,Clouds,broken clouds,2
Badacsonylábdihegy,46.793889,17.470833,2026-03-21 02:42:34.939963,4.19,2.18,4.19,4.19,1015,59,2.24,48,62,0.0,Clouds,broken clouds,2
Badacsonytördemic-Szigliget,46.809722,17.469167,2026-03-21 02:42:36.143103,4.2,2.27,4.2,4.2,1015,60,2.16,49,67,0.0,Clouds,broken clouds,2
Nemesgulács-Kisapáti,46.836944,17.476389,2026-03-21 02:42:37.337743,4.24,2.43,4.24,4.24,1015,60,2.05,49,72,0.0,Clouds,broken clouds,2
Tapolca,46.877778,17.428611,2026-03-21 02:42:38.543215,4.1,2.65,4.1,4.1,1015,60,1.71,31,84,0.0,Clouds,broken clouds,2
Uzsabánya alsó,46.898333,17.345278,2026-03-21 02:42:39.744408,2.96,1.3,2.96,2.96,1015,62,1.74,15,89,0.0,Clouds,overcast clouds,2
Uzsa,46.920278,17.331667,2026-03-21 02:42:40.944732,3.78,2.29,3.78,3.78,1015,62,1.7,13,92,0.0,Clouds,overcast clouds,2
Sümegi Bazaltbánya,46.9525,17.2925,2026-03-21 02:42:42.146615,3.8,2.16,3.8,3.8,1015,63,1.83,6,92,0.0,Clouds,overcast clouds,2
Sümeg,46.981111,17.270833,2026-03-21 02:42:43.345448,3.97,2.02,3.97,3.97,1016,64,2.14,2,87,0.0,Clouds,overcast clouds,2
Gógánfa,47.021111,17.207778,2026-03-21 02:42:44.544417,4.03,1.96,4.03,4.03,1016,65,2.27,2,85,0.0,Clouds,overcast clouds,2
Ukk,47.041944,17.195833,2026-03-21 02:42:45.742736,4.1,1.96,4.1,4.1,1016,65,2.36,3,81,0.0,Clouds,broken clouds,2
Nemeskeresztúr,47.093611,17.183611,2026-03-21 02:42:46.937019,4.12,2.02,4.12,4.12,1016,65,2.32,5,83,0.0,Clouds,broken clouds,2
Jánosháza,47.115833,17.171667,2026-03-21 02:42:48.129472,4.23,2.18,4.23,4.23,1016,65,2.29,6,84,0.0,Clouds,broken clouds,2
Keszthely,46.758333,17.248056,2026-03-21 02:42:49.330072,3.7,1.68,3.7,3.7,1015,61,2.17,10,71,0.0,Clouds,broken clouds,2
Alsógyenes,46.765844,17.276435,2026-03-21 02:42:50.533358,3.81,1.97,3.81,3.81,1015,61,2.01,18,71,0.0,Clouds,broken clouds,2
Gyenesdiás,46.763333,17.292778,2026-03-21 02:42:51.732008,3.81,1.97,3.81,3.81,1015,61,2.01,18,71,0.0,Clouds,broken clouds,2
Vonyarcvashegy,46.755278,17.318333,2026-03-21 02:42:52.927886,3.31,1.43,3.31,3.31,1015,60,1.97,23,70,0.0,Clouds,broken clouds,2
Balatongyörök,46.751944,17.354444,2026-03-21 02:42:54.125068,3.96,2.19,3.96,3.96,1015,60,1.97,28,68,0.0,Clouds,broken clouds,2
Becehegy,46.776111,17.372778,2026-03-21 02:42:55.324076,2.84,0.93,2.84,2.84,1015,60,1.93,28,72,0.0,Clouds,broken clouds,2
Balatonederics,46.8025,17.385,2026-03-21 02:42:56.526268,2.82,0.98,2.82,2.82,1015,60,1.87,27,77,0.0,Clouds,broken clouds,2
Dabronc,47.025766,17.167006,2026-03-21 02:42:57.731257,4.05,1.88,4.05,4.05,1016,65,2.38,2,81,0.0,Clouds,broken clouds,2
Türje,46.994444,17.093611,2026-03-21 02:42:58.930261,3.94,1.57,3.94,3.94,1016,66,2.58,3,71,0.0,Clouds,broken clouds,2
Zalabér-Batyk,46.983056,17.040833,2026-03-21 02:43:00.125265,3.96,1.41,3.96,3.96,1016,66,2.8,6,57,0.0,Clouds,broken clouds,2
Pakod,46.959167,16.996667,2026-03-21 02:43:01.328631,3.84,1.22,3.84,3.84,1016,66,2.86,7,53,0.0,Clouds,broken clouds,2
Pókaszepetk,46.924444,16.972222,2026-03-21 02:43:02.529347,3.86,1.21,3.86,3.86,1016,66,2.91,5,50,0.0,Clouds,scattered clouds,2
Kemendollár,46.905833,16.946667,2026-03-21 02:43:03.728778,3.56,0.83,3.56,3.56,1016,66,2.93,6,46,0.0,Clouds,scattered clouds,2
Zalaegerszeg,46.833056,16.848333,2026-03-21 02:43:04.931694,3.45,0.96,3.45,3.45,1016,67,2.62,3,31,0.0,Clouds,scattered clouds,2
Bocfölde,46.780278,16.853611,2026-03-21 02:43:06.124367,3.48,1.0,3.48,3.48,1016,67,2.61,1,29,0.0,Clouds,scattered clouds,2
Sárhida,46.755833,16.851389,2026-03-21 02:43:07.328800,2.65,0.18,2.65,2.65,1016,67,2.43,1,26,0.0,Clouds,scattered clouds,2
Bak,46.7325,16.849167,2026-03-21 02:43:08.533456,3.04,0.71,3.04,3.04,1016,67,2.36,1,24,0.0,Clouds,few clouds,2
Tófej,46.670833,16.801944,2026-03-21 02:43:09.732208,2.82,0.71,2.82,2.82,1016,67,2.11,3,21,0.0,Clouds,few clouds,2
Gutorfölde,46.646944,16.739722,2026-03-21 02:43:10.932594,3.04,1.16,3.04,3.04,1016,68,1.93,6,18,0.0,Clouds,few clouds,2
Csömödér-Páka,46.608056,16.641111,2026-03-21 02:43:12.127307,3.16,1.35,3.16,3.16,1016,69,1.89,5,16,0.0,Clouds,few clouds,2
Iklódbördőce,46.603056,16.604722,2026-03-21 02:43:13.323547,2.94,0.95,2.94,2.94,1016,70,2.02,3,17,0.0,Clouds,few clouds,2
Lenti,46.621389,16.528611,2026-03-21 02:43:14.522567,3.08,0.89,3.08,3.08,1016,71,2.23,2,18,0.0,Clouds,few clouds,2
Rédics,46.618056,16.471111,2026-03-21 02:43:15.722994,3.05,0.81,3.05,3.05,1016,72,2.27,1,18,0.0,Clouds,few clouds,2
Zalalövő,46.845556,16.576389,2026-03-21 02:43:16.915897,3.16,0.91,3.16,3.16,1016,69,2.3,11,30,0.0,Clouds,scattered clouds,2
Zalaegerszeg-Ola,46.849167,16.844722,2026-03-21 02:43:18.118026,3.45,0.96,3.45,3.45,1016,67,2.62,3,31,0.0,Clouds,scattered clouds,2
Andráshida,46.863116,16.7792,2026-03-21 02:43:19.319678,3.43,0.95,3.43,3.43,1016,68,2.6,5,32,0.0,Clouds,scattered clouds,2
Bagod,46.875,16.746111,2026-03-21 02:43:20.516172,3.51,1.17,3.51,3.51,1016,68,2.46,7,30,0.0,Clouds,scattered clouds,2
Zalaszentgyörgy,46.872222,16.7125,2026-03-21 02:43:21.714437,3.44,1.15,3.44,3.44,1016,68,2.4,8,30,0.0,Clouds,scattered clouds,2
Zalacséb-Salomvár,46.858056,16.662222,2026-03-21 02:43:22.913437,3.19,0.89,3.19,3.19,1016,68,2.36,9,30,0.0,Clouds,scattered clouds,2
Kópháza,47.631389,16.6375,2026-03-21 02:43:24.111688,4.59,1.47,4.59,4.59,1016,65,3.81,338,100,0.0,Clouds,overcast clouds,2
Nagycenk,47.601111,16.690278,2026-03-21 02:43:25.306673,4.69,1.56,4.69,4.69,1015,65,3.87,340,100,0.0,Clouds,overcast clouds,2
Sopronkövesd,47.548333,16.748056,2026-03-21 02:43:26.508024,4.42,1.33,4.42,4.42,1015,65,3.7,343,100,0.0,Clouds,overcast clouds,2
Lövő,47.509444,16.7775,2026-03-21 02:43:27.709771,4.35,1.33,4.35,4.35,1015,66,3.56,344,99,0.0,Clouds,overcast clouds,2
Újkér,47.457778,16.786667,2026-03-21 02:43:28.902260,4.32,1.46,4.32,4.32,1015,66,3.32,346,95,0.0,Clouds,overcast clouds,2
Bük,47.388611,16.752222,2026-03-21 02:43:30.096644,4.25,1.44,4.25,4.25,1015,65,3.23,351,84,0.0,Clouds,broken clouds,2
Acsád,47.308333,16.734722,2026-03-21 02:43:31.302581,3.86,0.92,3.86,3.86,1015,64,3.3,357,70,0.0,Clouds,broken clouds,2
Salköveskút-Vassurány,47.291389,16.704167,2026-03-21 02:43:32.511002,3.88,0.91,3.88,3.88,1015,64,3.34,359,66,0.0,Clouds,broken clouds,2
Zalaszentiván,46.8875,16.909444,2026-03-21 02:43:33.713245,3.66,0.99,3.66,3.66,1016,66,2.88,5,39,0.0,Clouds,scattered clouds,2
Alsónemesapáti,46.854167,16.936389,2026-03-21 02:43:34.909623,3.72,1.01,3.72,3.72,1016,66,2.95,4,43,0.0,Clouds,scattered clouds,2
Józsa,47.600833,21.584444,2026-03-21 02:43:36.116685,5.79,2.32,5.79,5.79,1015,75,5.0,31,100,0.0,Clouds,overcast clouds,2
Hajdúszentgyörgy,47.608056,21.578333,2026-03-21 02:43:37.312057,5.79,2.32,5.79,5.79,1015,75,5.0,31,100,0.0,Clouds,overcast clouds,2
Zelemér,47.627778,21.578333,2026-03-21 02:43:38.507215,5.79,2.27,5.79,5.79,1015,75,5.13,31,100,0.0,Clouds,overcast clouds,2
Hajdúböszörmény,47.668056,21.524167,2026-03-21 02:43:39.706168,5.93,2.34,5.93,5.93,1015,76,5.36,29,100,0.0,Clouds,overcast clouds,2
Hajdúvid,47.749444,21.508056,2026-03-21 02:43:40.910924,6.11,2.55,6.11,6.11,1015,77,5.4,27,100,0.0,Clouds,overcast clouds,2
Hajdúdorog,47.805556,21.493056,2026-03-21 02:43:42.114608,6.14,2.6,6.14,6.14,1015,78,5.38,26,99,0.0,Clouds,overcast clouds,2
Hajdúnánás,47.831944,21.426667,2026-03-21 02:43:43.308988,6.24,2.91,6.24,6.24,1016,78,4.96,24,99,0.0,Clouds,overcast clouds,2
Hajdúnánás-Vásártér,47.843056,21.407222,2026-03-21 02:43:44.508003,6.24,2.91,6.24,6.24,1016,78,4.96,24,99,0.0,Clouds,overcast clouds,2
Tedej,47.903611,21.404444,2026-03-21 02:43:45.710881,6.29,3.11,6.29,6.29,1016,79,4.66,22,99,0.0,Clouds,overcast clouds,2
Tiszavasvári,47.945278,21.374722,2026-03-21 02:43:46.916088,6.29,3.3,6.29,6.29,1016,79,4.28,19,100,0.0,Clouds,overcast clouds,2
Egyházerdő,47.9725,21.365,2026-03-21 02:43:48.114218,6.33,3.42,6.33,6.33,1016,80,4.14,18,100,0.0,Clouds,overcast clouds,2
Tiszalök,48.013056,21.369167,2026-03-21 02:43:49.315670,6.34,3.58,6.34,6.34,1016,80,3.86,16,100,0.0,Clouds,overcast clouds,2
Hajnalos,47.998889,21.414167,2026-03-21 02:43:50.516837,6.34,3.37,6.34,6.34,1016,80,4.25,19,100,0.0,Clouds,overcast clouds,2
Kisfástanya,47.989167,21.47,2026-03-21 02:43:51.715303,6.31,3.2,6.31,6.31,1016,80,4.53,21,100,0.0,Clouds,overcast clouds,2
Tiszaeszlár,48.010556,21.491944,2026-03-21 02:43:52.915891,6.33,3.15,6.33,6.33,1016,81,4.67,21,100,0.0,Clouds,overcast clouds,2
Bashalom,48.026111,21.514722,2026-03-21 02:43:54.122511,6.37,3.26,6.37,6.37,1016,81,4.54,20,100,0.0,Clouds,overcast clouds,2
Sáránd,47.415556,21.625,2026-03-21 02:43:55.322728,5.94,3.12,5.94,5.94,1015,73,3.82,31,76,0.0,Clouds,broken clouds,2
Derecske,47.365,21.584167,2026-03-21 02:43:56.516013,5.94,3.26,5.94,5.94,1015,72,3.57,28,67,0.0,Clouds,broken clouds,2
Derecske-Vásártér,47.352222,21.58,2026-03-21 02:43:57.712792,5.94,3.26,5.94,5.94,1015,72,3.57,28,67,0.0,Clouds,broken clouds,2
Konyár,47.323611,21.666111,2026-03-21 02:43:58.915206,5.95,3.48,5.95,5.95,1015,71,3.24,29,50,0.0,Clouds,scattered clouds,2
Konyári Sóstófürdő,47.324167,21.744444,2026-03-21 02:44:00.113856,5.96,3.59,5.96,5.96,1015,70,3.1,34,43,0.0,Clouds,scattered clouds,2
Pocsaj-Esztár,47.288333,21.793056,2026-03-21 02:44:01.320258,5.95,3.72,5.95,5.95,1015,69,2.9,37,38,0.0,Clouds,scattered clouds,2
Kismarja,47.243889,21.813889,2026-03-21 02:44:02.529023,5.99,3.9,5.99,5.99,1015,68,2.72,36,34,0.0,Clouds,scattered clouds,2
Nagykereki,47.191667,21.8,2026-03-21 02:44:03.732878,5.99,4.07,5.99,5.99,1015,67,2.5,35,32,0.0,Clouds,scattered clouds,2
Debrecen-Szabadságtelep,47.527778,21.658611,2026-03-21 02:44:04.964097,5.84,2.69,5.84,5.84,1015,73,4.38,33,90,0.0,Clouds,overcast clouds,2
Kondoroskert,47.525556,21.713889,2026-03-21 02:44:06.165283,5.83,2.8,5.83,5.83,1015,73,4.14,35,80,0.0,Clouds,broken clouds,2
Nagycsere,47.523889,21.763056,2026-03-21 02:44:07.366493,5.81,2.83,5.81,5.81,1015,73,4.05,35,77,0.0,Clouds,broken clouds,2
Haláp,47.521667,21.818333,2026-03-21 02:44:08.563385,5.76,2.81,5.76,5.76,1015,74,3.97,36,73,0.0,Clouds,broken clouds,2
Vámospércs,47.518056,21.893889,2026-03-21 02:44:09.760330,5.68,2.88,5.68,5.68,1015,73,3.68,38,65,0.0,Clouds,broken clouds,2
Szentannapuszta,47.52,21.965833,2026-03-21 02:44:10.962251,5.66,2.97,5.66,5.66,1015,73,3.5,40,59,0.0,Clouds,broken clouds,2
Nyírábrány,47.523889,22.016944,2026-03-21 02:44:12.166058,5.64,3.0,5.64,5.64,1015,73,3.41,41,56,0.0,Clouds,broken clouds,2
Dombostanya,47.602778,21.706389,2026-03-21 02:44:13.365384,5.82,2.47,5.82,5.82,1015,75,4.78,33,95,0.0,Clouds,overcast clouds,2
Hajdúsámson,47.608056,21.755278,2026-03-21 02:44:14.562211,5.8,2.58,5.8,5.8,1015,74,4.49,34,87,0.0,Clouds,overcast clouds,2
Tamásipuszta,47.632778,21.796111,2026-03-21 02:44:15.761921,5.75,2.5,5.75,5.75,1015,75,4.53,34,89,0.0,Clouds,overcast clouds,2
Aradványpuszta,47.662778,21.8425,2026-03-21 02:44:16.957747,5.76,2.5,5.76,5.76,1015,75,4.55,34,91,0.0,Clouds,overcast clouds,2
Nyíradony,47.699444,21.903333,2026-03-21 02:44:18.163894,5.71,2.54,5.71,5.71,1015,76,4.35,34,96,0.0,Clouds,overcast clouds,2
Nyírmihálydi,47.7375,21.958889,2026-03-21 02:44:19.359792,5.71,2.59,5.71,5.71,1015,77,4.26,34,99,0.0,Clouds,overcast clouds,2
Nyírgelse,47.750833,21.987778,2026-03-21 02:44:20.556714,5.66,2.59,5.66,5.66,1015,77,4.15,34,100,0.0,Clouds,overcast clouds,2
Nyírbogát,47.793056,22.066389,2026-03-21 02:44:21.755963,5.73,2.91,5.73,5.73,1015,77,3.73,35,99,0.0,Clouds,overcast clouds,2
Nagykálló,47.871111,21.825833,2026-03-21 02:44:22.962219,6.05,2.44,6.05,6.05,1015,79,5.48,24,100,0.0,Clouds,overcast clouds,2
Kállósemjén,47.854722,21.935,2026-03-21 02:44:24.157963,5.97,2.61,5.97,5.97,1015,78,4.88,27,100,0.0,Clouds,overcast clouds,2
Nyírbátor,47.8425,22.131111,2026-03-21 02:44:25.351793,5.68,2.93,5.68,5.68,1015,78,3.59,35,98,0.0,Clouds,overcast clouds,2
Nyírcsászári,47.865556,22.179167,2026-03-21 02:44:26.550688,5.7,3.15,5.7,5.7,1015,78,3.29,37,95,0.0,Clouds,overcast clouds,2
Hodász,47.896111,22.213611,2026-03-21 02:44:27.748704,5.65,3.26,5.65,5.65,1015,77,3.04,39,93,0.0,Clouds,overcast clouds,2
Nyírmeggyes,47.9225,22.256667,2026-03-21 02:44:28.944208,5.74,3.44,5.74,5.74,1015,78,2.93,35,96,0.0,Clouds,overcast clouds,2
Mátészalka,47.951389,22.313333,2026-03-21 02:44:30.142638,5.8,3.6,5.8,5.8,1015,78,2.82,34,98,0.0,Clouds,overcast clouds,2
Kocsord,47.941944,22.375833,2026-03-21 02:44:31.345257,5.81,3.8,5.81,5.81,1015,76,2.57,46,96,0.0,Clouds,overcast clouds,2
Kocsord alsó,47.946389,22.400556,2026-03-21 02:44:32.544394,5.81,3.8,5.81,5.81,1015,76,2.57,46,96,0.0,Clouds,overcast clouds,2
Győrtelek,47.936667,22.424722,2026-03-21 02:44:33.751485,5.79,3.82,5.79,5.79,1015,75,2.52,49,95,0.0,Clouds,overcast clouds,2
Győrtelek alsó,47.921111,22.443333,2026-03-21 02:44:34.945808,5.72,3.7,5.72,5.72,1015,74,2.56,55,93,0.0,Clouds,overcast clouds,2
Ököritófülpös,47.911389,22.495,2026-03-21 02:44:36.148909,5.68,3.66,5.68,5.68,1015,74,2.55,57,93,0.0,Clouds,overcast clouds,2
Porcsalma-Tyukod,47.868056,22.568333,2026-03-21 02:44:37.350090,5.56,3.4,5.56,5.56,1015,71,2.7,67,86,0.0,Clouds,overcast clouds,2
Csenger,47.826111,22.666389,2026-03-21 02:44:38.546557,5.45,3.23,5.45,5.45,1015,71,2.75,72,83,0.0,Clouds,broken clouds,2
Kisfái,46.888303,19.807366,2026-03-21 02:44:39.747642,5.19,2.06,5.19,5.19,1015,63,4.05,37,89,0.0,Clouds,overcast clouds,2
Nyárlőrinci szőlők,46.8775,19.828333,2026-03-21 02:44:40.949764,5.33,2.22,5.33,5.33,1015,63,4.08,36,87,0.0,Clouds,overcast clouds,2
Nyárlőrinc alsó,46.863889,19.878889,2026-03-21 02:44:42.149612,5.36,2.27,5.36,5.36,1015,63,4.05,35,86,0.0,Clouds,overcast clouds,2
Tiszaug-Tiszahídfő,46.866106,20.052098,2026-03-21 02:44:43.355708,5.71,2.79,5.71,5.71,1015,64,3.89,32,83,0.0,Clouds,broken clouds,2
Csongrádi úti tanyák,46.690278,19.921667,2026-03-21 02:44:44.554207,6.01,3.11,6.01,6.01,1015,64,3.98,34,74,0.0,Clouds,broken clouds,2
Kettőshalom,46.689167,20.0225,2026-03-21 02:44:45.750659,6.38,3.6,6.38,6.38,1015,64,3.92,34,71,0.0,Clouds,broken clouds,2
Csongrád alsó,46.711389,20.126389,2026-03-21 02:44:46.955387,6.69,3.96,6.69,6.69,1015,64,3.96,34,68,0.0,Clouds,broken clouds,2
Dónát,46.66988,20.368168,2026-03-21 02:44:48.154725,6.06,3.23,6.06,6.06,1015,66,3.88,38,61,0.0,Clouds,broken clouds,2
Pusztatemplom,46.676667,20.407222,2026-03-21 02:44:49.354674,6.01,3.2,6.01,6.01,1015,66,3.82,38,60,0.0,Clouds,broken clouds,2
Előhát,47.364722,20.653611,2026-03-21 02:44:50.562256,5.57,2.23,5.57,5.57,1015,73,4.63,28,100,0.0,Clouds,overcast clouds,2
Polgárdi-Tekerespuszta,47.017778,18.297778,2026-03-21 02:44:51.767487,4.52,2.54,4.52,4.52,1015,62,2.27,78,61,0.0,Clouds,broken clouds,2
Szatina-Kishajmás,46.202778,18.083611,2026-03-21 02:44:52.973616,3.49,1.69,3.49,3.49,1015,65,1.93,43,80,0.0,Clouds,broken clouds,2
Márok,45.886944,18.499167,2026-03-21 02:44:54.174196,3.31,0.21,3.31,3.31,1015,63,3.35,24,49,0.0,Clouds,scattered clouds,2
Nagynyárád,45.953333,18.564722,2026-03-21 02:44:55.371794,3.61,0.58,3.61,3.61,1015,63,3.35,19,49,0.0,Clouds,scattered clouds,2
Szászvár,46.2875,18.369722222222222,2026-03-21 02:44:56.572118,3.76,2.37,3.76,3.76,1015,66,1.62,42,79,0.0,Clouds,broken clouds,2
Cikó,46.263514,18.557605,2026-03-21 02:44:57.770545,4.18,2.37,4.18,4.18,1015,65,2.04,18,76,0.0,Clouds,broken clouds,2
Gyöngyfa-Magyarmecske,45.983889,17.958889,2026-03-21 02:44:58.967493,3.98,2.02,3.98,3.98,1015,63,2.15,38,90,0.0,Clouds,overcast clouds,2
Nagyhát,47.581389,21.445,2026-03-21 02:45:00.173270,5.89,2.49,5.89,5.89,1015,75,4.92,29,100,0.0,Clouds,overcast clouds,2
Balmazújváros,47.613889,21.348056,2026-03-21 02:45:01.366829,6.09,2.72,6.09,6.09,1015,75,4.95,26,100,0.0,Clouds,overcast clouds,2
Kónya,47.600833,21.2375,2026-03-21 02:45:02.562948,6.06,2.76,6.06,6.06,1015,75,4.78,24,100,0.0,Clouds,overcast clouds,2
Hortobágy,47.586111,21.154722,2026-03-21 02:45:03.766083,6.05,2.78,6.05,6.05,1016,76,4.72,21,99,0.0,Clouds,overcast clouds,2
Hortobágyi Halastó,47.604167,21.074167,2026-03-21 02:45:04.966004,6.03,2.73,6.03,6.03,1016,76,4.78,19,100,0.0,Clouds,overcast clouds,2
Ohat-Pusztakócs,47.623333,20.951111,2026-03-21 02:45:06.166895,6.01,2.47,6.01,6.01,1016,78,5.29,16,100,0.0,Clouds,overcast clouds,2
Egyek,47.616944,20.883611,2026-03-21 02:45:07.365714,6.01,2.27,6.01,6.01,1016,79,5.76,17,100,0.0,Clouds,overcast clouds,2
Tiszafüred,47.627778,20.756111,2026-03-21 02:45:08.575988,5.98,2.08,5.98,5.98,1016,79,6.15,20,100,0.0,Clouds,overcast clouds,2
Poroszló,47.657778,20.654444,2026-03-21 02:45:09.774699,6.06,2.09,6.06,6.06,1016,78,6.4,24,100,0.0,Clouds,overcast clouds,2
Kétútköz,47.694167,20.565,2026-03-21 02:45:10.980535,6.09,2.26,6.09,6.09,1016,76,6.04,27,100,0.0,Clouds,overcast clouds,2
Egerfarmos,47.711667,20.5225,2026-03-21 02:45:12.187868,6.1,2.47,6.1,6.1,1016,75,5.55,29,100,0.0,Clouds,overcast clouds,2
Piliscsaba,47.638056,18.829722,2026-03-21 02:45:13.390702,3.39,2.21,3.39,3.39,1015,60,1.43,63,100,0.0,Clouds,overcast clouds,2
Pilisjászfalu,47.656111,18.797778,2026-03-21 02:45:14.591240,4.16,3.04,4.16,4.16,1015,60,1.46,67,100,0.0,Clouds,overcast clouds,2
Leányvár,47.687594,18.772553,2026-03-21 02:45:15.789571,4.26,3.09,4.26,4.26,1015,60,1.51,76,100,0.0,Clouds,overcast clouds,2
Dorog,47.723333,18.732778,2026-03-21 02:45:16.989426,4.75,3.36,4.75,4.75,1015,60,1.74,88,100,0.0,Clouds,overcast clouds,2
Esztergom-Kertváros,47.743333,18.719167,2026-03-21 02:45:18.185618,4.89,3.39,4.89,4.89,1015,60,1.86,91,100,0.0,Clouds,overcast clouds,2
Esztergom,47.7775,18.743611,2026-03-21 02:45:19.388381,4.61,3.0,4.61,4.61,1016,61,1.92,91,100,0.0,Clouds,overcast clouds,2
Dunaalmás,47.733056,18.326389,2026-03-21 02:45:20.592059,5.24,5.24,5.24,5.24,1015,59,1.1,112,88,0.0,Clouds,overcast clouds,2
Neszmély,47.734444,18.345278,2026-03-21 02:45:21.794296,5.24,5.24,5.24,5.24,1015,59,1.1,112,88,0.0,Clouds,overcast clouds,2
Süttő,47.761111,18.455,2026-03-21 02:45:22.989898,5.2,4.1,5.2,5.2,1015,59,1.56,101,94,0.0,Clouds,overcast clouds,2
Piszke,47.75307,18.478017,2026-03-21 02:45:24.200738,5.19,3.99,5.19,5.19,1015,59,1.64,100,95,0.0,Clouds,overcast clouds,2
Lábatlan,47.751944,18.513333,2026-03-21 02:45:25.399640,5.14,3.85,5.14,5.14,1015,59,1.71,99,96,0.0,Clouds,overcast clouds,2
Eternitgyár,47.755544,18.530014,2026-03-21 02:45:26.608541,5.14,3.85,5.14,5.14,1015,59,1.71,99,96,0.0,Clouds,overcast clouds,2
