station_name,station_lat,station_lon,observation_time,temp,feels_like,temp_min,temp_max,pressure,humidity,wind_speed,wind_deg,clouds,precipitation_1h,weather_main,weather_description,collection_hour
Búcsúszentlászló,46.793056,16.932778,2026-03-11 02:31:28.057734,3.84,0.99,3.84,3.84,1022,85,3.16,180,37,0.0,Clouds,scattered clouds,2
Angyalföld,47.549722,19.09,2026-03-11 02:31:29.975152,6.96,6.38,6.67,7.87,1023,60,1.34,223,93,0.0,Clouds,overcast clouds,2
Felsőjánosfa,46.841389,16.544167,2026-03-11 02:31:31.146294,3.67,1.45,3.67,3.67,1021,87,2.36,204,30,0.0,Clouds,scattered clouds,2
Pankasz,46.835833,16.496111,2026-03-11 02:31:32.316694,3.32,1.03,3.32,3.32,1021,87,2.37,206,34,0.0,Clouds,scattered clouds,2
Nagyrákos,46.827222,16.455556,2026-03-11 02:31:33.492673,3.25,0.94,3.25,3.25,1021,87,2.38,207,34,0.0,Clouds,scattered clouds,2
Őriszentpéter,46.828889,16.415278,2026-03-11 02:31:34.662688,3.33,1.02,3.33,3.33,1021,88,2.39,209,33,0.0,Clouds,scattered clouds,2
Törökbálint,47.45,18.908611,2026-03-11 02:31:35.836610,6.45,5.81,6.45,6.94,1023,59,1.34,223,83,0.0,Clouds,broken clouds,2
Bicske alsó,47.486389,18.642778,2026-03-11 02:31:37.017844,6.34,4.3,6.34,6.34,1023,78,2.74,134,69,0.0,Clouds,broken clouds,2
Bajánsenye,46.818056,16.358056,2026-03-11 02:31:38.190999,3.39,1.1,3.39,3.39,1021,88,2.39,211,36,0.0,Clouds,scattered clouds,2
Aquincum,47.566218,19.048273,2026-03-11 02:31:39.360948,6.94,6.36,6.7,7.89,1023,59,1.34,223,96,0.0,Clouds,overcast clouds,2
Piliscsév,47.673889,18.791389,2026-03-11 02:31:40.538623,6.29,4.2,6.29,6.78,1023,77,2.8,136,81,0.0,Clouds,broken clouds,2
Tát,47.741201,18.64783,2026-03-11 02:31:41.714314,4.85,2.35,4.85,4.85,1023,80,2.97,134,67,0.0,Clouds,broken clouds,2
Süttő felső,47.756667,18.437222,2026-03-11 02:31:42.890677,4.91,2.37,4.91,4.91,1022,81,3.04,132,54,0.0,Clouds,broken clouds,2
Budatétény,47.405,19.016389,2026-03-11 02:31:44.162146,7.01,5.68,6.74,7.93,1023,60,2.03,136,77,0.0,Clouds,broken clouds,2
Seregélyes-Szőlőhegy,47.119444,18.612222,2026-03-11 02:31:45.331330,4.54,2.4,4.54,4.54,1023,73,2.45,152,32,0.0,Clouds,scattered clouds,2
Gödöllő-Állami telepek,47.564444,19.375556,2026-03-11 02:31:46.518182,7.35,6.16,6.19,7.38,1023,49,1.94,127,72,0.0,Clouds,broken clouds,2
Dunakeszi alsó,47.607778,19.128889,2026-03-11 02:31:47.693216,6.97,5.88,6.67,7.86,1023,60,1.78,128,93,0.0,Clouds,overcast clouds,2
Vác-Alsóváros,47.773056,19.149722,2026-03-11 02:31:48.865084,4.48,2.65,4.48,4.48,1023,76,2.11,122,80,0.0,Clouds,broken clouds,2
Szob alsó,47.816667,18.8725,2026-03-11 02:31:50.046838,4.76,2.63,4.76,4.76,1023,79,2.48,126,70,0.0,Clouds,broken clouds,2
Zalaszentmihály-Pacsa,46.7225,16.951944,2026-03-11 02:31:51.220112,3.75,3.75,3.75,3.75,1022,93,0.0,0,0,0.0,Clear,clear sky,2
Pötréte,46.682778,16.9575,2026-03-11 02:31:52.393676,3.75,3.75,3.75,3.75,1022,93,0.0,0,0,0.0,Clear,clear sky,2
Felsőrajk,46.667222,16.982778,2026-03-11 02:31:53.565403,3.81,3.81,3.81,3.81,1022,93,0.0,0,0,0.0,Clear,clear sky,2
Gelse,46.600556,16.982778,2026-03-11 02:31:54.739845,3.81,3.81,3.81,3.81,1022,93,0.0,0,0,0.0,Clear,clear sky,2
Őrtilos,46.297778,16.887778,2026-03-11 02:31:55.911267,3.82,0.92,3.82,3.82,1022,81,3.22,197,71,0.0,Clouds,broken clouds,2
Zákány,46.251944,16.9425,2026-03-11 02:31:57.089774,3.67,0.54,3.67,3.67,1022,81,3.51,202,55,0.0,Clouds,broken clouds,2
Berzence,46.201389,17.143611,2026-03-11 02:31:58.269050,4.14,1.25,4.14,4.14,1022,79,3.31,205,31,0.0,Clouds,scattered clouds,2
Somogyudvarhely,46.163333,17.179722,2026-03-11 02:31:59.441030,4.14,1.37,4.14,4.14,1022,79,3.14,207,27,0.0,Clouds,scattered clouds,2
Bélavár,46.122778,17.207778,2026-03-11 02:32:00.621934,4.24,1.69,4.24,4.24,1023,79,2.88,210,22,0.0,Clouds,few clouds,2
Vízvár,46.101389,17.239444,2026-03-11 02:32:01.804792,4.18,1.75,4.18,4.18,1023,79,2.71,211,18,0.0,Clouds,few clouds,2
Babócsa,46.028359,17.342276,2026-03-11 02:32:02.976294,4.26,2.19,4.26,4.26,1023,80,2.32,209,11,0.0,Clouds,few clouds,2
Péterhida-Komlósd,46.006667,17.358056,2026-03-11 02:32:04.151267,4.35,2.41,4.35,4.35,1023,81,2.2,208,12,0.0,Clouds,few clouds,2
Barcs,45.951944,17.446944,2026-03-11 02:32:05.324981,4.43,2.83,4.43,4.43,1023,82,1.88,201,20,0.0,Clouds,few clouds,2
Barcs felső,45.958333,17.486389,2026-03-11 02:32:06.497774,4.35,2.88,4.35,4.35,1023,82,1.76,196,21,0.0,Clouds,few clouds,2
Középrigóc,45.970556,17.525,2026-03-11 02:32:07.666999,4.28,2.96,4.28,4.28,1023,82,1.63,191,22,0.0,Clouds,few clouds,2
Darány,45.992222,17.598611,2026-03-11 02:32:08.850379,4.29,3.29,4.29,4.29,1023,82,1.39,167,23,0.0,Clouds,few clouds,2
Kisdobsza,46.012222,17.668056,2026-03-11 02:32:10.020797,4.33,3.18,4.33,4.33,1023,82,1.5,152,24,0.0,Clouds,few clouds,2
Nemeske,46.023333,17.705278,2026-03-11 02:32:11.191251,4.35,3.19,4.35,4.35,1023,81,1.51,145,26,0.0,Clouds,scattered clouds,2
Molvány,46.035278,17.748611,2026-03-11 02:32:12.360633,4.32,2.89,4.32,4.32,1023,81,1.72,140,28,0.0,Clouds,scattered clouds,2
Szigetvár,46.043333,17.801944,2026-03-11 02:32:13.530549,4.28,2.82,4.28,4.28,1023,80,1.74,136,30,0.0,Clouds,scattered clouds,2
Nagypeterd,46.039444,17.871667,2026-03-11 02:32:14.713828,6.53,5.38,6.53,6.53,1023,79,1.77,129,32,0.0,Clouds,scattered clouds,2
Szentdénes,46.036667,17.926944,2026-03-11 02:32:15.882236,6.48,5.33,6.48,6.48,1023,79,1.77,127,34,0.0,Clouds,scattered clouds,2
Háros,47.412222,19.035,2026-03-11 02:32:17.055329,6.99,5.66,6.7,7.89,1023,60,2.03,136,77,0.0,Clouds,broken clouds,2
Nagytétény-Diósd,47.398333,18.974444,2026-03-11 02:32:18.224511,6.98,5.55,6.73,7.93,1023,59,2.14,137,73,0.0,Clouds,broken clouds,2
Érdliget,47.390278,18.937778,2026-03-11 02:32:19.396284,6.88,5.35,6.65,7.84,1023,59,2.23,137,74,0.0,Clouds,broken clouds,2
Érd felső,47.381111,18.922222,2026-03-11 02:32:20.571288,6.62,4.97,6.62,7.11,1023,59,2.32,137,75,0.0,Clouds,broken clouds,2
Érd,47.369722,18.900833,2026-03-11 02:32:21.744264,6.58,4.9,6.58,7.07,1023,59,2.34,137,71,0.0,Clouds,broken clouds,2
Százhalombatta,47.322222,18.899167,2026-03-11 02:32:22.911598,6.56,4.84,6.56,7.06,1023,72,2.39,140,61,0.0,Clouds,broken clouds,2
Dunai Finomító,47.294444,18.878889,2026-03-11 02:32:24.127765,6.4,4.59,6.4,6.9,1023,72,2.46,140,61,0.0,Clouds,broken clouds,2
Ercsi,47.247222,18.875278,2026-03-11 02:32:25.296095,6.63,4.86,6.63,7.12,1023,72,2.47,142,57,0.0,Clouds,broken clouds,2
Iváncsa,47.177778,18.811944,2026-03-11 02:32:26.478995,4.4,2.2,4.4,4.4,1023,72,2.49,149,47,0.0,Clouds,scattered clouds,2
Pusztaszabolcs,47.139722,18.761667,2026-03-11 02:32:27.646159,4.47,2.2,4.47,4.47,1023,72,2.59,155,37,0.0,Clouds,scattered clouds,2
Szabadegyháza,47.082778,18.704167,2026-03-11 02:32:28.813251,4.45,2.04,4.45,4.45,1023,71,2.75,160,28,0.0,Clouds,scattered clouds,2
Sárosd,47.039722,18.660278,2026-03-11 02:32:29.981816,4.52,2.06,4.52,4.52,1023,72,2.83,161,23,0.0,Clouds,few clouds,2
Nagylók,46.979444,18.635833,2026-03-11 02:32:31.158532,4.37,1.64,4.37,4.37,1023,71,3.15,165,15,0.0,Clouds,few clouds,2
Sárbogárd,46.896944,18.611944,2026-03-11 02:32:32.329448,4.58,1.81,4.58,4.58,1023,71,3.27,166,12,0.0,Clouds,few clouds,2
Rétszilas,46.814167,18.601389,2026-03-11 02:32:33.499254,4.62,1.9,4.62,4.62,1023,70,3.2,165,12,0.0,Clouds,few clouds,2
Nagyatád,46.228611,17.354167,2026-03-11 02:32:34.673087,4.25,1.81,4.25,4.25,1023,80,2.74,192,17,0.0,Clouds,few clouds,2
Budapest-Keleti,47.500278,19.084167,2026-03-11 02:32:35.855907,6.98,6.41,6.65,7.84,1023,60,1.34,191,90,0.0,Clouds,overcast clouds,2
Ferencváros,47.468611,19.088056,2026-03-11 02:32:37.042177,7.02,6.45,6.67,7.86,1023,60,1.34,191,86,0.0,Clouds,overcast clouds,2
Budapest-Nyugati,47.510833,19.0575,2026-03-11 02:32:38.216218,6.95,6.37,6.66,7.86,1023,60,1.34,191,93,0.0,Clouds,overcast clouds,2
Kőbánya felső,47.491944,19.133889,2026-03-11 02:32:39.395942,7.03,5.95,6.59,7.78,1023,60,1.78,135,85,0.0,Clouds,overcast clouds,2
Rákos,47.488889,19.174722,2026-03-11 02:32:40.565020,7.29,6.24,6.55,7.75,1023,55,1.79,135,82,0.0,Clouds,broken clouds,2
Rákosrendező,47.525556,19.089444,2026-03-11 02:32:41.737971,7.0,6.43,6.69,7.89,1023,60,1.34,191,91,0.0,Clouds,overcast clouds,2
Zugló,47.511389,19.101389,2026-03-11 02:32:42.907959,7.0,6.43,6.65,7.85,1023,60,1.34,191,91,0.0,Clouds,overcast clouds,2
Mezőtárkány,47.725,20.480278,2026-03-11 02:32:44.080711,3.09,1.44,3.09,3.09,1024,66,1.75,166,22,0.0,Clouds,few clouds,2
Istvántelek,47.550278,19.106389,2026-03-11 02:32:45.249142,6.99,5.94,6.68,7.88,1023,60,1.75,132,93,0.0,Clouds,overcast clouds,2
Rákospalota-Újpest,47.565833,19.111944,2026-03-11 02:32:46.417088,6.98,5.91,6.67,7.87,1023,60,1.76,130,94,0.0,Clouds,overcast clouds,2
Kőbánya alsó,47.483056,19.127222,2026-03-11 02:32:47.587882,7.03,5.95,6.6,7.8,1023,60,1.78,135,85,0.0,Clouds,overcast clouds,2
Kőbánya-Kispest,47.463889,19.149444,2026-03-11 02:32:48.757406,7.11,6.01,6.6,7.8,1023,59,1.81,136,81,0.0,Clouds,broken clouds,2
Pestszentlőrinc,47.454722,19.182778,2026-03-11 02:32:49.935133,7.42,6.33,6.54,7.74,1023,54,1.85,137,72,0.0,Clouds,broken clouds,2
Kispest,47.448135,19.157552,2026-03-11 02:32:51.106963,7.21,6.09,6.61,7.8,1023,57,1.85,137,75,0.0,Clouds,broken clouds,2
Újpest,47.558889,19.079722,2026-03-11 02:32:52.271889,6.97,6.39,6.71,7.9,1023,60,1.34,191,96,0.0,Clouds,overcast clouds,2
Pestszentimre felső,47.413611,19.173333,2026-03-11 02:32:53.443379,7.47,6.34,6.64,7.83,1023,55,1.9,139,66,0.0,Clouds,broken clouds,2
Dunakeszi,47.626111,19.136111,2026-03-11 02:32:54.612777,6.88,5.75,6.58,7.77,1023,60,1.81,126,92,0.0,Clouds,overcast clouds,2
Dunakeszi-Gyártelep,47.643611,19.135,2026-03-11 02:32:55.781762,6.91,5.74,6.62,7.82,1023,60,1.85,125,91,0.0,Clouds,overcast clouds,2
Alsógöd,47.676944,19.134444,2026-03-11 02:32:56.950735,6.88,5.66,6.62,7.81,1023,74,1.89,123,89,0.0,Clouds,overcast clouds,2
Göd,47.687778,19.1375,2026-03-11 02:32:58.120671,6.9,5.69,6.64,7.83,1023,74,1.89,123,89,0.0,Clouds,overcast clouds,2
Felsőgöd,47.705556,19.143333,2026-03-11 02:32:59.297937,6.94,5.69,6.68,7.88,1023,74,1.94,122,86,0.0,Clouds,overcast clouds,2
Sződ-Sződliget,47.728056,19.154722,2026-03-11 02:33:00.480548,7.17,5.9,6.67,7.17,1023,75,2.0,122,84,0.0,Clouds,broken clouds,2
Vác,47.782778,19.133056,2026-03-11 02:33:01.648410,4.48,2.65,4.48,4.48,1023,76,2.11,122,80,0.0,Clouds,broken clouds,2
Verőce,47.823889,19.029444,2026-03-11 02:33:02.820698,3.86,1.85,3.86,3.86,1023,79,2.18,120,71,0.0,Clouds,broken clouds,2
Kismaros,47.8275,19.010278,2026-03-11 02:33:03.994126,3.13,0.97,3.13,3.13,1023,79,2.21,120,69,0.0,Clouds,broken clouds,2
Nagymaros-Visegrád,47.791389,18.959167,2026-03-11 02:33:05.191355,3.56,1.52,3.56,3.56,1023,78,2.16,123,76,0.0,Clouds,broken clouds,2
Nagymaros,47.780278,18.952222,2026-03-11 02:33:06.371849,3.56,1.52,3.56,3.56,1023,78,2.16,123,76,0.0,Clouds,broken clouds,2
Zebegény,47.801389,18.908889,2026-03-11 02:33:07.545073,4.29,2.26,4.29,4.29,1023,79,2.28,123,71,0.0,Clouds,broken clouds,2
Szob,47.821111,18.861944,2026-03-11 02:33:08.727763,4.2,1.96,4.2,4.2,1023,79,2.49,124,66,0.0,Clouds,broken clouds,2
Alagimajor,47.601944,19.153889,2026-03-11 02:33:09.899267,7.01,5.93,6.62,7.82,1023,60,1.78,128,93,0.0,Clouds,overcast clouds,2
Fót,47.611389,19.181667,2026-03-11 02:33:11.067713,7.08,5.94,6.52,7.71,1023,57,1.85,126,90,0.0,Clouds,overcast clouds,2
Fótújfalu,47.615,19.192778,2026-03-11 02:33:12.237308,7.17,6.04,6.41,7.61,1023,55,1.85,126,90,0.0,Clouds,overcast clouds,2
Csomád,47.635556,19.222778,2026-03-11 02:33:13.406921,7.16,5.98,6.14,7.34,1023,49,1.9,126,88,0.0,Clouds,overcast clouds,2
Veresegyház,47.649167,19.288611,2026-03-11 02:33:14.579333,7.42,6.11,6.29,7.49,1023,49,2.08,122,82,0.0,Clouds,broken clouds,2
Erdőkertes,47.662222,19.295833,2026-03-11 02:33:15.750771,7.38,6.07,6.25,7.44,1023,73,2.08,122,82,0.0,Clouds,broken clouds,2
Őrbottyán,47.685833,19.283611,2026-03-11 02:33:16.927910,7.36,5.99,6.66,7.36,1023,73,2.14,121,83,0.0,Clouds,broken clouds,2
Váchartyán,47.725833,19.248889,2026-03-11 02:33:18.101157,7.72,6.35,7.72,7.72,1023,74,2.21,121,83,0.0,Clouds,broken clouds,2
Magyarkút-Verőce,47.826111,19.044444,2026-03-11 02:33:19.279357,3.86,1.85,3.86,3.86,1023,79,2.18,120,71,0.0,Clouds,broken clouds,2
Szokolya,47.871111,19.030556,2026-03-11 02:33:20.451787,3.17,0.94,3.17,3.17,1023,80,2.28,118,65,0.0,Clouds,broken clouds,2
Berkenye,47.885278,19.071944,2026-03-11 02:33:21.629293,3.87,1.78,3.87,3.87,1023,79,2.27,119,67,0.0,Clouds,broken clouds,2
Nógrád,47.901944,19.0475,2026-03-11 02:33:22.801785,3.53,1.32,3.53,3.53,1023,80,2.33,117,62,0.0,Clouds,broken clouds,2
Diósjenő,47.94,19.049444,2026-03-11 02:33:23.974915,3.16,0.86,3.16,3.16,1023,80,2.35,115,60,0.0,Clouds,broken clouds,2
Borsosberény,47.971389,19.093056,2026-03-11 02:33:25.219032,3.82,1.68,3.82,3.82,1023,80,2.31,119,67,0.0,Clouds,broken clouds,2
Nagyoroszi,47.993611,19.101111,2026-03-11 02:33:26.390090,3.68,1.53,3.68,3.68,1023,80,2.29,118,65,0.0,Clouds,broken clouds,2
Drégelyvár,48.001944,19.079444,2026-03-11 02:33:27.557361,3.93,1.78,3.93,3.93,1023,81,2.34,112,55,0.0,Clouds,broken clouds,2
Drégely,48.042222,19.056111,2026-03-11 02:33:28.726599,4.32,2.25,4.32,4.32,1023,81,2.33,109,52,0.0,Clouds,broken clouds,2
Drégelypalánk,48.055,19.046111,2026-03-11 02:33:29.893429,4.5,2.45,4.5,4.5,1023,82,2.34,104,46,0.0,Clouds,scattered clouds,2
Ipolyvece,48.056944,19.106389,2026-03-11 02:33:31.071526,4.42,2.5,4.42,4.42,1023,80,2.19,110,57,0.0,Clouds,broken clouds,2
Dejtár,48.045556,19.196389,2026-03-11 02:33:32.243571,4.27,2.39,4.27,4.27,1023,79,2.12,118,66,0.0,Clouds,broken clouds,2
Ipolyszög,48.054444,19.221944,2026-03-11 02:33:33.412319,4.28,2.57,4.28,4.28,1024,79,1.96,116,66,0.0,Clouds,broken clouds,2
Iklad-Domony,47.658056,19.444444,2026-03-11 02:33:34.585945,7.75,6.45,2.1,7.75,1024,74,2.14,115,73,0.0,Clouds,broken clouds,2
Iklad-Domony felső,47.667778,19.428056,2026-03-11 02:33:35.770381,7.73,6.38,2.09,7.73,1024,74,2.19,116,76,0.0,Clouds,broken clouds,2
Galgamácsa,47.693889,19.3925,2026-03-11 02:33:36.940951,7.72,6.34,7.72,7.72,1024,74,2.22,118,80,0.0,Clouds,broken clouds,2
Vácrátót,47.732778,19.217778,2026-03-11 02:33:38.113584,7.64,6.34,7.64,7.64,1023,74,2.11,122,84,0.0,Clouds,broken clouds,2
Csörög,47.735833,19.196389,2026-03-11 02:33:39.285378,6.94,5.58,6.94,6.94,1023,74,2.05,122,84,0.0,Clouds,broken clouds,2
Galgagyörk,47.735278,19.372222,2026-03-11 02:33:40.462904,7.62,6.19,7.62,7.62,1024,74,2.27,118,81,0.0,Clouds,broken clouds,2
Püspökhatvan,47.768611,19.366944,2026-03-11 02:33:41.635109,3.93,1.78,3.93,3.93,1024,75,2.34,120,82,0.0,Clouds,broken clouds,2
Acsa-Erdőkürt,47.801111,19.386111,2026-03-11 02:33:42.808824,3.77,1.58,3.77,3.77,1024,75,2.35,121,82,0.0,Clouds,broken clouds,2
Galgaguta,47.848611,19.385556,2026-03-11 02:33:43.994058,3.48,1.25,3.48,3.48,1024,76,2.34,124,81,0.0,Clouds,broken clouds,2
Nógrádkövesd,47.879444,19.371111,2026-03-11 02:33:45.165118,3.64,1.48,3.64,3.64,1024,76,2.3,125,81,0.0,Clouds,broken clouds,2
Magyarnándor,47.970833,19.356667,2026-03-11 02:33:46.340847,3.56,1.54,3.56,3.56,1024,76,2.14,128,78,0.0,Clouds,broken clouds,2
Mohora,47.995556,19.347778,2026-03-11 02:33:47.512403,3.69,1.81,3.69,3.69,1024,77,2.03,127,77,0.0,Clouds,broken clouds,2
Szügy,48.036389,19.333056,2026-03-11 02:33:48.681898,3.94,2.39,3.94,3.94,1024,77,1.77,123,73,0.0,Clouds,broken clouds,2
Balassagyarmat,48.071111,19.293611,2026-03-11 02:33:49.857364,4.11,2.66,4.11,4.11,1024,78,1.71,119,71,0.0,Clouds,broken clouds,2
Őrhalom,48.078773,19.403936,2026-03-11 02:33:51.026979,3.73,3.73,3.73,3.73,1024,77,1.2,113,70,0.0,Clouds,broken clouds,2
Hugyag,48.083056,19.421111,2026-03-11 02:33:52.197827,3.73,3.73,3.73,3.73,1024,77,1.2,113,70,0.0,Clouds,broken clouds,2
Szécsény,48.093056,19.521111,2026-03-11 02:33:53.369769,3.8,3.8,3.8,3.8,1024,76,1.0,116,67,0.0,Clouds,broken clouds,2
Ludányhalászi,48.1325,19.529444,2026-03-11 02:33:54.543553,3.82,3.82,3.82,3.82,1024,77,0.8,87,66,0.0,Clouds,broken clouds,2
Nógrádszakál,48.178333,19.521667,2026-03-11 02:33:55.719211,3.8,3.8,3.8,3.8,1024,78,0.83,71,66,0.0,Clouds,broken clouds,2
Ráróspuszta,48.207222,19.541389,2026-03-11 02:33:56.892357,3.32,3.32,3.32,3.32,1024,79,1.0,50,64,0.0,Clouds,broken clouds,2
Litke,48.215833,19.598611,2026-03-11 02:33:58.063342,3.72,3.72,3.72,3.72,1024,78,0.89,59,62,0.0,Clouds,broken clouds,2
Nyíregyháza külső,47.943056,21.740278,2026-03-11 02:33:59.233923,3.39,0.44,3.39,3.39,1025,66,3.17,202,70,0.0,Clouds,broken clouds,2
Oros,47.945833,21.806389,2026-03-11 02:34:00.403242,3.45,0.54,3.45,3.45,1025,65,3.13,203,76,0.0,Clouds,broken clouds,2
Napkor,47.948889,21.873056,2026-03-11 02:34:01.575279,3.54,0.74,3.54,3.54,1025,65,3.01,203,80,0.0,Clouds,broken clouds,2
Apagy,47.953775,21.939044,2026-03-11 02:34:02.753718,3.57,0.84,3.57,3.57,1025,65,2.94,202,83,0.0,Clouds,broken clouds,2
Levelek-Magy,47.948056,21.993611,2026-03-11 02:34:03.928158,3.59,0.97,3.59,3.59,1025,64,2.8,200,85,0.0,Clouds,overcast clouds,2
Ófehértó,47.940556,22.041389,2026-03-11 02:34:05.102190,3.52,0.98,3.52,3.52,1025,65,2.69,198,89,0.0,Clouds,overcast clouds,2
Ligettanya,47.951667,22.071389,2026-03-11 02:34:06.275332,3.54,1.08,3.54,3.54,1026,65,2.6,194,87,0.0,Clouds,overcast clouds,2
Baktalórántháza,47.988611,22.083333,2026-03-11 02:34:07.452903,3.56,1.07,3.56,3.56,1026,65,2.64,194,84,0.0,Clouds,broken clouds,2
Vaja-Rohod,48.006389,22.164167,2026-03-11 02:34:08.637027,3.67,1.28,3.67,3.67,1026,65,2.55,188,82,0.0,Clouds,broken clouds,2
Rákóczitanya,48.022222,22.178333,2026-03-11 02:34:09.807619,3.68,1.35,3.68,3.68,1026,65,2.49,184,82,0.0,Clouds,broken clouds,2
Nyírmada,48.059167,22.203056,2026-03-11 02:34:10.982829,3.74,1.35,3.74,3.74,1026,64,2.57,185,77,0.0,Clouds,broken clouds,2
Tunyogmatolcs,47.960244,22.442247,2026-03-11 02:34:12.162076,4.07,2.58,4.07,4.07,1026,66,1.74,151,99,0.0,Clouds,overcast clouds,2
Tunyogmatolcs alsó,47.966025,22.464713,2026-03-11 02:34:13.337033,4.09,2.66,4.09,4.09,1026,66,1.69,146,100,0.0,Clouds,overcast clouds,2
Fehérgyarmat,47.979167,22.524444,2026-03-11 02:34:14.508275,4.17,2.65,4.17,4.17,1026,66,1.78,138,99,0.0,Clouds,overcast clouds,2
Penyige,47.995278,22.566944,2026-03-11 02:34:15.677791,4.2,2.65,4.2,4.2,1026,66,1.81,136,96,0.0,Clouds,overcast clouds,2
Nagyszekeres,47.976111,22.6125,2026-03-11 02:34:16.855998,4.22,2.65,4.22,4.22,1026,65,1.83,134,93,0.0,Clouds,overcast clouds,2
Kisszekeres,47.965833,22.629444,2026-03-11 02:34:18.032189,4.2,2.74,4.2,4.2,1026,66,1.73,133,91,0.0,Clouds,overcast clouds,2
Jánkmajtis,47.941944,22.657222,2026-03-11 02:34:19.201299,4.2,2.83,4.2,4.2,1026,66,1.66,130,83,0.0,Clouds,broken clouds,2
Gacsály,47.926111,22.745,2026-03-11 02:34:20.385164,0.03,-2.15,0.03,0.03,1026,66,1.79,128,62,0.0,Clouds,broken clouds,2
Zajta,47.9025,22.796111,2026-03-11 02:34:21.558282,0.03,-2.23,0.03,0.03,1026,66,1.85,126,42,0.0,Clouds,scattered clouds,2
Eperjeske alsó,48.360556,22.19,2026-03-11 02:34:22.728355,3.96,1.33,3.96,3.96,1025,67,2.9,154,64,0.0,Clouds,broken clouds,2
Mándok,48.326944,22.196389,2026-03-11 02:34:23.899914,3.93,1.39,3.93,3.93,1025,66,2.78,165,62,0.0,Clouds,broken clouds,2
Tornyospálca,48.268333,22.201944,2026-03-11 02:34:25.067970,3.94,1.43,3.94,3.94,1025,65,2.75,175,60,0.0,Clouds,broken clouds,2
Aranyosapáti,48.211303,22.253534,2026-03-11 02:34:26.236376,4.05,1.6,4.05,4.05,1026,64,2.7,171,70,0.0,Clouds,broken clouds,2
Gyüre,48.171389,22.269167,2026-03-11 02:34:27.415008,4.02,1.62,4.02,4.02,1026,64,2.64,174,72,0.0,Clouds,broken clouds,2
Varsány,48.151722,22.290047,2026-03-11 02:34:28.587897,4.04,1.71,4.04,4.04,1026,64,2.56,171,77,0.0,Clouds,broken clouds,2
Vásárosnamény,48.126667,22.306111,2026-03-11 02:34:29.758605,4.03,1.76,4.03,4.03,1026,64,2.49,171,79,0.0,Clouds,broken clouds,2
Vitka,48.095556,22.308056,2026-03-11 02:34:30.932665,4.01,1.81,4.01,4.01,1026,65,2.41,171,82,0.0,Clouds,broken clouds,2
Nagydobos,48.054167,22.311111,2026-03-11 02:34:32.101632,3.92,1.78,3.92,3.92,1026,65,2.33,170,85,0.0,Clouds,overcast clouds,2
Ópályi,47.997778,22.318333,2026-03-11 02:34:33.275705,3.86,1.89,3.86,3.86,1026,66,2.14,169,91,0.0,Clouds,overcast clouds,2
Nyírcsaholy,47.908056,22.348333,2026-03-11 02:34:34.452965,3.9,2.21,3.9,3.9,1026,66,1.89,166,96,0.0,Clouds,overcast clouds,2
Nagyecsed,47.864722,22.385556,2026-03-11 02:34:35.625092,3.93,2.55,3.93,3.93,1026,67,1.63,159,95,0.0,Clouds,overcast clouds,2
Tiborszállás,47.815278,22.402778,2026-03-11 02:34:36.799496,3.89,2.61,3.89,3.89,1026,67,1.55,159,91,0.0,Clouds,overcast clouds,2
Kiskunhalas,46.434444,19.493611,2026-03-11 02:34:37.978622,4.27,1.07,4.27,4.27,1024,61,3.82,156,55,0.0,Clouds,broken clouds,2
Kecskemét alsó,46.895833,19.692222,2026-03-11 02:34:39.152068,4.99,2.83,4.99,5.99,1024,60,2.57,160,0,0.0,Clear,clear sky,2
Putnok,48.286667,20.4375,2026-03-11 02:34:40.323179,7.78,7.78,7.78,8.92,1024,70,0.51,170,61,0.0,Clouds,broken clouds,2
Bánréve,48.299722,20.351944,2026-03-11 02:34:41.494813,7.77,7.77,7.77,7.77,1024,71,0.5,164,57,0.0,Clouds,broken clouds,2
Ipolytarnóc,48.236667,19.629167,2026-03-11 02:34:42.670027,3.66,3.66,3.66,3.66,1024,78,0.96,57,60,0.0,Clouds,broken clouds,2
Rákosliget,47.486111,19.257778,2026-03-11 02:34:43.843618,7.61,6.56,6.47,7.67,1023,52,1.84,135,72,0.0,Clouds,broken clouds,2
Ikrény,47.657778,17.524167,2026-03-11 02:34:45.021854,4.08,1.06,4.08,4.08,1021,80,3.47,178,22,0.0,Clouds,few clouds,2
Rábapatona,47.648889,17.461944,2026-03-11 02:34:46.196935,4.1,1.02,4.1,4.1,1021,81,3.57,179,21,0.0,Clouds,few clouds,2
Enese,47.644167,17.425278,2026-03-11 02:34:47.366870,4.1,0.97,4.1,4.1,1021,81,3.65,179,20,0.0,Clouds,few clouds,2
Kóny,47.632222,17.357222,2026-03-11 02:34:48.539257,5.14,2.2,5.14,5.14,1021,82,3.71,179,18,0.0,Clouds,few clouds,2
Farád,47.595278,17.195833,2026-03-11 02:34:49.708303,5.57,2.55,5.57,5.57,1021,83,4.02,174,17,0.0,Clouds,few clouds,2
Rábatamási,47.592778,17.161389,2026-03-11 02:34:50.878142,5.57,2.55,5.57,5.57,1021,83,4.02,174,17,0.0,Clouds,few clouds,2
Szárföld,47.589167,17.123889,2026-03-11 02:34:52.049271,5.55,2.5,5.55,5.55,1021,83,4.07,174,17,0.0,Clouds,few clouds,2
Veszkény,47.586944,17.101389,2026-03-11 02:34:53.220402,5.56,2.48,5.56,5.56,1021,81,4.12,173,17,0.0,Clouds,few clouds,2
Kapuvár,47.581944,17.046944,2026-03-11 02:34:54.391433,5.54,2.44,5.54,5.54,1021,81,4.15,173,15,0.0,Clouds,few clouds,2
Vitnyéd-Csermajor,47.5825,16.987222,2026-03-11 02:34:55.560909,5.55,2.39,5.55,5.55,1021,81,4.26,173,15,0.0,Clouds,few clouds,2
Petőháza,47.595278,16.893056,2026-03-11 02:34:56.730092,5.5,2.19,5.5,5.5,1020,81,4.54,173,14,0.0,Clouds,few clouds,2
Fertőszentmiklós,47.6,16.858889,2026-03-11 02:34:57.900118,5.5,2.19,5.5,5.5,1020,81,4.54,174,14,0.0,Clouds,few clouds,2
Pinnye,47.600278,16.768611,2026-03-11 02:34:59.073328,5.38,2.25,5.38,5.38,1020,81,4.14,179,11,0.0,Clouds,few clouds,2
Fertőboz,47.625,16.691667,2026-03-11 02:35:00.243938,5.22,2.28,5.22,5.22,1020,81,3.74,182,11,0.0,Clouds,few clouds,2
Sopron,47.677778,16.587222,2026-03-11 02:35:01.414210,4.92,2.52,4.92,4.92,1020,81,2.85,188,12,0.0,Clouds,few clouds,2
Fertőszéplak-Fertőd,47.618889,16.850833,2026-03-11 02:35:02.585005,5.52,2.17,5.52,5.52,1020,81,4.62,174,14,0.0,Clouds,few clouds,2
Nyúl,47.587778,17.698056,2026-03-11 02:35:03.753037,4.02,1.26,4.02,8.14,1021,81,3.09,110,0,0.0,Clear,clear sky,2
Pannonhalma,47.547778,17.740833,2026-03-11 02:35:04.931178,3.96,1.19,3.96,8.08,1021,81,3.09,110,0,0.0,Clear,clear sky,2
Tarjánpuszta,47.504722,17.789167,2026-03-11 02:35:06.100652,3.73,0.91,3.73,7.84,1021,81,3.09,110,0,0.0,Clear,clear sky,2
Győrasszonyfa,47.4925,17.799167,2026-03-11 02:35:07.271788,3.66,0.83,3.66,7.77,1021,81,3.09,110,0,0.0,Clear,clear sky,2
Veszprémvarsány,47.443333,17.818333,2026-03-11 02:35:08.442850,3.71,0.61,3.71,7.83,1022,80,3.48,152,33,0.0,Clouds,scattered clouds,2
Bakonyszentlászló,47.395556,17.8175,2026-03-11 02:35:09.613948,7.58,5.42,3.47,7.58,1022,81,3.3,151,30,0.0,Clouds,scattered clouds,2
Porva-Csesznek,47.326944,17.841111,2026-03-11 02:35:10.787722,6.59,4.38,6.59,6.59,1022,82,3.05,150,25,0.0,Clouds,scattered clouds,2
Zirc,47.266667,17.878056,2026-03-11 02:35:11.958937,2.86,0.36,2.86,2.86,1022,83,2.51,149,21,0.0,Clouds,few clouds,2
Eplény,47.192778,17.921667,2026-03-11 02:35:13.132511,3.25,1.48,3.25,3.25,1022,84,1.87,147,19,0.0,Clouds,few clouds,2
Marcaltő,47.4275,17.348889,2026-03-11 02:35:14.302442,8.17,5.69,8.17,8.17,1021,71,4.12,170,0,0.0,Clear,clear sky,2
Szany-Rábaszentandrás,47.460833,17.315278,2026-03-11 02:35:15.481630,8.17,5.69,8.17,8.17,1021,71,4.12,170,0,0.0,Clear,clear sky,2
Egyed-Rábacsanak,47.521944,17.316389,2026-03-11 02:35:16.658901,8.18,5.92,8.18,8.18,1021,82,3.7,176,12,0.0,Clouds,few clouds,2
Rábapordány,47.557222,17.315,2026-03-11 02:35:17.831393,8.18,5.9,8.18,8.18,1021,82,3.73,177,13,0.0,Clouds,few clouds,2
Albertfalva,47.440784,19.033965,2026-03-11 02:35:19.001966,7.01,6.44,6.73,7.92,1023,60,1.34,191,83,0.0,Clouds,broken clouds,2
Budafok,47.425833,19.041389,2026-03-11 02:35:20.171893,7.03,6.46,6.73,7.93,1023,60,1.34,191,77,0.0,Clouds,broken clouds,2
Tétényliget,47.384722,18.955278,2026-03-11 02:35:21.343924,6.99,5.48,6.75,7.95,1023,59,2.23,137,74,0.0,Clouds,broken clouds,2
Érd alsó,47.379722,18.923056,2026-03-11 02:35:22.510605,6.62,4.97,6.62,7.11,1023,59,2.32,137,75,0.0,Clouds,broken clouds,2
Tárnok,47.365556,18.873889,2026-03-11 02:35:23.681281,6.68,4.91,6.68,7.17,1023,59,2.48,137,72,0.0,Clouds,broken clouds,2
Martonvásár,47.321389,18.781667,2026-03-11 02:35:24.859194,6.61,4.82,6.61,7.1,1023,73,2.49,138,66,0.0,Clouds,broken clouds,2
Baracska,47.297222,18.753333,2026-03-11 02:35:26.030693,6.71,4.97,6.71,6.71,1023,73,2.44,139,63,0.0,Clouds,broken clouds,2
Pettend,47.26,18.708889,2026-03-11 02:35:27.203267,4.42,2.37,4.42,4.42,1023,73,2.33,139,59,0.0,Clouds,broken clouds,2
Kápolnásnyék,47.245556,18.692222,2026-03-11 02:35:28.375602,4.47,2.48,4.47,4.47,1023,73,2.27,140,53,0.0,Clouds,broken clouds,2
Velence,47.226944,18.663889,2026-03-11 02:35:29.546321,4.56,2.63,4.56,4.56,1023,73,2.22,138,50,0.0,Clouds,scattered clouds,2
Velencefürdő,47.218611,18.648056,2026-03-11 02:35:30.723857,4.54,2.58,4.54,4.54,1023,73,2.25,142,47,0.0,Clouds,scattered clouds,2
Gárdony,47.205833,18.624722,2026-03-11 02:35:31.892321,4.58,2.68,4.58,4.58,1023,74,2.2,141,44,0.0,Clouds,scattered clouds,2
Agárd,47.197666,18.604907,2026-03-11 02:35:33.069650,4.58,2.68,4.58,4.58,1023,74,2.2,141,44,0.0,Clouds,scattered clouds,2
Dinnyés,47.179722,18.560833,2026-03-11 02:35:34.245262,4.57,2.68,4.57,4.57,1023,74,2.19,142,34,0.0,Clouds,scattered clouds,2
Székesfehérvár,47.183611,18.424722,2026-03-11 02:35:35.419423,4.59,2.73,4.59,4.59,1023,77,2.16,136,27,0.0,Clouds,scattered clouds,2
Szabadbattyán,47.105278,18.388333,2026-03-11 02:35:36.593821,4.54,2.51,4.54,4.54,1023,77,2.33,147,21,0.0,Clouds,few clouds,2
Kiscséripuszta,47.048056,18.355,2026-03-11 02:35:37.767852,4.35,2.18,4.35,4.35,1023,77,2.44,154,19,0.0,Clouds,few clouds,2
Lepsény,46.9875,18.248056,2026-03-11 02:35:38.942647,8.23,6.82,8.23,8.23,1023,77,2.38,159,17,0.0,Clouds,few clouds,2
Balatonaliga,46.984444,18.171389,2026-03-11 02:35:40.115138,8.04,6.94,8.04,8.04,1023,79,1.97,158,18,0.0,Clouds,few clouds,2
Balatonvilágos,46.964167,18.157222,2026-03-11 02:35:41.296337,8.08,7.05,8.08,8.08,1022,79,1.9,161,18,0.0,Clouds,few clouds,2
Szabadifürdő,46.926111,18.103333,2026-03-11 02:35:42.469696,8.25,7.2,8.25,8.25,1022,52,1.95,166,18,0.0,Clouds,few clouds,2
Ózd alsó,48.227778,20.306111,2026-03-11 02:35:43.644217,7.61,7.61,7.61,7.61,1024,70,0.97,163,57,0.0,Clouds,broken clouds,2
Ózd,48.2225,20.294722,2026-03-11 02:35:44.812943,7.66,7.66,7.66,7.66,1024,70,0.97,163,57,0.0,Clouds,broken clouds,2
Alsóboldva,48.212778,20.792222,2026-03-11 02:35:45.986962,8.98,8.25,7.99,9.13,1024,70,1.73,176,42,0.0,Clouds,scattered clouds,2
Boldva,48.223333,20.790278,2026-03-11 02:35:47.164358,8.97,8.24,7.98,9.12,1024,53,1.73,176,42,0.0,Clouds,scattered clouds,2
Borsodszirák,48.259167,20.770556,2026-03-11 02:35:48.339985,8.93,8.56,7.94,9.08,1024,53,1.38,163,45,0.0,Clouds,scattered clouds,2
Edelény alsó,48.279167,20.760833,2026-03-11 02:35:49.514691,8.86,8.49,8.86,9.06,1024,69,1.38,163,45,0.0,Clouds,scattered clouds,2
Edelény,48.299722,20.749444,2026-03-11 02:35:50.691243,8.84,8.84,8.84,9.04,1024,70,1.27,155,44,0.0,Clouds,scattered clouds,2
Szendrőlád,48.334444,20.731944,2026-03-11 02:35:51.869936,8.75,8.75,8.75,8.75,1024,71,0.91,140,45,0.0,Clouds,scattered clouds,2
Szendrő,48.400725,20.721346,2026-03-11 02:35:53.040831,3.41,3.41,3.41,3.41,1024,73,0.69,123,41,0.0,Clouds,scattered clouds,2
Szendrő felső,48.409907,20.720148,2026-03-11 02:35:54.212960,3.41,3.41,3.41,3.41,1024,73,0.69,123,41,0.0,Clouds,scattered clouds,2
Szalonna,48.449444,20.722222,2026-03-11 02:35:55.386987,3.54,3.54,3.54,3.54,1024,74,0.5,107,36,0.0,Clouds,scattered clouds,2
Perkupa,48.471389,20.691111,2026-03-11 02:35:56.558653,2.89,2.89,2.89,2.89,1024,75,0.37,81,39,0.0,Clouds,scattered clouds,2
Szemeretelep,47.443056,19.214167,2026-03-11 02:35:57.731903,7.59,6.52,6.54,7.73,1023,52,1.86,138,69,0.0,Clouds,broken clouds,2
Jósvafő-Aggtelek,48.489722,20.693889,2026-03-11 02:35:58.910595,3.26,3.26,3.26,3.26,1024,76,0.32,79,37,0.0,Clouds,scattered clouds,2
Bódvaszilas,48.5375,20.738056,2026-03-11 02:36:00.084039,2.88,2.88,2.88,2.88,1024,76,0.25,119,31,0.0,Clouds,scattered clouds,2
Komjáti,48.5475,20.759722,2026-03-11 02:36:01.267374,2.45,2.45,2.45,2.45,1024,77,0.3,160,28,0.0,Clouds,scattered clouds,2
Tornanádaska,48.558333,20.787222,2026-03-11 02:36:02.443784,3.59,3.59,3.59,3.59,1024,77,0.39,167,27,0.0,Clouds,scattered clouds,2
Onga,48.121111,20.906667,2026-03-11 02:36:03.618393,8.99,7.56,8.99,9.18,1024,53,2.6,189,27,0.0,Clouds,scattered clouds,2
Szikszó-Vásártér,48.193056,20.934722,2026-03-11 02:36:04.797005,8.95,7.73,8.95,9.15,1024,53,2.3,171,27,0.0,Clouds,scattered clouds,2
Szikszó,48.201667,20.941667,2026-03-11 02:36:05.972610,8.97,7.7,8.97,9.16,1024,53,2.37,169,24,0.0,Clouds,few clouds,2
Aszaló,48.219867,20.961466,2026-03-11 02:36:07.143963,8.95,7.72,8.95,9.14,1024,53,2.31,164,25,0.0,Clouds,scattered clouds,2
Halmaj,48.246667,20.991667,2026-03-11 02:36:08.313196,8.93,7.69,8.93,8.93,1024,70,2.32,158,22,0.0,Clouds,few clouds,2
Csobád,48.277222,21.033889,2026-03-11 02:36:09.483483,8.9,7.65,8.9,8.9,1024,71,2.32,154,21,0.0,Clouds,few clouds,2
Ináncs,48.291111,21.057778,2026-03-11 02:36:10.654068,8.9,7.66,8.9,8.9,1024,72,2.31,154,18,0.0,Clouds,few clouds,2
Forró-Encs,48.3275,21.117778,2026-03-11 02:36:11.831057,3.34,1.14,3.34,3.34,1024,73,2.28,155,18,0.0,Clouds,few clouds,2
Méra,48.363056,21.140278,2026-03-11 02:36:13.003758,3.17,0.96,3.17,3.17,1024,74,2.26,158,17,0.0,Clouds,few clouds,2
Novajidrány,48.404444,21.170556,2026-03-11 02:36:14.175126,2.5,0.16,2.5,2.5,1024,75,2.27,162,16,0.0,Clouds,few clouds,2
Hernádszurdok,48.487222,21.213889,2026-03-11 02:36:15.346575,2.42,0.95,2.42,2.42,1024,80,1.54,0,0,0.0,Clear,clear sky,2
Hidasnémeti,48.508333,21.229722,2026-03-11 02:36:16.521884,2.43,0.96,2.43,2.43,1024,80,1.54,0,0,0.0,Clear,clear sky,2
Mád,48.19,21.268889,2026-03-11 02:36:17.694024,8.96,7.97,8.96,8.96,1024,71,2.01,183,18,0.0,Clouds,few clouds,2
Rátka,48.215,21.230278,2026-03-11 02:36:18.916446,9.12,8.15,9.12,9.12,1024,71,2.02,176,17,0.0,Clouds,few clouds,2
Tállya,48.226944,21.225278,2026-03-11 02:36:20.090773,9.07,8.09,9.07,9.07,1024,71,2.02,176,17,0.0,Clouds,few clouds,2
Golop,48.242778,21.204167,2026-03-11 02:36:21.267583,9.19,8.12,9.19,9.19,1024,72,2.16,165,17,0.0,Clouds,few clouds,2
Abaújszántó,48.286944,21.181667,2026-03-11 02:36:22.436692,9.1,8.0,9.1,9.1,1024,73,2.17,161,17,0.0,Clouds,few clouds,2
Abaújszántói fürdő,48.268333,21.179722,2026-03-11 02:36:23.608445,9.16,8.08,9.16,9.16,1024,72,2.16,163,17,0.0,Clouds,few clouds,2
Abaújkér,48.309444,21.198333,2026-03-11 02:36:24.778020,9.06,7.94,9.06,9.06,1024,73,2.19,160,17,0.0,Clouds,few clouds,2
Boldogkőváralja,48.345,21.208889,2026-03-11 02:36:25.948946,8.86,7.8,8.86,8.86,1024,74,2.08,168,16,0.0,Clouds,few clouds,2
Korlát-Vizsoly,48.365,21.219167,2026-03-11 02:36:27.123078,8.77,7.64,8.77,8.77,1024,74,2.14,168,15,0.0,Clouds,few clouds,2
Fony,48.411389,21.242778,2026-03-11 02:36:28.294763,2.3,-0.07,2.3,6.94,1024,76,2.27,170,14,0.0,Clouds,few clouds,2
Hejce-Vilmány,48.419444,21.245556,2026-03-11 02:36:29.468721,2.27,-0.11,2.27,6.9,1024,76,2.27,170,14,0.0,Clouds,few clouds,2
Göncruszka,48.445,21.246944,2026-03-11 02:36:30.648275,2.36,-0.06,2.36,6.99,1024,77,2.33,171,14,0.0,Clouds,few clouds,2
Gönc,48.470556,21.261389,2026-03-11 02:36:31.824432,2.26,-0.19,2.26,6.9,1024,77,2.34,175,14,0.0,Clouds,few clouds,2
Zsujta,48.4925,21.265,2026-03-11 02:36:32.994411,2.28,0.79,2.28,6.92,1024,80,1.54,0,0,0.0,Clear,clear sky,2
Bodrogkeresztúr,48.175556,21.354167,2026-03-11 02:36:34.166285,9.23,8.24,9.23,9.23,1025,71,2.07,193,18,0.0,Clouds,few clouds,2
Szegi,48.201944,21.387778,2026-03-11 02:36:35.337076,9.27,8.33,7.43,9.27,1025,71,2.02,201,16,0.0,Clouds,few clouds,2
Erdőbénye,48.218056,21.401944,2026-03-11 02:36:36.508481,9.24,8.31,7.4,9.24,1025,71,2.0,206,14,0.0,Clouds,few clouds,2
Olaszliszka-Tolcsva,48.258333,21.448056,2026-03-11 02:36:37.683251,9.27,8.38,7.43,9.27,1025,72,1.96,210,13,0.0,Clouds,few clouds,2
Bodrogolaszi,48.286944,21.512778,2026-03-11 02:36:38.853154,7.37,6.11,7.37,9.21,1025,63,2.02,213,12,0.0,Clouds,few clouds,2
Sárospatak,48.325833,21.566111,2026-03-11 02:36:40.022084,7.32,5.79,7.32,9.16,1025,63,2.32,214,9,0.0,Clear,clear sky,2
Sátoraljaújhely,48.385833,21.657778,2026-03-11 02:36:41.197697,7.4,5.87,7.4,7.4,1025,63,2.34,206,7,0.0,Clear,clear sky,2
Vecsés,47.40855,19.25652,2026-03-11 02:36:42.368118,7.69,6.59,6.58,7.77,1023,52,1.91,141,57,0.0,Clouds,broken clouds,2
Vecsés-Kertekalja,47.403333,19.271389,2026-03-11 02:36:43.540919,7.74,6.64,6.62,7.81,1023,51,1.91,141,57,0.0,Clouds,broken clouds,2
Üllő,47.390833,19.348889,2026-03-11 02:36:44.713062,7.72,6.57,6.57,7.77,1023,49,1.96,145,45,0.0,Clouds,scattered clouds,2
Monor,47.34545,19.43701,2026-03-11 02:36:45.882907,2.07,2.07,2.07,7.71,1024,80,1.03,0,0,0.0,Clear,clear sky,2
Pilis,47.279722,19.536389,2026-03-11 02:36:47.051528,7.67,6.09,2.03,7.67,1024,69,2.47,160,30,0.0,Clouds,scattered clouds,2
Albertirsa,47.240278,19.606389,2026-03-11 02:36:48.231409,3.43,0.75,3.43,3.43,1024,68,2.84,165,36,0.0,Clouds,scattered clouds,2
Ceglédbercel-Cserő,47.210278,19.686944,2026-03-11 02:36:49.399845,3.38,0.53,3.38,3.38,1024,68,3.04,167,41,0.0,Clouds,scattered clouds,2
Cegléd,47.182778,19.806111,2026-03-11 02:36:50.573301,3.79,0.88,3.79,5.07,1024,67,3.23,167,49,0.0,Clouds,scattered clouds,2
Abony,47.173056,20.016389,2026-03-11 02:36:51.742992,3.85,0.7,2.97,3.85,1024,72,3.6,140,0,0.0,Clear,clear sky,2
Szolnok,47.179167,20.175833,2026-03-11 02:36:52.918771,2.99,-0.35,2.99,3.87,1024,70,3.6,140,0,0.0,Clear,clear sky,2
Szajol,47.170556,20.295278,2026-03-11 02:36:54.100996,3.01,-0.33,3.01,3.88,1024,70,3.6,140,0,0.0,Clear,clear sky,2
Törökszentmiklós,47.170278,20.413611,2026-03-11 02:36:55.276448,3.0,-0.34,3.0,3.88,1024,70,3.6,140,0,0.0,Clear,clear sky,2
Rákoscsaba-Újtelep,47.4875,19.271944,2026-03-11 02:36:56.452857,7.62,6.57,6.47,7.67,1023,51,1.84,135,72,0.0,Clouds,broken clouds,2
Rákoscsaba,47.492222,19.284722,2026-03-11 02:36:57.627834,7.62,6.57,6.47,7.66,1023,51,1.84,135,69,0.0,Clouds,broken clouds,2
Pécel,47.493889,19.338889,2026-03-11 02:36:58.795096,7.51,6.43,6.34,7.54,1023,49,1.85,135,65,0.0,Clouds,broken clouds,2
Isaszeg,47.537719,19.388955,2026-03-11 02:36:59.971540,7.45,6.32,6.75,7.45,1023,49,1.9,129,69,0.0,Clouds,broken clouds,2
Gödöllő,47.592222,19.358611,2026-03-11 02:37:01.151415,7.19,5.93,6.03,7.23,1023,49,1.99,124,75,0.0,Clouds,broken clouds,2
Máriabesnyő,47.595556,19.389722,2026-03-11 02:37:02.322687,7.37,6.14,6.67,7.37,1023,49,1.99,124,75,0.0,Clouds,broken clouds,2
Bag,47.641111,19.471667,2026-03-11 02:37:03.490901,7.73,6.42,2.08,7.73,1024,74,2.14,115,73,0.0,Clouds,broken clouds,2
Aszód,47.647467,19.492882,2026-03-11 02:37:04.671699,7.8,6.49,2.16,7.8,1024,74,2.16,114,71,0.0,Clouds,broken clouds,2
Hévízgyörk,47.638611,19.526667,2026-03-11 02:37:05.846250,7.81,6.48,7.81,7.81,1024,74,2.18,113,70,0.0,Clouds,broken clouds,2
Galgahévíz,47.6325,19.558333,2026-03-11 02:37:07.017221,7.8,6.49,7.8,7.8,1024,73,2.16,113,64,0.0,Clouds,broken clouds,2
Tura,47.626389,19.5975,2026-03-11 02:37:08.196024,7.83,6.52,7.83,7.83,1024,73,2.17,112,63,0.0,Clouds,broken clouds,2
Hatvan,47.663611,19.671389,2026-03-11 02:37:09.366603,3.78,1.64,3.78,3.78,1024,73,2.3,105,68,0.0,Clouds,broken clouds,2
Vámosgyörk,47.686111,19.927778,2026-03-11 02:37:10.535686,3.46,1.94,3.46,3.46,1024,70,1.69,102,53,0.0,Clouds,broken clouds,2
Adács,47.696389,19.975278,2026-03-11 02:37:11.710249,3.4,2.19,3.4,3.4,1024,70,1.45,104,53,0.0,Clouds,broken clouds,2
Karácsond,47.718056,20.048611,2026-03-11 02:37:12.885774,3.24,2.18,3.24,3.24,1024,69,1.34,107,55,0.0,Clouds,broken clouds,2
Ludas,47.723889,20.095556,2026-03-11 02:37:14.123215,3.33,3.33,3.33,3.33,1024,68,1.25,120,50,0.0,Clouds,scattered clouds,2
Nagyút,47.72666666666667,20.161388888888887,2026-03-11 02:37:15.309101,3.26,3.26,3.26,3.26,1024,68,1.26,125,48,0.0,Clouds,scattered clouds,2
Kál-Kápolna,47.734167,20.254167,2026-03-11 02:37:16.481406,3.15,1.95,3.15,3.15,1024,67,1.42,142,40,0.0,Clouds,scattered clouds,2
Füzesabony,47.751389,20.415278,2026-03-11 02:37:17.653689,3.01,1.51,3.01,3.01,1024,66,1.62,161,27,0.0,Clouds,scattered clouds,2
Szihalom,47.766944,20.491944,2026-03-11 02:37:18.826893,2.85,1.26,2.85,2.85,1024,66,1.67,170,22,0.0,Clouds,few clouds,2
Mezőkövesd,47.797222,20.5675,2026-03-11 02:37:20.006767,2.81,1.02,2.81,2.81,1024,66,1.83,186,18,0.0,Clouds,few clouds,2
Mezőkövesd felső,47.807222,20.591389,2026-03-11 02:37:21.187094,9.17,8.37,8.03,9.17,1024,66,1.83,186,18,0.0,Clouds,few clouds,2
Mezőkeresztes-Mezőnyárád,47.845556,20.670278,2026-03-11 02:37:22.357446,9.05,7.91,8.03,9.17,1024,67,2.21,205,21,0.0,Clouds,few clouds,2
Csincse,47.890833,20.764167,2026-03-11 02:37:23.528679,9.13,7.7,8.05,9.19,1024,67,2.64,211,25,0.0,Clouds,scattered clouds,2
Emőd,47.930556,20.822778,2026-03-11 02:37:24.701870,9.11,7.52,8.07,9.21,1024,76,2.87,214,28,0.0,Clouds,scattered clouds,2
Nyékládháza,47.9925,20.840556,2026-03-11 02:37:25.869329,9.11,7.47,8.1,9.23,1024,74,2.95,213,30,0.0,Clouds,scattered clouds,2
Miskolc-Tiszai,48.098611,20.811389,2026-03-11 02:37:27.037930,9.0,7.66,8.02,9.16,1024,69,2.47,207,38,0.0,Clouds,scattered clouds,2
Felsőzsolca,48.083611,20.866111,2026-03-11 02:37:28.216055,9.03,7.6,8.04,9.18,1024,70,2.61,200,32,0.0,Clouds,scattered clouds,2
Hernádnémeti-Bőcs,48.051389,20.985,2026-03-11 02:37:29.387520,8.99,7.37,8.99,9.18,1024,53,2.88,192,22,0.0,Clouds,few clouds,2
Tiszalúc,48.039722,21.0575,2026-03-11 02:37:30.566486,9.06,7.41,9.03,9.26,1024,68,2.95,191,20,0.0,Clouds,few clouds,2
Taktaharkány,48.091667,21.128611,2026-03-11 02:37:31.747407,9.31,7.85,9.08,9.31,1024,69,2.73,184,19,0.0,Clouds,few clouds,2
Taktaszada,48.1125,21.149444,2026-03-11 02:37:32.920944,9.32,7.97,9.09,9.32,1024,69,2.57,182,19,0.0,Clouds,few clouds,2
Szerencs,48.155556,21.214444,2026-03-11 02:37:34.096536,9.31,8.26,9.31,9.31,1024,70,2.16,182,19,0.0,Clouds,few clouds,2
Mezőzombor,48.156944,21.267778,2026-03-11 02:37:35.269857,9.31,8.3,9.31,9.31,1025,71,2.11,185,19,0.0,Clouds,few clouds,2
Tarcal,48.125,21.34,2026-03-11 02:37:36.438740,9.33,8.15,9.33,9.33,1025,70,2.33,195,20,0.0,Clouds,few clouds,2
Tokaj,48.112778,21.406667,2026-03-11 02:37:37.614494,9.29,8.02,9.29,9.29,1025,70,2.45,202,21,0.0,Clouds,few clouds,2
Rakamaz,48.12,21.475,2026-03-11 02:37:38.787490,9.29,7.98,9.29,9.29,1025,70,2.51,204,21,0.0,Clouds,few clouds,2
Görögszállás,48.04,21.555,2026-03-11 02:37:39.970241,9.25,7.65,9.25,9.25,1025,68,2.94,201,32,0.0,Clouds,scattered clouds,2
Nyírtelek,48.005,21.615556,2026-03-11 02:37:41.143024,9.29,7.58,9.29,9.29,1025,67,3.14,202,43,0.0,Clouds,scattered clouds,2
Rákoshegy,47.468611,19.245556,2026-03-11 02:37:42.312886,7.54,6.48,6.42,7.62,1023,52,1.84,137,68,0.0,Clouds,broken clouds,2
Ecser,47.439444,19.318056,2026-03-11 02:37:43.482580,7.62,6.54,6.47,7.66,1023,49,1.87,140,59,0.0,Clouds,broken clouds,2
Maglód,47.438889,19.340833,2026-03-11 02:37:44.654251,7.57,6.49,6.41,7.6,1023,49,1.86,140,56,0.0,Clouds,broken clouds,2
Maglódi nyaraló,47.434167,19.363611,2026-03-11 02:37:45.827614,7.47,6.38,6.31,7.51,1024,49,1.86,141,53,0.0,Clouds,broken clouds,2
Gyömrő,47.429722,19.393333,2026-03-11 02:37:47.003024,7.47,6.38,6.77,7.47,1024,49,1.86,141,53,0.0,Clouds,broken clouds,2
Mende,47.426944,19.439722,2026-03-11 02:37:48.173644,7.43,6.28,6.73,7.43,1024,49,1.91,146,40,0.0,Clouds,scattered clouds,2
Szőlősnyaraló,47.450278,19.561111,2026-03-11 02:37:49.353737,7.66,6.56,2.02,7.66,1024,49,1.9,144,37,0.0,Clouds,scattered clouds,2
Sülysáp,47.451944,19.5275,2026-03-11 02:37:50.536760,7.64,6.56,2.0,7.64,1024,49,1.88,143,40,0.0,Clouds,scattered clouds,2
Tápiószecső,47.443056,19.614722,2026-03-11 02:37:51.710306,7.75,6.65,2.1,7.75,1024,71,1.91,145,36,0.0,Clouds,scattered clouds,2
Szentmártonkáta,47.431944,19.680556,2026-03-11 02:37:52.880953,7.77,6.63,7.77,7.77,1024,71,1.96,145,35,0.0,Clouds,scattered clouds,2
Nagykáta,47.409722,19.737778,2026-03-11 02:37:54.055877,3.26,1.29,3.26,3.26,1024,70,2.05,150,33,0.0,Clouds,scattered clouds,2
Farmos,47.355278,19.8375,2026-03-11 02:37:55.233823,2.87,0.48,2.87,2.87,1024,69,2.39,156,33,0.0,Clouds,scattered clouds,2
Tápiószele,47.346313,19.873504,2026-03-11 02:37:56.412349,2.72,0.16,2.72,2.72,1024,69,2.54,159,36,0.0,Clouds,scattered clouds,2
Tápiógyörgye,47.325,19.95,2026-03-11 02:37:57.583025,3.84,1.4,3.84,3.84,1024,68,2.64,158,39,0.0,Clouds,scattered clouds,2
Újszász,47.285833,20.066944,2026-03-11 02:37:58.755512,3.88,1.2,3.01,3.88,1024,67,2.95,160,51,0.0,Clouds,broken clouds,2
Szurdokpüspöki,47.851944,19.690278,2026-03-11 02:37:59.931234,3.64,1.78,3.64,3.64,1024,73,2.0,118,78,0.0,Clouds,broken clouds,2
Lőrinci,47.739444,19.673611,2026-03-11 02:38:01.103925,3.73,1.54,3.73,3.73,1024,73,2.34,104,74,0.0,Clouds,broken clouds,2
Selyp,47.759167,19.670833,2026-03-11 02:38:02.274838,3.72,1.55,3.72,3.72,1024,73,2.32,105,76,0.0,Clouds,broken clouds,2
Apc-Zagyvaszántó,47.791328,19.66822,2026-03-11 02:38:03.443715,3.73,1.61,3.73,3.73,1024,73,2.27,107,78,0.0,Clouds,broken clouds,2
Pásztó,47.918889,19.688889,2026-03-11 02:38:04.615731,3.5,1.87,3.5,3.5,1024,73,1.78,128,75,0.0,Clouds,broken clouds,2
Mátraszőlős-Hasznos,47.938506,19.706122,2026-03-11 02:38:05.787425,3.44,1.94,3.44,3.44,1024,73,1.67,136,73,0.0,Clouds,broken clouds,2
Tar,47.956111,19.746389,2026-03-11 02:38:06.962541,2.95,1.42,2.95,2.95,1024,73,1.64,147,71,0.0,Clouds,broken clouds,2
Mátraverebély,47.968333,19.778611,2026-03-11 02:38:08.137316,2.95,1.42,2.95,2.95,1024,73,1.64,147,71,0.0,Clouds,broken clouds,2
Nagybátony,47.981111,19.82,2026-03-11 02:38:09.307039,3.05,1.47,3.05,3.05,1024,72,1.69,155,69,0.0,Clouds,broken clouds,2
Kisterenye,48.009444,19.831944,2026-03-11 02:38:10.481264,3.07,1.36,3.07,3.07,1024,72,1.79,160,67,0.0,Clouds,broken clouds,2
Kisterenye-Bányatelep,48.021389,19.831944,2026-03-11 02:38:11.654849,3.07,1.36,3.07,3.07,1024,72,1.79,160,67,0.0,Clouds,broken clouds,2
Salgótarján külső,48.089444,19.790833,2026-03-11 02:38:12.828859,2.64,1.31,2.64,2.64,1024,74,1.46,157,64,0.0,Clouds,broken clouds,2
Balatonfenyves GV,46.7125,17.479167,2026-03-11 02:38:13.998785,4.08,1.78,4.08,4.08,1022,83,2.53,170,33,0.0,Clouds,scattered clouds,2
Várhegyalja,47.737778,18.366667,2026-03-11 02:38:15.180931,4.79,2.08,4.79,4.79,1022,81,3.25,135,48,0.0,Clouds,scattered clouds,2
Imremajor,46.680556,17.499722,2026-03-11 02:38:16.357405,4.11,1.73,4.11,4.11,1022,83,2.63,172,33,0.0,Clouds,scattered clouds,2
Rákospalota-Kertváros,47.578333,19.122778,2026-03-11 02:38:17.528321,6.98,5.91,6.67,7.86,1023,59,1.76,130,94,0.0,Clouds,overcast clouds,2
Vicziántelep,47.675833,19.286111,2026-03-11 02:38:18.703017,7.26,5.87,6.14,7.33,1023,73,2.14,121,83,0.0,Clouds,broken clouds,2
Pálmajor,46.662831,17.457526,2026-03-11 02:38:19.877102,4.1,1.63,4.1,4.1,1022,83,2.74,175,35,0.0,Clouds,scattered clouds,2
Somogyszentpál felső,46.649758,17.471404,2026-03-11 02:38:21.056828,4.07,1.59,4.07,4.07,1022,83,2.74,175,32,0.0,Clouds,scattered clouds,2
Somogyszentpál,46.638611,17.478611,2026-03-11 02:38:22.232186,4.06,1.49,4.06,4.06,1022,83,2.85,177,31,0.0,Clouds,scattered clouds,2
Rudnaykert,47.7175,19.257778,2026-03-11 02:38:23.406873,7.67,6.29,6.97,7.67,1023,74,2.21,121,83,0.0,Clouds,broken clouds,2
Maroshegy,47.158333,18.406667,2026-03-11 02:38:24.583855,4.57,2.66,4.57,4.57,1023,77,2.21,140,25,0.0,Clouds,scattered clouds,2
Bánhida,47.573703,18.371737,2026-03-11 02:38:25.755731,4.45,1.73,4.45,4.45,1022,81,3.16,139,43,0.0,Clouds,scattered clouds,2
Magyarkút,47.850278,19.045,2026-03-11 02:38:26.937393,3.81,1.73,3.81,3.81,1023,79,2.24,119,68,0.0,Clouds,broken clouds,2
Becske alsó,47.897222,19.364722,2026-03-11 02:38:28.107623,3.12,0.91,3.12,3.12,1024,76,2.25,127,80,0.0,Clouds,broken clouds,2
Hosszúberek-Péteri,47.370556,19.389722,2026-03-11 02:38:29.278210,7.75,6.53,7.04,7.75,1023,49,2.05,149,38,0.0,Clouds,scattered clouds,2
Monorierdő,47.308889,19.499167,2026-03-11 02:38:30.454641,7.65,6.18,2.01,7.65,1024,70,2.32,158,30,0.0,Clouds,scattered clouds,2
Ceglédbercel,47.215833,19.658611,2026-03-11 02:38:31.627414,3.4,0.57,3.4,3.4,1024,68,3.02,166,40,0.0,Clouds,scattered clouds,2
Budai út,47.208333,19.731389,2026-03-11 02:38:32.803295,3.21,0.31,3.21,3.21,1024,68,3.06,167,42,0.0,Clouds,scattered clouds,2
Büdöskútpuszta,48.373056,20.726111,2026-03-11 02:38:33.978264,3.51,3.51,3.51,3.51,1024,72,0.8,131,43,0.0,Clouds,scattered clouds,2
Bánrévei Vízmű,48.282778,20.368333,2026-03-11 02:38:35.149950,7.8,7.8,7.8,7.8,1024,71,0.5,166,59,0.0,Clouds,broken clouds,2
Rákoskert,47.456389,19.296111,2026-03-11 02:38:36.319913,6.97,5.81,6.34,6.98,1023,53,1.85,137,64,0.0,Clouds,broken clouds,2
Szirmabesenyő,48.146944,20.783056,2026-03-11 02:38:37.495850,8.94,7.92,7.95,9.08,1024,70,2.05,200,43,0.0,Clouds,scattered clouds,2
Kitérőgyár,47.766944,19.935278,2026-03-11 02:38:38.663017,3.2,1.81,3.2,3.2,1024,70,1.56,109,66,0.0,Clouds,broken clouds,2
Tápiószentmárton,47.373333,19.797778,2026-03-11 02:38:39.839308,2.83,0.47,2.83,2.83,1024,69,2.35,157,32,0.0,Clouds,scattered clouds,2
Zagyvarékas,47.244229,20.097435,2026-03-11 02:38:41.011883,3.89,0.75,3.01,3.89,1024,72,3.6,140,0,0.0,Clear,clear sky,2
Abonyi út,47.206401,20.125204,2026-03-11 02:38:42.181949,3.89,0.75,3.01,3.89,1024,72,3.6,140,0,0.0,Clear,clear sky,2
Jászkisér felső,47.438056,20.202222,2026-03-11 02:38:43.353921,3.38,1.11,3.38,3.38,1024,67,2.36,150,33,0.0,Clouds,scattered clouds,2
Szellőhát,47.425556,20.188889,2026-03-11 02:38:44.524735,3.39,1.02,3.39,3.39,1024,67,2.47,152,36,0.0,Clouds,scattered clouds,2
Szilvásvárad-Szalajkavölgy,48.0956,20.38272,2026-03-11 02:38:45.696228,6.36,5.57,6.36,7.5,1024,54,1.44,158,56,0.0,Clouds,broken clouds,2
Vásárosnamény külső,48.084444,22.255556,2026-03-11 02:38:46.868613,3.87,1.6,3.87,3.87,1026,65,2.46,174,80,0.0,Clouds,broken clouds,2
Újváros,46.660556,20.536111,2026-03-11 02:38:48.053159,9.43,7.72,9.43,9.43,1025,40,3.19,158,96,0.0,Clouds,overcast clouds,2
Városi park,46.697778,19.864722,2026-03-11 02:38:49.225517,6.12,3.55,5.1,6.59,1024,54,3.46,158,54,0.0,Clouds,broken clouds,2
Belsőkamaráspuszta,46.341944,20.848889,2026-03-11 02:38:50.396757,8.36,6.57,8.36,8.36,1025,62,2.95,153,100,0.0,Clouds,overcast clouds,2
Sajószöged,47.945278,20.981667,2026-03-11 02:38:51.574026,9.08,7.33,9.08,9.28,1024,67,3.13,201,24,0.0,Clouds,few clouds,2
Kazincbarcika alsó,48.255278,20.649167,2026-03-11 02:38:52.744584,8.91,8.91,7.91,9.05,1024,69,1.05,183,57,0.0,Clouds,broken clouds,2
Nyárjas,46.857778,19.923611,2026-03-11 02:38:53.916542,5.54,3.48,5.05,6.54,1024,57,2.57,160,0,0.0,Clear,clear sky,2
Pogonyipuszta,48.296389,20.381667,2026-03-11 02:38:55.091686,7.76,7.76,7.76,7.76,1024,71,0.5,166,59,0.0,Clouds,broken clouds,2
Sióvölgy,46.911103,18.076964,2026-03-11 02:38:56.261252,8.3,7.41,8.3,8.3,1022,53,1.79,166,18,0.0,Clouds,few clouds,2
Répáspuszta,46.430278,17.847222,2026-03-11 02:38:57.437497,4.14,1.44,4.14,4.14,1023,82,3.04,182,17,0.0,Clouds,few clouds,2
Virányos,48.066667,21.527222,2026-03-11 02:38:58.608493,9.28,7.73,9.28,9.28,1025,68,2.86,203,29,0.0,Clouds,scattered clouds,2
Füzesbokor,47.988611,21.6475,2026-03-11 02:38:59.782390,9.28,7.54,9.28,9.28,1025,67,3.19,202,51,0.0,Clouds,broken clouds,2
Kunfehértó,46.355833,19.417222,2026-03-11 02:39:00.966778,4.27,1.1,4.27,4.27,1024,62,3.77,154,60,0.0,Clouds,broken clouds,2
Erdőszél,46.329444,19.395,2026-03-11 02:39:02.140603,4.16,1.01,4.16,4.16,1024,63,3.71,153,60,0.0,Clouds,broken clouds,2
Jánoshalma,46.293056,19.330278,2026-03-11 02:39:03.312051,4.31,1.24,4.31,4.31,1024,63,3.63,151,66,0.0,Clouds,broken clouds,2
Mélykút,46.213056,19.370556,2026-03-11 02:39:04.483853,4.4,1.41,4.4,4.4,1024,63,3.54,148,75,0.0,Clouds,broken clouds,2
Bácsalmás,46.118056,19.346389,2026-03-11 02:39:05.659628,4.47,1.61,4.47,4.47,1024,64,3.37,145,79,0.0,Clouds,broken clouds,2
Almás,46.116216,19.328803,2026-03-11 02:39:06.835045,4.47,1.61,4.47,4.47,1024,64,3.37,145,79,0.0,Clouds,broken clouds,2
Bácsbokod-Bácsborsód,46.115833,19.16,2026-03-11 02:39:08.004444,4.31,1.48,4.31,4.31,1024,65,3.27,146,72,0.0,Clouds,broken clouds,2
Baja,46.187014,18.957602,2026-03-11 02:39:09.175020,4.31,1.64,4.31,4.31,1024,67,3.05,155,60,0.0,Clouds,broken clouds,2
Harkakötöny,46.458333,19.601944,2026-03-11 02:39:10.351885,8.73,6.55,8.73,8.73,1024,61,3.78,157,61,0.0,Clouds,broken clouds,2
Tajó,46.473056,19.650556,2026-03-11 02:39:11.531071,8.77,6.61,8.77,8.77,1024,61,3.76,157,63,0.0,Clouds,broken clouds,2
Kiskunmajsa,46.501667,19.728056,2026-03-11 02:39:12.700887,6.05,3.32,6.05,6.05,1024,61,3.7,157,64,0.0,Clouds,broken clouds,2
Jászszentlászló,46.565833,19.753611,2026-03-11 02:39:13.876433,6.07,3.39,6.07,6.07,1024,55,3.62,157,58,0.0,Clouds,broken clouds,2
Galambos,46.625,19.801111,2026-03-11 02:39:15.052099,6.1,3.47,6.1,6.58,1024,55,3.55,157,54,0.0,Clouds,broken clouds,2
Pestszentimre,47.402222,19.188611,2026-03-11 02:39:16.222692,7.22,5.98,6.63,7.27,1023,54,1.97,141,60,0.0,Clouds,broken clouds,2
Gyál felső,47.390278,19.204722,2026-03-11 02:39:17.395047,7.24,6.01,6.64,7.28,1023,54,1.97,141,57,0.0,Clouds,broken clouds,2
Gyál,47.376667,19.219444,2026-03-11 02:39:18.569013,7.28,6.05,6.66,7.31,1023,54,1.97,141,57,0.0,Clouds,broken clouds,2
Ócsa,47.301389,19.232222,2026-03-11 02:39:19.740598,7.29,5.82,6.67,7.32,1023,51,2.24,146,38,0.0,Clouds,scattered clouds,2
Inárcs-Kakucs,47.247222,19.317778,2026-03-11 02:39:20.910671,2.23,-0.36,2.23,7.32,1023,71,2.48,153,28,0.0,Clouds,scattered clouds,2
Dabas,47.194722,19.328889,2026-03-11 02:39:22.085572,2.24,-0.61,2.24,2.24,1024,70,2.76,156,28,0.0,Clouds,scattered clouds,2
Gyón,47.178333,19.355556,2026-03-11 02:39:23.255736,2.21,-0.77,2.21,2.21,1024,70,2.91,157,30,0.0,Clouds,scattered clouds,2
Hernád,47.161389,19.4025,2026-03-11 02:39:24.425277,3.86,1.02,3.86,3.86,1024,69,3.15,161,37,0.0,Clouds,scattered clouds,2
Bakonygyirót,47.416389,17.811944,2026-03-11 02:39:25.592779,3.59,0.55,3.59,7.71,1022,80,3.36,152,30,0.0,Clouds,scattered clouds,2
Vinye,47.360317,17.819635,2026-03-11 02:39:26.761985,7.03,4.82,2.91,7.03,1022,81,3.19,151,27,0.0,Clouds,scattered clouds,2
Nemesgörzsöny,47.402924,17.376385,2026-03-11 02:39:27.931493,8.16,5.68,8.16,8.16,1021,71,4.12,170,0,0.0,Clear,clear sky,2
Rábahíd,47.438618,17.337525,2026-03-11 02:39:29.102935,8.15,5.67,8.15,8.15,1021,71,4.12,170,0,0.0,Clear,clear sky,2
Öskü,47.162222,18.076389,2026-03-11 02:39:30.272135,4.35,2.97,4.35,4.35,1022,83,1.68,144,22,0.0,Clouds,few clouds,2
Márkó,47.1275,17.813889,2026-03-11 02:39:31.444627,7.08,5.98,7.08,7.08,1022,85,1.81,142,16,0.0,Clouds,few clouds,2
Nemeskocs,47.203333,17.188889,2026-03-11 02:39:32.617491,8.11,5.98,8.11,8.11,1021,84,3.43,166,9,0.0,Clear,clear sky,2
Zalagyömörő,47.011111,17.220833,2026-03-11 02:39:33.788203,4.46,1.63,4.46,4.46,1022,85,3.32,155,12,0.0,Clouds,few clouds,2
Rigács,47.061667,17.199167,2026-03-11 02:39:34.960046,4.43,1.57,4.43,4.43,1022,85,3.35,156,10,0.0,Clear,clear sky,2
Kemenespálfa,47.139722,17.183056,2026-03-11 02:39:36.149996,4.55,1.7,4.55,4.55,1021,84,3.38,161,8,0.0,Clear,clear sky,2
Lentiszombathely,46.611389,16.5725,2026-03-11 02:39:37.327343,9.57,8.43,5.51,9.57,1021,83,2.34,191,68,0.0,Clouds,broken clouds,2
Ortaháza,46.626667,16.685833,2026-03-11 02:39:38.516305,3.51,1.55,3.51,3.51,1021,83,2.08,184,58,0.0,Clouds,broken clouds,2
Rádiháza,46.654722,16.765833,2026-03-11 02:39:39.691876,3.59,1.62,3.59,3.59,1021,84,2.1,184,48,0.0,Clouds,scattered clouds,2
Baktüttös,46.690833,16.826389,2026-03-11 02:39:40.867566,3.6,1.27,3.6,3.6,1022,84,2.47,184,40,0.0,Clouds,scattered clouds,2
Budafa,46.851667,16.624722,2026-03-11 02:39:42.037174,3.72,1.49,3.72,3.72,1021,86,2.38,201,22,0.0,Clouds,few clouds,2
Zalapatakalja,46.845556,16.603889,2026-03-11 02:39:43.210861,3.68,1.47,3.68,3.68,1021,87,2.36,203,28,0.0,Clouds,scattered clouds,2
Tormásliget,47.430556,16.781667,2026-03-11 02:39:44.383781,4.65,1.6,4.65,4.65,1021,83,3.72,182,9,0.0,Clear,clear sky,2
Belecska,46.64,18.411389,2026-03-11 02:39:45.561841,4.56,2.77,4.56,4.56,1023,73,2.08,163,13,0.0,Clouds,few clouds,2
Almár,47.956111,20.356944,2026-03-11 02:39:46.736638,7.57,6.59,7.57,8.71,1024,54,1.76,147,51,0.0,Clouds,broken clouds,2
Vasútmúzeum,47.543889,19.099444,2026-03-11 02:39:47.907729,6.98,5.88,6.67,7.32,1023,59,1.79,190,93,0.0,Clouds,overcast clouds,2
Abda,47.690833,17.540556,2026-03-11 02:39:49.080700,4.09,1.12,4.09,4.09,1021,80,3.41,176,25,0.0,Clouds,scattered clouds,2
Vadaspark,47.526111,18.949167,2026-03-11 02:39:50.254768,5.06,3.66,4.87,5.51,1023,59,1.79,190,92,0.0,Clouds,overcast clouds,2
Barosstelep,47.398889,18.989167,2026-03-11 02:39:51.429354,6.99,5.56,6.73,7.38,1023,59,2.14,137,73,0.0,Clouds,broken clouds,2
Fegyvernek-Örményes,47.194444,20.5575,2026-03-11 02:39:52.606579,3.02,-0.06,3.02,3.02,1025,65,3.24,163,77,0.0,Clouds,broken clouds,2
Zagyvapálfalva,48.068889,19.785,2026-03-11 02:39:53.783127,2.84,1.39,2.84,2.84,1024,73,1.57,159,65,0.0,Clouds,broken clouds,2
Salgótarján,48.105556,19.807222,2026-03-11 02:39:54.977872,2.22,2.22,2.22,2.22,1024,74,1.33,152,63,0.0,Clouds,broken clouds,2
Szabadisóstó,46.933889,18.118056,2026-03-11 02:39:56.147902,8.28,7.32,8.28,8.28,1022,53,1.86,163,18,0.0,Clouds,few clouds,2
Siófok,46.907778,18.053889,2026-03-11 02:39:57.321882,8.28,7.38,8.28,8.28,1022,53,1.79,166,18,0.0,Clouds,few clouds,2
Balatonszéplak felső,46.898056,18.018056,2026-03-11 02:39:58.495333,8.28,7.29,8.28,8.28,1022,53,1.89,169,18,0.0,Clouds,few clouds,2
Balatonszéplak alsó,46.891944,17.993333,2026-03-11 02:39:59.676368,8.28,8.28,8.28,8.28,1022,53,0.89,90,18,0.0,Clouds,few clouds,2
Zamárdi felső,46.886111,17.969444,2026-03-11 02:40:00.859059,8.29,8.29,8.29,8.29,1022,53,0.89,90,18,0.0,Clouds,few clouds,2
Zamárdi,46.88,17.944722,2026-03-11 02:40:02.030592,8.23,8.23,8.23,8.23,1022,53,0.89,90,18,0.0,Clouds,few clouds,2
Szántód,46.861944,17.899167,2026-03-11 02:40:03.200367,8.3,8.3,8.3,8.3,1022,53,0.89,90,18,0.0,Clouds,few clouds,2
Szőny-Déli,47.735278,18.141944,2026-03-11 02:40:04.374003,4.12,0.95,4.12,7.84,1022,81,3.72,140,40,0.0,Clouds,scattered clouds,2
Várpalota,47.194444,18.149167,2026-03-11 02:40:05.545917,4.08,2.26,4.08,4.08,1022,83,2.03,138,26,0.0,Clouds,scattered clouds,2
Pétfürdő,47.1675,18.121389,2026-03-11 02:40:06.715782,4.51,2.93,4.51,4.51,1022,83,1.88,141,24,0.0,Clouds,few clouds,2
Hajmáskér,47.141111,18.009444,2026-03-11 02:40:07.894400,7.88,7.07,7.88,7.88,1022,83,1.65,145,21,0.0,Clouds,few clouds,2
Veszprém,47.118889,17.91,2026-03-11 02:40:09.075316,7.67,6.93,7.67,7.67,1022,84,1.55,145,18,0.0,Clouds,few clouds,2
Herend,47.136944,17.760278,2026-03-11 02:40:10.243535,6.86,5.58,6.86,6.86,1022,85,1.95,141,16,0.0,Clouds,few clouds,2
Városlőd,47.144167,17.652778,2026-03-11 02:40:11.410966,6.98,5.05,6.98,6.98,1022,83,2.76,138,15,0.0,Clouds,few clouds,2
Városlőd-Kislőd,47.133889,17.631111,2026-03-11 02:40:12.585535,7.09,5.29,7.09,7.09,1022,84,2.61,137,15,0.0,Clouds,few clouds,2
Ajka,47.105902,17.572938,2026-03-11 02:40:13.754430,7.39,5.42,7.39,7.39,1022,83,2.93,136,15,0.0,Clouds,few clouds,2
Ajka-Gyártelep,47.096806,17.555219,2026-03-11 02:40:14.923351,7.44,5.48,7.44,7.44,1022,83,2.93,136,15,0.0,Clouds,few clouds,2
Devecser,47.1125,17.435278,2026-03-11 02:40:16.089976,8.8,6.91,8.8,8.8,1022,83,3.27,139,14,0.0,Clouds,few clouds,2
Somlóvásárhely,47.124444,17.369167,2026-03-11 02:40:17.258933,7.95,5.77,7.95,7.95,1022,83,3.47,147,11,0.0,Clouds,few clouds,2
Tüskevár,47.128611,17.331389,2026-03-11 02:40:18.434119,7.99,5.81,7.99,7.99,1022,83,3.47,150,10,0.0,Clear,clear sky,2
Karakószörcsök,47.133611,17.287778,2026-03-11 02:40:19.607827,4.58,1.69,4.58,4.58,1022,84,3.45,152,9,0.0,Clear,clear sky,2
Kerta,47.151944,17.237222,2026-03-11 02:40:20.780842,4.64,1.78,4.64,4.64,1021,84,3.42,161,8,0.0,Clear,clear sky,2
Boba,47.183333,17.191389,2026-03-11 02:40:21.954366,4.61,1.75,4.61,4.61,1021,84,3.41,164,9,0.0,Clear,clear sky,2
Börgönd,47.140278,18.515,2026-03-11 02:40:23.132650,4.44,2.35,4.44,4.44,1023,74,2.37,149,26,0.0,Clouds,scattered clouds,2
Belsőbáránd,47.102778,18.499722,2026-03-11 02:40:24.301597,4.4,2.22,4.4,4.4,1023,74,2.47,151,22,0.0,Clouds,few clouds,2
Zichyújfalu,47.124444,18.6725,2026-03-11 02:40:25.476210,4.37,2.15,4.37,4.37,1023,72,2.51,154,36,0.0,Clouds,scattered clouds,2
Seregélyes,47.121111,18.580556,2026-03-11 02:40:26.647698,4.56,2.48,4.56,4.56,1023,73,2.39,150,28,0.0,Clouds,scattered clouds,2
Polgárdi-Ipartelepek,47.079167,18.314444,2026-03-11 02:40:27.820727,4.22,2.19,4.22,4.22,1023,78,2.27,150,20,0.0,Clouds,few clouds,2
Polgárdi,47.07,18.284167,2026-03-11 02:40:29.025943,4.22,2.19,4.22,4.22,1023,78,2.27,150,20,0.0,Clouds,few clouds,2
Füle,47.05,18.255278,2026-03-11 02:40:30.195504,4.21,2.2,4.21,4.21,1023,78,2.24,153,19,0.0,Clouds,few clouds,2
Zánka-Erzsébettábor,46.8775,17.709167,2026-03-11 02:40:31.372105,8.23,6.98,8.23,8.23,1022,53,2.18,162,20,0.0,Clouds,few clouds,2
Csajág,47.033889,18.186389,2026-03-11 02:40:32.543689,8.12,7.08,8.12,8.12,1023,79,1.92,155,19,0.0,Clouds,few clouds,2
Balatonakarattya,47.017222,18.167778,2026-03-11 02:40:33.722033,7.97,6.9,7.97,7.97,1023,79,1.92,155,19,0.0,Clouds,few clouds,2
Csittényhegy,47.025278,18.1375,2026-03-11 02:40:34.897148,8.19,7.29,8.19,8.19,1023,80,1.78,155,19,0.0,Clouds,few clouds,2
Balatonkenese,47.0325,18.105556,2026-03-11 02:40:36.069532,8.27,7.51,8.27,8.27,1022,80,1.65,155,19,0.0,Clouds,few clouds,2
Balatonfűzfő,47.060278,18.0425,2026-03-11 02:40:37.242560,8.3,7.9,8.3,8.3,1022,53,1.34,151,19,0.0,Clouds,few clouds,2
Balatonalmádi,47.028333,18.015,2026-03-11 02:40:38.418410,8.27,7.84,8.27,8.27,1022,53,1.36,153,19,0.0,Clouds,few clouds,2
Káptalanfüred,47.008889,18.003889,2026-03-11 02:40:39.591574,8.3,7.89,8.3,8.3,1022,53,1.35,156,18,0.0,Clouds,few clouds,2
Alsóörs,46.985278,17.974722,2026-03-11 02:40:40.764792,8.31,8.31,8.31,8.31,1022,53,0.89,90,18,0.0,Clouds,few clouds,2
Csopak,46.974722,17.931111,2026-03-11 02:40:41.945798,8.18,8.18,8.18,8.18,1022,53,0.89,90,18,0.0,Clouds,few clouds,2
Balatonarács,46.9625,17.8975,2026-03-11 02:40:43.117926,8.08,8.08,8.08,8.08,1022,53,0.89,90,18,0.0,Clouds,few clouds,2
Balatonfüred,46.955833,17.883056,2026-03-11 02:40:44.294782,8.15,8.15,8.15,8.15,1022,53,0.89,90,18,0.0,Clouds,few clouds,2
Aszófő,46.925556,17.8325,2026-03-11 02:40:45.464182,8.25,8.25,8.25,8.25,1022,53,0.89,90,18,0.0,Clouds,few clouds,2
Örvényes,46.9125,17.818056,2026-03-11 02:40:46.634629,8.27,8.27,8.27,8.27,1022,53,0.89,90,18,0.0,Clouds,few clouds,2
Balatonudvari,46.904722,17.808056,2026-03-11 02:40:47.806717,8.3,8.3,8.3,8.3,1022,53,0.89,90,18,0.0,Clouds,few clouds,2
Fövenyes,46.893611,17.789444,2026-03-11 02:40:49.012509,8.32,8.32,8.32,8.32,1022,53,0.89,90,18,0.0,Clouds,few clouds,2
Balatonakali-Dörgicse,46.88,17.747778,2026-03-11 02:40:50.182680,8.31,7.22,8.31,8.31,1022,53,2.0,163,19,0.0,Clouds,few clouds,2
Zánka-Köveskál,46.872778,17.687778,2026-03-11 02:40:51.354876,8.3,7.07,8.3,8.3,1022,53,2.16,159,21,0.0,Clouds,few clouds,2
Balatonszepezd,46.851111,17.663056,2026-03-11 02:40:52.539782,8.3,6.95,8.3,8.3,1022,53,2.31,163,22,0.0,Clouds,few clouds,2
Szepezdfürdő,46.839722,17.649444,2026-03-11 02:40:53.718906,8.27,6.96,8.27,8.27,1022,83,2.26,161,23,0.0,Clouds,few clouds,2
Révfülöp,46.829167,17.632222,2026-03-11 02:40:54.888729,8.28,6.97,8.28,8.28,1022,83,2.26,161,23,0.0,Clouds,few clouds,2
Balatonrendes,46.824722,17.582778,2026-03-11 02:40:56.060361,8.28,6.98,8.28,8.28,1022,83,2.25,158,28,0.0,Clouds,scattered clouds,2
Ábrahámhegy,46.815,17.572222,2026-03-11 02:40:57.228253,8.25,6.94,8.25,8.25,1022,83,2.25,158,28,0.0,Clouds,scattered clouds,2
Badacsonyörs,46.805556,17.531667,2026-03-11 02:40:58.401716,4.65,2.73,4.65,4.65,1022,83,2.23,156,30,0.0,Clouds,scattered clouds,2
Kisújszállás,47.223889,20.751111,2026-03-11 02:40:59.593518,3.6,0.73,3.6,3.6,1025,65,3.13,164,80,0.0,Clouds,broken clouds,2
Karcag,47.303333,20.928056,2026-03-11 02:41:00.768055,3.45,0.64,3.45,3.45,1025,65,3.0,166,78,0.0,Clouds,broken clouds,2
Püspökladány,47.3275,21.128889,2026-03-11 02:41:01.951854,3.49,0.95,3.49,3.49,1025,65,2.68,168,82,0.0,Clouds,broken clouds,2
Kaba,47.368889,21.259444,2026-03-11 02:41:03.123741,2.1,-0.38,2.1,2.1,1025,66,2.34,170,86,0.0,Clouds,overcast clouds,2
Hajdúszoboszló,47.429444,21.406944,2026-03-11 02:41:04.294751,2.09,0.57,2.09,2.09,1025,75,1.54,80,0,0.0,Clear,clear sky,2
Ebes,47.462778,21.488889,2026-03-11 02:41:05.469030,2.04,0.51,2.04,2.04,1025,75,1.54,80,0,0.0,Clear,clear sky,2
Debrecen,47.520278,21.628611,2026-03-11 02:41:06.637590,1.92,0.38,1.92,1.92,1025,75,1.54,80,0,0.0,Clear,clear sky,2
Debrecen-Csapókert,47.540556,21.648056,2026-03-11 02:41:07.823403,1.87,0.32,1.87,1.87,1025,75,1.54,80,0,0.0,Clear,clear sky,2
Apafa,47.584045,21.655858,2026-03-11 02:41:09.006253,1.83,0.27,1.83,1.83,1025,75,1.54,80,0,0.0,Clear,clear sky,2
Bocskaikert,47.6425,21.666389,2026-03-11 02:41:10.177999,1.76,0.19,1.76,1.76,1025,75,1.54,80,0,0.0,Clear,clear sky,2
Hajdúhadház,47.686944,21.679167,2026-03-11 02:41:11.348054,1.73,-1.04,1.73,1.73,1025,67,2.57,198,84,0.0,Clouds,broken clouds,2
Téglás,47.714722,21.684722,2026-03-11 02:41:12.529827,1.8,-1.04,1.8,1.8,1025,67,2.66,198,83,0.0,Clouds,broken clouds,2
Újfehértó,47.814444,21.706389,2026-03-11 02:41:13.706682,3.18,0.35,3.18,3.18,1025,67,2.96,200,77,0.0,Clouds,broken clouds,2
Nyíregyháza,47.946667,21.705556,2026-03-11 02:41:14.878166,3.37,0.4,3.37,3.37,1025,66,3.19,201,62,0.0,Clouds,broken clouds,2
Sóstó,47.998051,21.729047,2026-03-11 02:41:16.052631,9.26,7.49,9.26,9.26,1025,66,3.23,203,62,0.0,Clouds,broken clouds,2
Sóstóhegy,48.012222,21.742778,2026-03-11 02:41:17.228765,9.26,7.48,9.26,9.26,1025,66,3.24,203,58,0.0,Clouds,broken clouds,2
Kemecse,48.065556,21.801667,2026-03-11 02:41:18.403078,3.63,0.64,3.63,3.63,1025,66,3.29,205,54,0.0,Clouds,broken clouds,2
Nyírbogdány,48.082222,21.855278,2026-03-11 02:41:19.582513,3.65,0.67,3.65,3.65,1025,66,3.29,205,51,0.0,Clouds,broken clouds,2
Kék,48.093333,21.883889,2026-03-11 02:41:20.755771,3.71,0.81,3.71,3.71,1025,66,3.2,205,57,0.0,Clouds,broken clouds,2
Demecser,48.111667,21.926667,2026-03-11 02:41:21.936352,3.76,0.9,3.76,3.76,1025,66,3.16,204,53,0.0,Clouds,broken clouds,2
Gégény,48.128333,21.951944,2026-03-11 02:41:23.107696,3.78,0.96,3.78,3.78,1025,66,3.11,203,49,0.0,Clouds,scattered clouds,2
Pátroha,48.158611,21.996667,2026-03-11 02:41:24.283663,3.84,1.07,3.84,3.84,1025,66,3.05,201,46,0.0,Clouds,scattered clouds,2
Ajak,48.1865,22.048972,2026-03-11 02:41:25.469532,3.88,1.17,3.88,3.88,1025,66,2.99,199,45,0.0,Clouds,scattered clouds,2
Kisvárda,48.208333,22.078333,2026-03-11 02:41:26.641263,3.92,1.31,3.92,3.92,1025,66,2.87,192,49,0.0,Clouds,scattered clouds,2
Kisvárda-Hármasút,48.228333,22.091944,2026-03-11 02:41:27.818302,3.92,1.31,3.92,3.92,1025,66,2.87,192,49,0.0,Clouds,scattered clouds,2
Fényeslitke,48.267222,22.107222,2026-03-11 02:41:28.988975,3.91,1.35,3.91,3.91,1025,66,2.8,182,51,0.0,Clouds,broken clouds,2
Komoró,48.305278,22.118056,2026-03-11 02:41:30.168051,3.94,1.39,3.94,3.94,1025,67,2.8,177,51,0.0,Clouds,broken clouds,2
Tuzsér,48.342222,22.131667,2026-03-11 02:41:31.351233,3.89,1.29,3.89,3.89,1025,68,2.85,167,52,0.0,Clouds,broken clouds,2
Tiszabezdéd,48.371389,22.145,2026-03-11 02:41:32.526572,3.94,1.3,3.94,3.94,1025,68,2.91,158,59,0.0,Clouds,broken clouds,2
Záhony,48.402222,22.183611,2026-03-11 02:41:33.699999,3.95,1.25,3.95,3.95,1025,68,2.99,149,65,0.0,Clouds,broken clouds,2
Karcag-Vásártér,47.3225,20.9075,2026-03-11 02:41:34.876451,3.45,0.64,3.45,3.45,1025,65,3.0,166,78,0.0,Clouds,broken clouds,2
Berekfürdő,47.374722,20.827222,2026-03-11 02:41:36.048550,3.31,0.47,3.31,3.31,1025,65,3.01,166,68,0.0,Clouds,broken clouds,2
Kunmadaras,47.415278,20.793056,2026-03-11 02:41:37.221224,3.17,0.36,3.17,3.17,1025,66,2.93,167,60,0.0,Clouds,broken clouds,2
Tiszaszentimre,47.490833,20.733056,2026-03-11 02:41:38.398813,3.03,0.38,3.03,3.03,1025,66,2.71,168,48,0.0,Clouds,scattered clouds,2
Tiszaszőlős,47.555556,20.728056,2026-03-11 02:41:39.569617,3.03,0.48,3.03,3.03,1025,66,2.6,170,40,0.0,Clouds,scattered clouds,2
Hosszúhát,47.235556,21.101944,2026-03-11 02:41:40.740234,3.68,1.27,3.68,3.68,1025,65,2.58,166,90,0.0,Clouds,overcast clouds,2
Szerep,47.234444,21.145833,2026-03-11 02:41:41.912329,3.7,1.37,3.7,3.7,1025,65,2.49,166,91,0.0,Clouds,overcast clouds,2
Sárrétudvari,47.231667,21.180833,2026-03-11 02:41:43.090842,3.69,1.43,3.69,3.69,1025,65,2.41,166,91,0.0,Clouds,overcast clouds,2
Biharnagybajom,47.208889,21.221944,2026-03-11 02:41:44.263901,3.75,1.64,3.75,3.75,1025,65,2.26,166,94,0.0,Clouds,overcast clouds,2
Füzesgyarmat,47.113056,21.194444,2026-03-11 02:41:45.431999,3.97,1.83,3.97,3.97,1025,65,2.34,163,97,0.0,Clouds,overcast clouds,2
Füzesgyarmatfürdő,47.093787,21.201582,2026-03-11 02:41:46.601708,3.97,1.83,3.97,3.97,1025,65,2.34,163,97,0.0,Clouds,overcast clouds,2
Báránd,47.299722,21.235278,2026-03-11 02:41:47.775222,3.55,1.32,3.55,3.55,1025,66,2.35,168,89,0.0,Clouds,overcast clouds,2
Sáp,47.259722,21.360556,2026-03-11 02:41:48.958951,3.65,1.64,3.65,3.65,1025,66,2.15,167,93,0.0,Clouds,overcast clouds,2
Berettyóújfalu,47.211944,21.535556,2026-03-11 02:41:50.131678,3.88,2.06,3.88,3.88,1025,65,2.0,161,99,0.0,Clouds,overcast clouds,2
Mezőpeterd,47.176111,21.625278,2026-03-11 02:41:51.302130,3.28,1.42,3.28,3.28,1025,64,1.95,156,100,0.0,Clouds,overcast clouds,2
Biharkeresztes,47.135556,21.721389,2026-03-11 02:41:52.473111,3.25,0.33,3.25,3.25,1025,65,3.09,100,0,0.0,Clear,clear sky,2
Tócóvölgy,47.529444,21.588889,2026-03-11 02:41:53.645764,1.97,0.43,1.97,1.97,1025,75,1.54,80,0,0.0,Clear,clear sky,2
Sáregres,46.7825,18.588889,2026-03-11 02:41:54.819686,4.52,1.82,4.52,4.52,1023,71,3.15,165,12,0.0,Clouds,few clouds,2
Simontornya,46.756582,18.540674,2026-03-11 02:41:55.991820,4.47,1.94,4.47,4.47,1023,72,2.91,164,12,0.0,Clouds,few clouds,2
Tolnanémedi,46.727778,18.475833,2026-03-11 02:41:57.172655,4.55,2.16,4.55,4.55,1023,72,2.75,164,12,0.0,Clouds,few clouds,2
Pincehely,46.681389,18.43,2026-03-11 02:41:58.340808,4.45,2.42,4.45,4.45,1023,73,2.31,165,13,0.0,Clouds,few clouds,2
Keszőhidegkút-Gyönk,46.597778,18.426111,2026-03-11 02:41:59.510939,4.46,2.77,4.46,4.46,1023,73,1.97,163,13,0.0,Clouds,few clouds,2
Szárazd,46.575556,18.420833,2026-03-11 02:42:00.685223,4.49,2.9,4.49,4.49,1023,73,1.88,163,13,0.0,Clouds,few clouds,2
Regöly,46.568889,18.396111,2026-03-11 02:42:01.860699,4.49,2.9,4.49,4.49,1023,73,1.88,163,13,0.0,Clouds,few clouds,2
Szakály-Hőgyész,46.523611,18.389444,2026-03-11 02:42:03.052348,4.38,2.95,4.38,4.38,1023,73,1.73,165,16,0.0,Clouds,few clouds,2
Dúzs,46.493889,18.377222,2026-03-11 02:42:04.220034,4.4,3.0,4.4,4.4,1023,73,1.71,166,18,0.0,Clouds,few clouds,2
Csibrák,46.466667,18.336389,2026-03-11 02:42:05.395267,4.46,3.04,4.46,4.46,1023,74,1.73,170,20,0.0,Clouds,few clouds,2
Kurd,46.449167,18.319167,2026-03-11 02:42:06.573630,4.09,2.58,4.09,4.09,1023,74,1.76,172,23,0.0,Clouds,few clouds,2
Döbrököz,46.418889,18.255,2026-03-11 02:42:07.744888,4.38,2.78,4.38,4.38,1023,75,1.88,176,26,0.0,Clouds,scattered clouds,2
Dombóvár,46.37,18.149722,2026-03-11 02:42:09.031869,4.33,2.5,4.33,4.33,1023,76,2.08,181,28,0.0,Clouds,scattered clouds,2
Dombóvár alsó,46.363889,18.134167,2026-03-11 02:42:10.202905,4.33,2.5,4.33,4.33,1023,76,2.08,181,28,0.0,Clouds,scattered clouds,2
Somoskőújfalu,48.154722,19.815556,2026-03-11 02:42:11.376681,1.17,1.17,1.17,1.17,1024,75,1.08,137,61,0.0,Clouds,broken clouds,2
Jászfényszaru,47.593056,19.754444,2026-03-11 02:42:12.545888,3.63,1.74,3.63,3.63,1024,71,2.03,112,52,0.0,Clouds,broken clouds,2
Pusztamonostor,47.564444,19.794167,2026-03-11 02:42:13.718053,3.55,1.72,3.55,3.55,1024,70,1.96,117,47,0.0,Clouds,scattered clouds,2
Jászberény,47.494444,19.893333,2026-03-11 02:42:14.892700,3.4,1.54,3.4,3.4,1024,69,1.97,135,34,0.0,Clouds,scattered clouds,2
Meggyespele,47.441944,19.938889,2026-03-11 02:42:16.072161,3.3,1.17,3.3,3.3,1024,69,2.21,146,31,0.0,Clouds,scattered clouds,2
Portelek,47.418056,19.958889,2026-03-11 02:42:17.243803,3.25,1.01,3.25,3.25,1024,69,2.31,149,32,0.0,Clouds,scattered clouds,2
Jászboldogháza-Jánoshida,47.366944,20.001389,2026-03-11 02:42:18.415423,3.19,0.71,3.19,3.19,1024,68,2.55,155,37,0.0,Clouds,scattered clouds,2
Jászárokszállás,47.635556,19.971111,2026-03-11 02:42:19.589074,3.52,2.06,3.52,3.52,1024,69,1.65,111,43,0.0,Clouds,scattered clouds,2
Jászdózsa,47.563056,20.028056,2026-03-11 02:42:20.758169,3.45,1.91,3.45,3.45,1024,69,1.7,125,33,0.0,Clouds,scattered clouds,2
Jászapáti,47.513611,20.155,2026-03-11 02:42:21.928440,3.36,1.5,3.36,3.36,1024,67,1.96,141,29,0.0,Clouds,scattered clouds,2
Jászkisér,47.456111,20.203333,2026-03-11 02:42:23.102045,3.36,1.21,3.36,3.36,1024,67,2.24,148,31,0.0,Clouds,scattered clouds,2
Jászladány,47.373333,20.159167,2026-03-11 02:42:24.275334,3.01,0.37,3.01,3.01,1024,67,2.69,155,42,0.0,Clouds,scattered clouds,2
Szászberek,47.320556,20.090833,2026-03-11 02:42:25.457009,3.01,0.21,3.01,3.88,1024,67,2.88,158,49,0.0,Clouds,scattered clouds,2
Gyöngyöshalász,47.743056,19.932222,2026-03-11 02:42:26.634966,3.39,1.99,3.39,3.39,1024,70,1.59,105,63,0.0,Clouds,broken clouds,2
Gyöngyös,47.783056,19.937222,2026-03-11 02:42:27.816293,2.98,1.7,2.98,2.98,1024,70,1.46,112,64,0.0,Clouds,broken clouds,2
Erdőtelek,47.683333,20.3025,2026-03-11 02:42:29.135845,3.13,1.77,3.13,3.13,1024,66,1.53,146,33,0.0,Clouds,scattered clouds,2
Heves,47.609444,20.306111,2026-03-11 02:42:30.316753,3.21,1.54,3.21,3.21,1024,67,1.78,147,30,0.0,Clouds,scattered clouds,2
Hevesvezekény,47.562222,20.365833,2026-03-11 02:42:31.489700,3.17,1.27,3.17,3.17,1024,66,1.97,152,31,0.0,Clouds,scattered clouds,2
Tarnaszentmiklós,47.546944,20.390833,2026-03-11 02:42:32.667536,3.17,1.16,3.17,3.17,1024,67,2.07,153,32,0.0,Clouds,scattered clouds,2
Kisköre,47.495556,20.481667,2026-03-11 02:42:33.846016,2.95,0.55,2.95,2.95,1024,67,2.42,159,42,0.0,Clouds,scattered clouds,2
Abádszalók,47.455278,20.553056,2026-03-11 02:42:35.026175,2.8,0.26,2.8,2.8,1024,67,2.54,161,47,0.0,Clouds,scattered clouds,2
Kunhegyes,47.376667,20.641111,2026-03-11 02:42:36.195690,3.07,0.27,3.07,3.07,1025,66,2.9,164,60,0.0,Clouds,broken clouds,2
Kenderes,47.254444,20.686111,2026-03-11 02:42:37.366777,3.51,0.6,3.51,3.51,1025,65,3.15,163,75,0.0,Clouds,broken clouds,2
Maklár,47.808056,20.404722,2026-03-11 02:42:38.538523,7.91,7.18,7.91,7.91,1024,67,1.58,163,28,0.0,Clouds,scattered clouds,2
Andornaktálya,47.852203,20.402295,2026-03-11 02:42:39.709551,7.85,7.16,7.85,7.85,1024,67,1.53,164,31,0.0,Clouds,scattered clouds,2
Eger,47.891667,20.381667,2026-03-11 02:42:40.881885,7.76,6.96,7.76,8.9,1024,68,1.62,152,41,0.0,Clouds,scattered clouds,2
Egervár,47.908056,20.380556,2026-03-11 02:42:42.061188,7.58,6.75,7.58,8.71,1024,54,1.62,151,43,0.0,Clouds,scattered clouds,2
Eger-Felnémet,47.936667,20.370556,2026-03-11 02:42:43.232723,7.63,6.8,7.63,8.77,1024,54,1.63,151,45,0.0,Clouds,scattered clouds,2
Szarvaskő,47.988611,20.3325,2026-03-11 02:42:44.405292,7.22,6.19,7.22,8.36,1024,54,1.76,147,53,0.0,Clouds,broken clouds,2
Mónosbél,48.031944,20.33,2026-03-11 02:42:45.580308,7.04,6.05,7.04,8.18,1024,54,1.7,150,56,0.0,Clouds,broken clouds,2
Bélapátfalva,48.055556,20.340556,2026-03-11 02:42:46.755860,6.75,5.78,6.75,7.88,1024,54,1.64,151,57,0.0,Clouds,broken clouds,2
Bélapátfalvi Cementgyár,48.058056,20.355,2026-03-11 02:42:47.929169,6.7,5.72,6.7,7.84,1024,54,1.64,151,57,0.0,Clouds,broken clouds,2
Szilvásvárad,48.11345,20.37919,2026-03-11 02:42:49.098417,6.57,5.94,6.57,7.71,1024,54,1.34,160,57,0.0,Clouds,broken clouds,2
Hejőkeresztúr,47.960278,20.869444,2026-03-11 02:42:50.265697,9.05,7.36,9.05,9.25,1024,53,3.02,211,27,0.0,Clouds,scattered clouds,2
Tiszaújváros,47.926111,21.030556,2026-03-11 02:42:51.435925,9.1,7.35,9.1,9.1,1024,67,3.13,200,24,0.0,Clouds,few clouds,2
Miskolc-Gömöri,48.106667,20.800278,2026-03-11 02:42:52.608275,8.99,7.77,8.0,9.14,1024,69,2.31,203,39,0.0,Clouds,scattered clouds,2
Sajókeresztúr,48.168008,20.774014,2026-03-11 02:42:53.778114,8.95,8.07,7.95,9.09,1024,70,1.89,194,44,0.0,Clouds,scattered clouds,2
Sajóecseg,48.186111,20.766667,2026-03-11 02:42:54.946638,8.98,8.24,7.99,9.13,1024,70,1.74,187,45,0.0,Clouds,scattered clouds,2
Sajószentpéter,48.222222,20.708056,2026-03-11 02:42:56.122835,8.89,8.39,7.89,9.03,1024,71,1.49,183,49,0.0,Clouds,scattered clouds,2
Kazincbarcika,48.264444,20.6275,2026-03-11 02:42:57.309593,8.91,8.91,7.9,9.04,1024,69,0.84,175,60,0.0,Clouds,broken clouds,2
Sajókaza,48.272778,20.581944,2026-03-11 02:42:58.480915,8.19,8.19,7.89,9.03,1024,70,0.77,176,61,0.0,Clouds,broken clouds,2
Vadna,48.276389,20.555278,2026-03-11 02:42:59.652635,8.02,8.02,7.87,9.01,1024,70,0.77,176,61,0.0,Clouds,broken clouds,2
Dubicsány,48.280833,20.504722,2026-03-11 02:43:00.822761,7.96,7.96,7.86,8.99,1024,70,0.67,177,63,0.0,Clouds,broken clouds,2
Raposka,46.851389,17.412778,2026-03-11 02:43:01.991895,4.06,1.87,4.06,4.06,1022,84,2.41,152,33,0.0,Clouds,scattered clouds,2
Ivacs,47.641944,19.273889,2026-03-11 02:43:03.164311,6.93,5.58,5.74,6.94,1023,51,2.04,123,84,0.0,Clouds,broken clouds,2
Kisköre-Tiszahíd,47.480835,20.507698,2026-03-11 02:43:04.339238,2.94,0.45,2.94,2.94,1024,67,2.51,159,45,0.0,Clouds,scattered clouds,2
Rozsály,47.912778,22.7825,2026-03-11 02:43:05.512274,0.03,-2.13,0.03,0.03,1026,66,1.78,126,51,0.0,Clouds,broken clouds,2
Pusztakettős,47.453611,20.749722,2026-03-11 02:43:06.679776,3.1,0.34,3.1,3.1,1025,66,2.85,167,56,0.0,Clouds,broken clouds,2
Kisvác,47.795278,19.113611,2026-03-11 02:43:07.861068,4.37,2.49,4.37,4.37,1023,77,2.14,122,77,0.0,Clouds,broken clouds,2
Tiszafüred-Gyártelep,47.6075,20.736111,2026-03-11 02:43:09.030967,3.04,0.6,3.04,3.04,1025,66,2.48,172,33,0.0,Clouds,scattered clouds,2
Újkenéz,48.251111,22.221667,2026-03-11 02:43:10.201741,3.96,1.48,3.96,3.96,1026,65,2.72,172,67,0.0,Clouds,broken clouds,2
Püspökladány-Vásártér,47.319167,21.096111,2026-03-11 02:43:11.370293,3.54,1.04,3.54,3.54,1025,65,2.65,167,84,0.0,Clouds,broken clouds,2
Végegyháza alsó,46.3675,20.866944,2026-03-11 02:43:12.543644,8.38,6.63,8.38,8.38,1025,62,2.9,155,99,0.0,Clouds,overcast clouds,2
Orosháza felső,46.553611,20.655278,2026-03-11 02:43:13.718574,4.97,2.4,4.97,4.97,1025,62,3.09,157,100,0.0,Clouds,overcast clouds,2
Ambrózfalva,46.353056,20.740556,2026-03-11 02:43:14.888771,5.17,2.69,5.17,5.17,1025,62,3.03,153,99,0.0,Clouds,overcast clouds,2
Alsónyék,46.199444,18.738056,2026-03-11 02:43:16.060746,9.71,8.56,9.71,9.71,1023,70,2.38,174,51,0.0,Clouds,broken clouds,2
Tompapuszta,46.321389,20.966389,2026-03-11 02:43:17.231687,8.29,6.56,5.06,8.37,1025,100,2.84,155,98,0.0,Clouds,overcast clouds,2
Halászlak,46.911879,20.56228,2026-03-11 02:43:18.405215,4.37,1.58,4.37,4.37,1025,64,3.23,162,91,0.0,Clouds,overcast clouds,2
Sirató,46.840556,20.61,2026-03-11 02:43:19.587093,4.57,1.86,4.57,4.57,1025,63,3.18,161,95,0.0,Clouds,overcast clouds,2
Csabacsűd felső,46.829167,20.649167,2026-03-11 02:43:20.761770,4.54,1.84,4.54,4.54,1025,63,3.15,161,96,0.0,Clouds,overcast clouds,2
Orosháza-Üveggyár,46.579979,20.683644,2026-03-11 02:43:21.934876,4.91,2.36,4.91,4.91,1025,62,3.05,158,100,0.0,Clouds,overcast clouds,2
Gyulai városerdő,46.69482,21.32281,2026-03-11 02:43:23.113197,4.62,2.64,4.62,4.62,1025,62,2.29,153,100,0.0,Clouds,overcast clouds,2
Kórógyszentgyörgy,46.564377,20.224998,2026-03-11 02:43:24.289121,9.45,7.7,6.69,9.45,1024,40,3.26,156,86,0.0,Clouds,overcast clouds,2
Kunszállás,46.784444,19.767222,2026-03-11 02:43:25.461832,5.81,3.8,5.04,6.53,1024,56,2.57,160,0,0.0,Clear,clear sky,2
Selymes,46.655321,19.8534,2026-03-11 02:43:26.632943,6.11,3.51,6.11,6.59,1024,55,3.51,158,54,0.0,Clouds,broken clouds,2
Petőfiszállási tanyák,46.587805,19.874509,2026-03-11 02:43:27.802772,6.15,3.55,6.15,6.63,1024,55,3.52,157,61,0.0,Clouds,broken clouds,2
Kisteleki szőlők,46.514199,19.92868,2026-03-11 02:43:28.980283,6.14,3.55,6.14,6.62,1024,60,3.49,157,73,0.0,Clouds,broken clouds,2
Kapitányság,46.435336,19.987564,2026-03-11 02:43:30.150197,8.91,6.99,8.91,8.91,1024,51,3.37,155,82,0.0,Clouds,broken clouds,2
Őszeszék,46.39025,20.016017,2026-03-11 02:43:31.320791,8.94,7.06,8.94,8.94,1024,51,3.3,154,87,0.0,Clouds,overcast clouds,2
Vilmaszállás,46.366389,20.030833,2026-03-11 02:43:32.497594,8.92,6.27,8.92,8.92,1024,51,4.92,167,88,0.0,Clouds,overcast clouds,2
Jánosszállás,46.334359,20.051199,2026-03-11 02:43:33.667428,8.95,7.09,8.95,8.95,1024,51,3.28,153,90,0.0,Clouds,overcast clouds,2
Felsőpakony,47.343056,19.230556,2026-03-11 02:43:34.835694,7.31,5.93,6.13,7.34,1023,51,2.14,145,44,0.0,Clouds,scattered clouds,2
Felsőméntelek,46.987074,19.557745,2026-03-11 02:43:36.011033,4.88,2.7,4.88,4.88,1024,60,2.57,160,0,0.0,Clear,clear sky,2
Alsóméntelek,46.961558,19.579121,2026-03-11 02:43:37.182603,4.91,2.73,4.91,4.91,1024,60,2.57,160,0,0.0,Clear,clear sky,2
Nagynyír,46.943319,19.585447,2026-03-11 02:43:38.355956,4.9,2.72,4.9,4.9,1024,60,2.57,160,0,0.0,Clear,clear sky,2
Úrihegy,46.917778,19.621389,2026-03-11 02:43:39.526839,4.93,2.76,4.93,5.93,1024,60,2.57,160,0,0.0,Clear,clear sky,2
Miklóstelep,46.913412,19.630913,2026-03-11 02:43:40.698405,4.94,2.77,4.94,5.95,1024,60,2.57,160,0,0.0,Clear,clear sky,2
Tiszajenő alsó,47.016944,20.134444,2026-03-11 02:43:41.873707,3.9,0.76,3.02,3.9,1024,73,3.6,140,0,0.0,Clear,clear sky,2
Óbög,46.987222,20.111111,2026-03-11 02:43:43.043824,3.61,0.41,3.01,5.17,1024,72,3.6,140,0,0.0,Clear,clear sky,2
Árpádszállás,46.866456,19.989163,2026-03-11 02:43:44.215953,5.42,3.34,5.1,6.59,1024,58,2.57,160,0,0.0,Clear,clear sky,2
Tőserdő,46.851111,19.980278,2026-03-11 02:43:45.385122,6.19,4.25,5.12,6.61,1024,55,2.57,160,0,0.0,Clear,clear sky,2
Tiszaalpár felső,46.836256,19.976753,2026-03-11 02:43:46.556698,6.25,4.33,5.14,6.63,1024,54,2.57,160,0,0.0,Clear,clear sky,2
Borsihalom,46.773056,19.92,2026-03-11 02:43:47.735557,6.16,3.61,5.13,6.62,1024,55,3.44,160,60,0.0,Clouds,broken clouds,2
Petőfiváros,46.725556,19.848611,2026-03-11 02:43:48.908227,6.1,3.51,5.1,6.59,1024,55,3.49,159,51,0.0,Clouds,broken clouds,2
Csorna,47.601944,17.248889,2026-03-11 02:43:50.080298,5.56,2.6,5.56,5.56,1021,82,3.91,176,17,0.0,Clouds,few clouds,2
Szorgalmatos,47.986667,21.366389,2026-03-11 02:43:51.254499,9.31,7.71,9.31,9.31,1025,68,2.95,197,29,0.0,Clouds,scattered clouds,2
Fótfürdő,47.6225,19.200556,2026-03-11 02:43:52.422327,6.87,5.69,5.74,6.94,1023,55,1.85,126,90,0.0,Clouds,overcast clouds,2
Fenyveshegy,47.818333,19.068056,2026-03-11 02:43:53.591992,4.6,2.79,4.6,4.6,1023,78,2.11,120,75,0.0,Clouds,broken clouds,2
Hűvösvölgy,47.541202,18.96351,2026-03-11 02:43:54.765890,5.69,5.69,5.28,6.48,1023,59,0.89,190,93,0.0,Clouds,overcast clouds,2
Hárshegy,47.535318,18.961433,2026-03-11 02:43:55.928542,5.69,5.69,5.28,6.48,1023,59,0.89,190,93,0.0,Clouds,overcast clouds,2
Szépjuhászné,47.528277,18.955246,2026-03-11 02:43:57.098373,4.79,4.79,4.39,5.59,1023,59,0.89,190,92,0.0,Clouds,overcast clouds,2
Jánoshegy,47.51433,18.95047,2026-03-11 02:43:58.279912,4.7,4.7,4.3,5.5,1023,59,0.89,190,92,0.0,Clouds,overcast clouds,2
Virágvölgy,47.505965,18.95876,2026-03-11 02:43:59.451685,4.39,4.39,3.99,5.19,1023,59,0.89,190,90,0.0,Clouds,overcast clouds,2
Csillebérc,47.498196,18.961694,2026-03-11 02:44:00.629938,4.16,4.16,3.75,4.96,1023,59,0.89,190,90,0.0,Clouds,overcast clouds,2
Normafa,47.5,18.970558,2026-03-11 02:44:01.802191,4.21,4.21,3.8,5.01,1023,59,0.89,190,90,0.0,Clouds,overcast clouds,2
Széchenyihegy,47.49413,18.977049,2026-03-11 02:44:02.978498,4.23,4.23,3.82,5.03,1023,59,0.89,190,90,0.0,Clouds,overcast clouds,2
Balatonfőkajár felső,47.031389,18.215278,2026-03-11 02:44:04.148668,7.95,6.76,7.95,7.95,1023,78,2.05,155,18,0.0,Clouds,few clouds,2
Piroska,47.148333,20.129722,2026-03-11 02:44:05.324563,3.9,0.76,3.02,3.9,1024,73,3.6,140,0,0.0,Clear,clear sky,2
Somodor,46.4725,17.836667,2026-03-11 02:44:06.496937,4.25,1.54,4.25,4.25,1023,82,3.09,182,17,0.0,Clouds,few clouds,2
Középmező,45.995833,18.668889,2026-03-11 02:44:07.669432,9.7,9.19,9.7,9.7,1024,48,1.61,150,71,0.0,Clouds,broken clouds,2
Jobbágyi,47.828889,19.6875,2026-03-11 02:44:08.840649,3.64,1.68,3.64,3.64,1024,73,2.1,114,78,0.0,Clouds,broken clouds,2
Ferihegy,47.437222,19.223889,2026-03-11 02:44:10.018694,7.15,6.01,5.97,7.18,1023,54,1.86,138,69,0.0,Clouds,broken clouds,2
Máriapócs,47.852778,22.019167,2026-03-11 02:44:11.196570,3.4,0.98,3.4,3.4,1025,65,2.53,199,94,0.0,Clouds,overcast clouds,2
Máriaudvar,47.751944,19.165,2026-03-11 02:44:12.368124,4.59,2.83,4.59,4.59,1023,75,2.06,122,82,0.0,Clouds,broken clouds,2
Nagyberki,46.353333,18.004167,2026-03-11 02:44:13.549895,4.2,2.13,4.2,4.2,1023,79,2.31,183,22,0.0,Clouds,few clouds,2
Badacsonytomaj,46.804722,17.518056,2026-03-11 02:44:14.721083,4.65,2.73,4.65,4.65,1022,83,2.23,156,30,0.0,Clouds,scattered clouds,2
Badacsony,46.788611,17.506389,2026-03-11 02:44:15.891621,4.11,2.05,4.11,4.11,1022,83,2.28,159,32,0.0,Clouds,scattered clouds,2
Badacsonylábdihegy,46.793889,17.470833,2026-03-11 02:44:17.060512,4.08,2.01,4.08,4.08,1022,83,2.28,159,32,0.0,Clouds,scattered clouds,2
Badacsonytördemic-Szigliget,46.809722,17.469167,2026-03-11 02:44:18.228757,4.03,1.98,4.03,4.03,1022,84,2.25,155,31,0.0,Clouds,scattered clouds,2
Nemesgulács-Kisapáti,46.836944,17.476389,2026-03-11 02:44:19.399742,4.07,2.04,4.07,4.07,1022,84,2.24,151,30,0.0,Clouds,scattered clouds,2
Tapolca,46.877778,17.428611,2026-03-11 02:44:20.568266,3.99,1.72,3.99,3.99,1022,85,2.48,148,30,0.0,Clouds,scattered clouds,2
Uzsabánya alsó,46.898333,17.345278,2026-03-11 02:44:21.742978,3.79,1.25,3.79,3.79,1022,85,2.75,149,27,0.0,Clouds,scattered clouds,2
Uzsa,46.920278,17.331667,2026-03-11 02:44:22.914858,3.75,1.12,3.75,3.75,1022,85,2.85,148,24,0.0,Clouds,few clouds,2
Sümegi Bazaltbánya,46.9525,17.2925,2026-03-11 02:44:24.083444,4.31,1.66,4.31,4.31,1022,85,3.02,149,20,0.0,Clouds,few clouds,2
Sümeg,46.981111,17.270833,2026-03-11 02:44:25.258370,4.47,1.71,4.47,4.47,1022,85,3.22,153,17,0.0,Clouds,few clouds,2
Gógánfa,47.021111,17.207778,2026-03-11 02:44:26.426873,4.46,1.63,4.46,4.46,1022,85,3.32,155,12,0.0,Clouds,few clouds,2
Ukk,47.041944,17.195833,2026-03-11 02:44:27.597721,4.5,1.66,4.5,4.5,1022,85,3.34,158,11,0.0,Clouds,few clouds,2
Nemeskeresztúr,47.093611,17.183611,2026-03-11 02:44:28.770057,4.46,1.59,4.46,4.46,1022,84,3.37,160,9,0.0,Clear,clear sky,2
Jánosháza,47.115833,17.171667,2026-03-11 02:44:29.939650,4.55,1.7,4.55,4.55,1021,84,3.38,161,8,0.0,Clear,clear sky,2
Keszthely,46.758333,17.248056,2026-03-11 02:44:31.115337,4.08,2.84,4.08,4.08,1022,93,1.54,80,0,0.0,Clear,clear sky,2
Alsógyenes,46.765844,17.276435,2026-03-11 02:44:32.285125,4.08,2.84,4.08,4.08,1022,93,1.54,80,0,0.0,Clear,clear sky,2
Gyenesdiás,46.763333,17.292778,2026-03-11 02:44:33.457677,4.08,2.84,4.08,4.08,1022,93,1.54,80,0,0.0,Clear,clear sky,2
Vonyarcvashegy,46.755278,17.318333,2026-03-11 02:44:34.629067,4.09,2.86,4.09,4.09,1022,93,1.54,80,0,0.0,Clear,clear sky,2
Balatongyörök,46.751944,17.354444,2026-03-11 02:44:35.799101,4.11,2.88,4.11,4.11,1022,93,1.54,80,0,0.0,Clear,clear sky,2
Becehegy,46.776111,17.372778,2026-03-11 02:44:36.975287,4.08,2.84,4.08,4.08,1022,93,1.54,80,0,0.0,Clear,clear sky,2
Balatonederics,46.8025,17.385,2026-03-11 02:44:38.148913,4.03,1.8,4.03,4.03,1022,85,2.45,156,36,0.0,Clouds,scattered clouds,2
Dabronc,47.025766,17.167006,2026-03-11 02:44:39.322909,4.48,1.65,4.48,4.48,1022,85,3.32,157,13,0.0,Clouds,few clouds,2
Türje,46.994444,17.093611,2026-03-11 02:44:40.498669,4.41,1.61,4.41,4.41,1022,85,3.26,161,17,0.0,Clouds,few clouds,2
Zalabér-Batyk,46.983056,17.040833,2026-03-11 02:44:41.678817,4.45,1.75,4.45,4.45,1021,84,3.13,169,20,0.0,Clouds,few clouds,2
Pakod,46.959167,16.996667,2026-03-11 02:44:42.850253,4.32,1.63,4.32,4.32,1021,84,3.08,172,20,0.0,Clouds,few clouds,2
Pókaszepetk,46.924444,16.972222,2026-03-11 02:44:44.025879,4.42,1.73,4.42,4.42,1022,84,3.11,173,25,0.0,Clouds,scattered clouds,2
Kemendollár,46.905833,16.946667,2026-03-11 02:44:45.197445,3.91,1.14,3.91,3.91,1021,85,3.07,176,24,0.0,Clouds,few clouds,2
Zalaegerszeg,46.833056,16.848333,2026-03-11 02:44:46.368592,3.73,1.19,3.73,3.73,1021,85,2.74,189,20,0.0,Clouds,few clouds,2
Bocfölde,46.780278,16.853611,2026-03-11 02:44:47.544994,3.79,1.22,3.79,3.79,1022,85,2.79,186,28,0.0,Clouds,scattered clouds,2
Sárhida,46.755833,16.851389,2026-03-11 02:44:48.716387,3.75,1.32,3.75,3.75,1022,85,2.61,187,28,0.0,Clouds,scattered clouds,2
Bak,46.7325,16.849167,2026-03-11 02:44:49.910523,3.77,1.38,3.77,3.77,1022,85,2.57,186,31,0.0,Clouds,scattered clouds,2
Tófej,46.670833,16.801944,2026-03-11 02:44:51.089026,3.61,1.42,3.61,3.61,1022,84,2.32,185,40,0.0,Clouds,scattered clouds,2
Gutorfölde,46.646944,16.739722,2026-03-11 02:44:52.261597,3.59,1.62,3.59,3.59,1021,84,2.1,184,48,0.0,Clouds,scattered clouds,2
Csömödér-Páka,46.608056,16.641111,2026-03-11 02:44:53.441549,9.07,7.97,5.57,9.07,1021,83,2.17,184,66,0.0,Clouds,broken clouds,2
Iklódbördőce,46.603056,16.604722,2026-03-11 02:44:54.625372,9.07,7.88,5.56,9.07,1021,83,2.29,189,68,0.0,Clouds,broken clouds,2
Lenti,46.621389,16.528611,2026-03-11 02:44:55.798276,9.01,7.78,5.51,9.01,1021,84,2.32,195,63,0.0,Clouds,broken clouds,2
Rédics,46.618056,16.471111,2026-03-11 02:44:56.969102,9.01,7.76,5.5,9.01,1021,84,2.35,198,63,0.0,Clouds,broken clouds,2
Zalalövő,46.845556,16.576389,2026-03-11 02:44:58.142176,3.6,1.37,3.6,3.6,1021,87,2.36,204,30,0.0,Clouds,scattered clouds,2
Zalaegerszeg-Ola,46.849167,16.844722,2026-03-11 02:44:59.310337,4.02,1.53,4.02,4.02,1021,85,2.74,189,20,0.0,Clouds,few clouds,2
Andráshida,46.863116,16.7792,2026-03-11 02:45:00.484934,3.94,1.47,3.94,3.94,1021,86,2.7,191,16,0.0,Clouds,few clouds,2
Bagod,46.875,16.746111,2026-03-11 02:45:01.651566,4.0,1.65,4.0,4.0,1021,86,2.58,196,14,0.0,Clouds,few clouds,2
Zalaszentgyörgy,46.872222,16.7125,2026-03-11 02:45:02.879038,3.91,1.57,3.91,3.91,1021,86,2.54,198,15,0.0,Clouds,few clouds,2
Zalacséb-Salomvár,46.858056,16.662222,2026-03-11 02:45:04.049891,3.64,1.28,3.64,3.64,1021,86,2.51,200,17,0.0,Clouds,few clouds,2
Kópháza,47.631389,16.6375,2026-03-11 02:45:05.223380,5.11,2.34,5.11,5.11,1020,82,3.44,185,11,0.0,Clouds,few clouds,2
Nagycenk,47.601111,16.690278,2026-03-11 02:45:06.395839,5.22,2.32,5.22,5.22,1020,82,3.68,184,10,0.0,Clear,clear sky,2
Sopronkövesd,47.548333,16.748056,2026-03-11 02:45:07.564707,5.05,1.97,5.05,5.05,1020,82,3.92,181,10,0.0,Clear,clear sky,2
Lövő,47.509444,16.7775,2026-03-11 02:45:08.743134,5.09,1.94,5.09,5.09,1020,83,4.05,178,10,0.0,Clear,clear sky,2
Újkér,47.457778,16.786667,2026-03-11 02:45:09.918501,4.58,1.45,4.58,4.58,1021,83,3.82,181,9,0.0,Clear,clear sky,2
Bük,47.388611,16.752222,2026-03-11 02:45:11.089903,4.53,1.64,4.53,4.53,1021,84,3.42,190,9,0.0,Clear,clear sky,2
Acsád,47.308333,16.734722,2026-03-11 02:45:12.262932,4.12,1.28,4.12,4.12,1021,85,3.23,197,10,0.0,Clear,clear sky,2
Salköveskút-Vassurány,47.291389,16.704167,2026-03-11 02:45:13.448194,4.11,1.27,4.11,4.11,1021,85,3.22,198,10,0.0,Clear,clear sky,2
Zalaszentiván,46.8875,16.909444,2026-03-11 02:45:14.616267,3.89,1.2,3.89,3.89,1021,85,2.96,183,21,0.0,Clouds,few clouds,2
Alsónemesapáti,46.854167,16.936389,2026-03-11 02:45:15.789154,3.88,1.08,3.88,3.88,1022,85,3.11,178,29,0.0,Clouds,scattered clouds,2
Józsa,47.600833,21.584444,2026-03-11 02:45:16.966195,1.86,0.31,1.86,1.86,1025,75,1.54,80,0,0.0,Clear,clear sky,2
Hajdúszentgyörgy,47.608056,21.578333,2026-03-11 02:45:18.145082,1.83,0.27,1.83,1.83,1025,75,1.54,80,0,0.0,Clear,clear sky,2
Zelemér,47.627778,21.578333,2026-03-11 02:45:19.316286,1.78,0.22,1.78,1.78,1025,75,1.54,80,0,0.0,Clear,clear sky,2
Hajdúböszörmény,47.668056,21.524167,2026-03-11 02:45:20.485250,1.81,-1.06,1.81,1.81,1025,67,2.69,192,69,0.0,Clouds,broken clouds,2
Hajdúvid,47.749444,21.508056,2026-03-11 02:45:21.652895,3.12,0.3,3.12,3.12,1025,67,2.93,193,59,0.0,Clouds,broken clouds,2
Hajdúdorog,47.805556,21.493056,2026-03-11 02:45:22.828825,3.17,0.27,3.17,3.17,1025,67,3.05,194,54,0.0,Clouds,broken clouds,2
Hajdúnánás,47.831944,21.426667,2026-03-11 02:45:24.077048,3.27,0.36,3.27,3.27,1025,67,3.09,194,45,0.0,Clouds,scattered clouds,2
Hajdúnánás-Vásártér,47.843056,21.407222,2026-03-11 02:45:25.245005,3.27,0.36,3.27,3.27,1025,67,3.09,194,45,0.0,Clouds,scattered clouds,2
Tedej,47.903611,21.404444,2026-03-11 02:45:26.417255,9.32,7.62,9.32,9.32,1025,67,3.12,195,37,0.0,Clouds,scattered clouds,2
Tiszavasvári,47.945278,21.374722,2026-03-11 02:45:27.594216,9.32,7.65,9.32,9.32,1025,67,3.08,196,33,0.0,Clouds,scattered clouds,2
Egyházerdő,47.9725,21.365,2026-03-11 02:45:28.766584,9.34,7.7,9.34,9.34,1025,68,3.03,196,31,0.0,Clouds,scattered clouds,2
Tiszalök,48.013056,21.369167,2026-03-11 02:45:29.945067,9.31,7.76,9.31,9.31,1025,68,2.87,197,28,0.0,Clouds,scattered clouds,2
Hajnalos,47.998889,21.414167,2026-03-11 02:45:31.114652,9.32,7.71,9.32,9.32,1025,68,2.98,197,31,0.0,Clouds,scattered clouds,2
Kisfástanya,47.989167,21.47,2026-03-11 02:45:32.283854,9.29,7.66,9.29,9.29,1025,68,3.0,198,33,0.0,Clouds,scattered clouds,2
Tiszaeszlár,48.010556,21.491944,2026-03-11 02:45:33.458575,9.3,7.69,9.3,9.3,1025,68,2.97,199,32,0.0,Clouds,scattered clouds,2
Bashalom,48.026111,21.514722,2026-03-11 02:45:34.644523,9.27,7.71,9.27,9.27,1025,68,2.88,201,30,0.0,Clouds,scattered clouds,2
Sáránd,47.415556,21.625,2026-03-11 02:45:35.813555,2.01,0.48,2.01,2.01,1025,75,1.54,80,0,0.0,Clear,clear sky,2
Derecske,47.365,21.584167,2026-03-11 02:45:36.983967,2.08,0.56,2.08,2.08,1025,75,1.54,80,0,0.0,Clear,clear sky,2
Derecske-Vásártér,47.352222,21.58,2026-03-11 02:45:38.156153,2.08,0.56,2.08,2.08,1025,75,1.54,80,0,0.0,Clear,clear sky,2
Konyár,47.323611,21.666111,2026-03-11 02:45:39.325051,2.05,0.52,2.05,2.05,1025,75,1.54,80,0,0.0,Clear,clear sky,2
Konyári Sóstófürdő,47.324167,21.744444,2026-03-11 02:45:40.495910,2.06,0.35,2.06,2.06,1025,65,1.67,154,99,0.0,Clouds,overcast clouds,2
Pocsaj-Esztár,47.288333,21.793056,2026-03-11 02:45:41.682295,2.05,0.43,2.05,2.05,1025,65,1.61,144,100,0.0,Clouds,overcast clouds,2
Kismarja,47.243889,21.813889,2026-03-11 02:45:42.853617,3.24,1.72,3.24,3.24,1025,64,1.66,140,99,0.0,Clouds,overcast clouds,2
Nagykereki,47.191667,21.8,2026-03-11 02:45:44.086114,3.23,1.64,3.23,3.23,1025,63,1.72,138,98,0.0,Clouds,overcast clouds,2
Debrecen-Szabadságtelep,47.527778,21.658611,2026-03-11 02:45:45.258014,1.89,0.34,1.89,1.89,1025,75,1.54,80,0,0.0,Clear,clear sky,2
Kondoroskert,47.525556,21.713889,2026-03-11 02:45:46.433510,1.92,0.38,1.92,1.92,1025,75,1.54,80,0,0.0,Clear,clear sky,2
Nagycsere,47.523889,21.763056,2026-03-11 02:45:47.605150,1.9,0.35,1.9,1.9,1025,75,1.54,80,0,0.0,Clear,clear sky,2
Haláp,47.521667,21.818333,2026-03-11 02:45:48.782394,1.9,0.35,1.9,1.9,1025,75,1.54,80,0,0.0,Clear,clear sky,2
Vámospércs,47.518056,21.893889,2026-03-11 02:45:49.955272,1.84,-0.02,1.84,1.84,1025,66,1.76,181,98,0.0,Clouds,overcast clouds,2
Szentannapuszta,47.52,21.965833,2026-03-11 02:45:51.128716,1.79,0.09,1.79,1.79,1025,66,1.64,174,99,0.0,Clouds,overcast clouds,2
Nyírábrány,47.523889,22.016944,2026-03-11 02:45:52.305121,3.24,1.84,3.24,3.24,1025,66,1.57,171,100,0.0,Clouds,overcast clouds,2
Dombostanya,47.602778,21.706389,2026-03-11 02:45:53.482500,1.82,0.26,1.82,1.82,1025,75,1.54,80,0,0.0,Clear,clear sky,2
Hajdúsámson,47.608056,21.755278,2026-03-11 02:45:54.654450,1.82,0.26,1.82,1.82,1025,75,1.54,80,0,0.0,Clear,clear sky,2
Tamásipuszta,47.632778,21.796111,2026-03-11 02:45:55.823139,1.77,-0.69,1.77,1.77,1025,67,2.27,197,94,0.0,Clouds,overcast clouds,2
Aradványpuszta,47.662778,21.8425,2026-03-11 02:45:56.996258,1.72,-0.79,1.72,1.72,1025,67,2.31,198,95,0.0,Clouds,overcast clouds,2
Nyíradony,47.699444,21.903333,2026-03-11 02:45:58.174950,3.05,0.78,3.05,3.05,1025,66,2.3,199,97,0.0,Clouds,overcast clouds,2
Nyírmihálydi,47.7375,21.958889,2026-03-11 02:45:59.353248,3.12,0.85,3.12,3.12,1025,66,2.31,198,97,0.0,Clouds,overcast clouds,2
Nyírgelse,47.750833,21.987778,2026-03-11 02:46:00.529028,3.14,0.88,3.14,3.14,1025,66,2.31,198,98,0.0,Clouds,overcast clouds,2
Nyírbogát,47.793056,22.066389,2026-03-11 02:46:01.703190,3.36,1.17,3.36,3.36,1025,65,2.28,194,98,0.0,Clouds,overcast clouds,2
Nagykálló,47.871111,21.825833,2026-03-11 02:46:02.876393,3.36,0.54,3.36,3.36,1025,65,2.99,203,85,0.0,Clouds,overcast clouds,2
Kállósemjén,47.854722,21.935,2026-03-11 02:46:04.066332,3.35,0.74,3.35,3.35,1025,65,2.73,202,92,0.0,Clouds,overcast clouds,2
Nyírbátor,47.8425,22.131111,2026-03-11 02:46:05.258858,3.39,1.19,3.39,3.39,1026,65,2.29,191,97,0.0,Clouds,overcast clouds,2
Nyírcsászári,47.865556,22.179167,2026-03-11 02:46:06.441336,3.54,1.44,3.54,3.54,1026,66,2.22,185,95,0.0,Clouds,overcast clouds,2
Hodász,47.896111,22.213611,2026-03-11 02:46:07.611777,3.56,1.55,3.56,3.56,1026,66,2.13,178,94,0.0,Clouds,overcast clouds,2
Nyírmeggyes,47.9225,22.256667,2026-03-11 02:46:08.780196,3.71,1.73,3.71,3.71,1026,66,2.13,174,92,0.0,Clouds,overcast clouds,2
Mátészalka,47.951389,22.313333,2026-03-11 02:46:09.960525,3.82,1.91,3.82,3.82,1026,66,2.08,170,93,0.0,Clouds,overcast clouds,2
Kocsord,47.941944,22.375833,2026-03-11 02:46:11.134385,3.99,2.48,3.99,3.99,1026,66,1.75,156,98,0.0,Clouds,overcast clouds,2
Kocsord alsó,47.946389,22.400556,2026-03-11 02:46:12.312566,3.99,2.48,3.99,3.99,1026,66,1.75,156,98,0.0,Clouds,overcast clouds,2
Győrtelek,47.936667,22.424722,2026-03-11 02:46:13.489684,4.04,2.62,4.04,4.04,1026,66,1.68,151,99,0.0,Clouds,overcast clouds,2
Győrtelek alsó,47.921111,22.443333,2026-03-11 02:46:14.662061,4.06,2.79,4.06,4.06,1026,67,1.56,148,97,0.0,Clouds,overcast clouds,2
Ököritófülpös,47.911389,22.495,2026-03-11 02:46:15.835896,4.09,2.88,4.09,4.09,1026,67,1.52,143,96,0.0,Clouds,overcast clouds,2
Porcsalma-Tyukod,47.868056,22.568333,2026-03-11 02:46:17.004753,0.05,0.05,0.05,0.05,1026,68,1.32,130,80,0.0,Clouds,broken clouds,2
Csenger,47.826111,22.666389,2026-03-11 02:46:18.172990,0.04,0.04,0.04,0.04,1026,68,1.28,119,64,0.0,Clouds,broken clouds,2
Kisfái,46.888303,19.807366,2026-03-11 02:46:19.341796,5.02,2.87,5.02,6.03,1024,60,2.57,160,0,0.0,Clear,clear sky,2
Nyárlőrinci szőlők,46.8775,19.828333,2026-03-11 02:46:20.516889,5.34,3.25,5.03,6.51,1024,58,2.57,160,0,0.0,Clear,clear sky,2
Nyárlőrinc alsó,46.863889,19.878889,2026-03-11 02:46:21.692597,5.45,3.38,5.05,6.53,1024,57,2.57,160,0,0.0,Clear,clear sky,2
Tiszaug-Tiszahídfő,46.866106,20.052098,2026-03-11 02:46:22.861581,6.66,4.22,5.2,6.69,1024,53,3.43,161,69,0.0,Clouds,broken clouds,2
Csongrádi úti tanyák,46.690278,19.921667,2026-03-11 02:46:24.042060,6.22,3.7,5.16,6.64,1024,55,3.42,158,60,0.0,Clouds,broken clouds,2
Kettőshalom,46.689167,20.0225,2026-03-11 02:46:25.221253,6.68,4.29,6.19,6.68,1024,53,3.36,158,68,0.0,Clouds,broken clouds,2
Csongrád alsó,46.711389,20.126389,2026-03-11 02:46:26.391714,6.68,4.33,6.19,6.68,1024,53,3.3,158,73,0.0,Clouds,broken clouds,2
Dónát,46.66988,20.368168,2026-03-11 02:46:27.564372,9.46,7.79,6.7,9.46,1024,40,3.13,171,89,0.0,Clouds,overcast clouds,2
Pusztatemplom,46.676667,20.407222,2026-03-11 02:46:28.735355,9.45,7.78,6.68,9.45,1024,40,3.13,171,92,0.0,Clouds,overcast clouds,2
Előhát,47.364722,20.653611,2026-03-11 02:46:29.915668,3.15,0.32,3.15,3.15,1025,66,2.96,163,64,0.0,Clouds,broken clouds,2
Polgárdi-Tekerespuszta,47.017778,18.297778,2026-03-11 02:46:31.085101,4.48,2.35,4.48,4.48,1023,77,2.43,156,18,0.0,Clouds,few clouds,2
Szatina-Kishajmás,46.202778,18.083611,2026-03-11 02:46:32.263676,6.25,5.04,6.25,6.25,1023,78,1.79,166,33,0.0,Clouds,scattered clouds,2
Márok,45.886944,18.499167,2026-03-11 02:46:33.439288,9.47,9.07,6.47,9.47,1024,48,1.48,133,70,0.0,Clouds,broken clouds,2
Nagynyárád,45.953333,18.564722,2026-03-11 02:46:34.622019,9.54,9.54,6.53,9.54,1024,48,1.28,143,65,0.0,Clouds,broken clouds,2
Szászvár,46.2875,18.369722222222222,2026-03-11 02:46:35.792971,9.13,8.26,9.13,9.13,1023,75,1.91,177,39,0.0,Clouds,scattered clouds,2
Cikó,46.263514,18.557605,2026-03-11 02:46:36.961115,9.45,8.56,9.45,9.45,1023,73,1.99,179,40,0.0,Clouds,scattered clouds,2
Gyöngyfa-Magyarmecske,45.983889,17.958889,2026-03-11 02:46:38.136748,6.57,5.45,6.57,6.57,1023,79,1.75,110,37,0.0,Clouds,scattered clouds,2
Nagyhát,47.581389,21.445,2026-03-11 02:46:39.307981,1.92,0.38,1.92,1.92,1025,75,1.54,80,0,0.0,Clear,clear sky,2
Balmazújváros,47.613889,21.348056,2026-03-11 02:46:40.477190,2.1,-0.73,2.1,2.1,1025,66,2.71,185,61,0.0,Clouds,broken clouds,2
Kónya,47.600833,21.2375,2026-03-11 02:46:41.646018,3.2,0.55,3.2,3.2,1025,66,2.75,182,60,0.0,Clouds,broken clouds,2
Hortobágy,47.586111,21.154722,2026-03-11 02:46:42.816270,3.22,0.53,3.22,3.22,1025,65,2.8,181,55,0.0,Clouds,broken clouds,2
Hortobágyi Halastó,47.604167,21.074167,2026-03-11 02:46:43.989275,3.2,0.51,3.2,3.2,1025,65,2.8,181,51,0.0,Clouds,broken clouds,2
Ohat-Pusztakócs,47.623333,20.951111,2026-03-11 02:46:45.162564,3.13,0.49,3.13,3.13,1025,66,2.72,181,41,0.0,Clouds,scattered clouds,2
Egyek,47.616944,20.883611,2026-03-11 02:46:46.332035,3.11,0.57,3.11,3.11,1025,66,2.6,178,36,0.0,Clouds,scattered clouds,2
Tiszafüred,47.627778,20.756111,2026-03-11 02:46:47.504833,3.04,0.61,3.04,3.04,1024,66,2.47,175,31,0.0,Clouds,scattered clouds,2
Poroszló,47.657778,20.654444,2026-03-11 02:46:48.679896,3.07,0.89,3.07,3.07,1024,66,2.22,171,25,0.0,Clouds,scattered clouds,2
Kétútköz,47.694167,20.565,2026-03-11 02:46:49.851936,3.03,1.11,3.03,3.03,1024,66,1.97,171,20,0.0,Clouds,few clouds,2
Egerfarmos,47.711667,20.5225,2026-03-11 02:46:51.022166,3.04,1.26,3.04,3.04,1024,66,1.85,167,21,0.0,Clouds,few clouds,2
Piliscsaba,47.638056,18.829722,2026-03-11 02:46:52.192889,5.36,3.18,5.36,6.42,1023,59,2.68,136,84,0.0,Clouds,broken clouds,2
Pilisjászfalu,47.656111,18.797778,2026-03-11 02:46:53.363128,5.61,3.37,5.61,6.67,1023,76,2.82,137,82,0.0,Clouds,broken clouds,2
Leányvár,47.687594,18.772553,2026-03-11 02:46:54.536205,5.78,3.51,5.78,5.78,1023,78,2.91,137,79,0.0,Clouds,broken clouds,2
Dorog,47.723333,18.732778,2026-03-11 02:46:55.707399,4.66,2.12,4.66,4.66,1023,79,2.97,135,73,0.0,Clouds,broken clouds,2
Esztergom-Kertváros,47.743333,18.719167,2026-03-11 02:46:56.884003,4.75,2.26,4.75,4.75,1023,79,2.93,134,71,0.0,Clouds,broken clouds,2
Esztergom,47.7775,18.743611,2026-03-11 02:46:58.063197,4.45,2.02,4.45,4.45,1023,79,2.78,132,71,0.0,Clouds,broken clouds,2
Dunaalmás,47.733056,18.326389,2026-03-11 02:46:59.232336,4.92,2.18,4.92,4.92,1022,81,3.32,135,46,0.0,Clouds,scattered clouds,2
Neszmély,47.734444,18.345278,2026-03-11 02:47:00.404260,4.92,2.18,4.92,4.92,1022,81,3.32,135,46,0.0,Clouds,scattered clouds,2
Süttő,47.761111,18.455,2026-03-11 02:47:01.574168,4.85,2.3,4.85,4.85,1022,81,3.04,132,54,0.0,Clouds,broken clouds,2
Piszke,47.75307,18.478017,2026-03-11 02:47:02.750990,4.87,2.35,4.87,4.87,1022,81,3.0,132,56,0.0,Clouds,broken clouds,2
Lábatlan,47.751944,18.513333,2026-03-11 02:47:03.923009,4.84,2.33,4.84,4.84,1022,81,2.98,133,58,0.0,Clouds,broken clouds,2
Eternitgyár,47.755544,18.530014,2026-03-11 02:47:05.098293,4.84,2.33,4.84,4.84,1022,81,2.98,133,58,0.0,Clouds,broken clouds,2
Nyergesújfalu felső,47.762222,18.540556,2026-03-11 02:47:06.275322,4.84,2.33,4.84,4.84,1022,81,2.98,133,58,0.0,Clouds,broken clouds,2
Nyergesújfalu,47.761111,18.561667,2026-03-11 02:47:07.448908,4.78,2.26,4.78,4.78,1022,81,2.97,133,60,0.0,Clouds,broken clouds,2
Tokod,47.735,18.675,2026-03-11 02:47:08.622659,4.7,2.15,4.7,4.7,1023,80,3.0,135,71,0.0,Clouds,broken clouds,2
Környe,47.541667,18.330278,2026-03-11 02:47:09.796581,4.48,1.7,4.48,4.48,1022,81,3.25,140,38,0.0,Clouds,scattered clouds,2
Kecskéd alsó,47.519722,18.316667,2026-03-11 02:47:10.974651,4.49,1.66,4.49,4.49,1022,82,3.32,141,33,0.0,Clouds,scattered clouds,2
Oroszlány,47.486944,18.308611,2026-03-11 02:47:12.151612,4.38,1.6,4.38,4.38,1022,82,3.22,140,32,0.0,Clouds,scattered clouds,2
Győrszabadhegy,47.663056,17.648056,2026-03-11 02:47:13.323195,4.08,1.33,4.08,4.08,1021,81,3.09,110,0,0.0,Clear,clear sky,2
