station_name,station_lat,station_lon,observation_time,temp,feels_like,temp_min,temp_max,pressure,humidity,wind_speed,wind_deg,clouds,precipitation_1h,weather_main,weather_description,collection_hour
Búcsúszentlászló,46.793056,16.932778,2026-03-14 15:35:05.093666,17.84,17.06,17.84,17.84,1003,53,4.57,186,25,0.0,Clouds,scattered clouds,15
Angyalföld,47.549722,19.09,2026-03-14 15:35:06.250678,17.07,15.85,16.49,18.28,1005,39,5.66,140,0,0.0,Clear,clear sky,15
Felsőjánosfa,46.841389,16.544167,2026-03-14 15:35:07.410766,15.08,14.13,15.08,15.08,1003,57,5.02,207,60,0.0,Clouds,broken clouds,15
Pankasz,46.835833,16.496111,2026-03-14 15:35:08.568660,14.74,13.78,14.74,14.74,1003,58,5.3,209,64,0.0,Clouds,broken clouds,15
Nagyrákos,46.827222,16.455556,2026-03-14 15:35:09.727899,14.67,13.71,14.67,14.67,1003,58,5.42,209,66,0.0,Clouds,broken clouds,15
Őriszentpéter,46.828889,16.415278,2026-03-14 15:35:10.887597,14.74,13.78,14.74,14.74,1003,58,5.62,211,70,0.0,Clouds,broken clouds,15
Törökbálint,47.45,18.908611,2026-03-14 15:35:12.047713,17.16,15.98,16.27,18.05,1005,40,3.13,135,2,0.0,Clear,clear sky,15
Bicske alsó,47.486389,18.642778,2026-03-14 15:35:13.205791,16.18,14.95,16.16,17.84,1005,42,5.46,157,1,0.0,Clear,clear sky,15
Bajánsenye,46.818056,16.358056,2026-03-14 15:35:14.365855,14.78,13.83,14.78,14.78,1003,58,5.68,212,76,0.0,Clouds,broken clouds,15
Aquincum,47.566218,19.048273,2026-03-14 15:35:15.524008,17.03,15.83,16.52,18.3,1005,40,3.13,135,3,0.0,Clear,clear sky,15
Piliscsév,47.673889,18.791389,2026-03-14 15:35:16.708873,16.1,14.86,16.1,16.29,1005,42,4.26,150,2,0.0,Clear,clear sky,15
Tát,47.741201,18.64783,2026-03-14 15:35:17.864460,16.51,15.31,16.51,16.51,1004,42,4.44,152,1,0.0,Clear,clear sky,15
Süttő felső,47.756667,18.437222,2026-03-14 15:35:19.031076,15.98,14.73,15.98,15.98,1004,42,5.02,157,2,0.0,Clear,clear sky,15
Budatétény,47.405,19.016389,2026-03-14 15:35:20.192183,17.97,16.84,16.56,18.34,1005,39,5.66,140,0,0.0,Clear,clear sky,15
Seregélyes-Szőlőhegy,47.119444,18.612222,2026-03-14 15:35:21.350541,15.87,14.61,15.87,15.87,1005,42,4.74,158,2,0.0,Clear,clear sky,15
Gödöllő-Állami telepek,47.564444,19.375556,2026-03-14 15:35:22.518094,16.71,15.38,16.16,17.79,1006,36,5.66,140,0,0.0,Clear,clear sky,15
Dunakeszi alsó,47.607778,19.128889,2026-03-14 15:35:23.677395,16.89,15.68,16.49,18.27,1005,40,1.34,69,3,0.0,Clear,clear sky,15
Vác-Alsóváros,47.773056,19.149722,2026-03-14 15:35:24.836326,16.62,15.41,16.47,16.62,1005,41,4.87,146,2,0.0,Clear,clear sky,15
Szob alsó,47.816667,18.8725,2026-03-14 15:35:26.004378,16.5,15.3,16.5,16.5,1005,42,3.59,145,2,0.0,Clear,clear sky,15
Zalaszentmihály-Pacsa,46.7225,16.951944,2026-03-14 15:35:27.173043,17.75,16.52,17.75,17.75,1003,36,4.12,200,0,0.0,Clear,clear sky,15
Pötréte,46.682778,16.9575,2026-03-14 15:35:28.334296,17.75,16.52,17.75,17.75,1003,36,4.12,200,0,0.0,Clear,clear sky,15
Felsőrajk,46.667222,16.982778,2026-03-14 15:35:29.493618,17.81,16.59,17.81,17.81,1003,36,4.12,200,0,0.0,Clear,clear sky,15
Gelse,46.600556,16.982778,2026-03-14 15:35:30.657781,17.81,16.59,17.81,17.81,1004,36,4.12,200,0,0.0,Clear,clear sky,15
Őrtilos,46.297778,16.887778,2026-03-14 15:35:31.820049,15.1,14.18,15.1,15.1,1004,58,3.01,202,19,0.0,Clouds,few clouds,15
Zákány,46.251944,16.9425,2026-03-14 15:35:32.979731,14.92,13.93,14.92,14.92,1004,56,2.92,203,8,0.0,Clear,clear sky,15
Berzence,46.201389,17.143611,2026-03-14 15:35:34.141922,15.38,14.33,15.38,15.38,1004,52,2.87,193,6,0.0,Clear,clear sky,15
Somogyudvarhely,46.163333,17.179722,2026-03-14 15:35:35.310326,15.37,14.29,15.37,15.37,1004,51,2.85,192,7,0.0,Clear,clear sky,15
Bélavár,46.122778,17.207778,2026-03-14 15:35:36.468031,15.42,14.35,15.42,15.42,1004,51,2.72,193,9,0.0,Clear,clear sky,15
Vízvár,46.101389,17.239444,2026-03-14 15:35:37.632876,15.34,14.26,15.34,15.34,1004,51,2.64,196,10,0.0,Clear,clear sky,15
Babócsa,46.028359,17.342276,2026-03-14 15:35:38.798410,15.38,14.28,15.38,15.38,1004,50,2.29,208,10,0.0,Clear,clear sky,15
Péterhida-Komlósd,46.006667,17.358056,2026-03-14 15:35:39.961285,15.47,14.38,15.47,15.47,1004,50,2.11,214,8,0.0,Clear,clear sky,15
Barcs,45.951944,17.446944,2026-03-14 15:35:41.128552,15.56,14.48,15.56,15.56,1004,50,1.65,224,5,0.0,Clear,clear sky,15
Barcs felső,45.958333,17.486389,2026-03-14 15:35:42.293152,15.52,14.41,15.52,15.52,1004,49,1.56,223,5,0.0,Clear,clear sky,15
Középrigóc,45.970556,17.525,2026-03-14 15:35:43.457401,15.48,14.36,15.48,15.48,1004,49,1.48,221,5,0.0,Clear,clear sky,15
Darány,45.992222,17.598611,2026-03-14 15:35:44.635316,15.57,14.44,15.57,15.57,1004,48,1.44,202,4,0.0,Clear,clear sky,15
Kisdobsza,46.012222,17.668056,2026-03-14 15:35:45.804286,15.67,14.55,15.67,15.67,1004,48,1.6,186,4,0.0,Clear,clear sky,15
Nemeske,46.023333,17.705278,2026-03-14 15:35:46.978905,15.73,14.61,15.73,15.73,1004,48,1.71,178,5,0.0,Clear,clear sky,15
Molvány,46.035278,17.748611,2026-03-14 15:35:48.138331,15.72,14.6,15.72,15.72,1004,48,1.98,168,7,0.0,Clear,clear sky,15
Szigetvár,46.043333,17.801944,2026-03-14 15:35:49.301069,15.72,14.6,15.72,15.72,1004,48,2.13,163,9,0.0,Clear,clear sky,15
Nagypeterd,46.039444,17.871667,2026-03-14 15:35:50.462696,18.53,17.69,18.53,18.53,1004,48,2.45,155,13,0.0,Clouds,few clouds,15
Szentdénes,46.036667,17.926944,2026-03-14 15:35:51.630878,18.48,17.64,18.48,18.48,1004,48,2.61,152,15,0.0,Clouds,few clouds,15
Háros,47.412222,19.035,2026-03-14 15:35:52.791407,17.92,16.79,16.52,18.3,1005,39,5.66,140,0,0.0,Clear,clear sky,15
Nagytétény-Diósd,47.398333,18.974444,2026-03-14 15:35:53.953632,17.92,16.79,16.55,18.34,1005,39,3.13,145,2,0.0,Clear,clear sky,15
Érdliget,47.390278,18.937778,2026-03-14 15:35:55.118174,17.73,16.58,16.47,18.25,1005,39,3.13,145,2,0.0,Clear,clear sky,15
Érd felső,47.381111,18.922222,2026-03-14 15:35:56.279550,17.68,16.52,16.43,18.22,1005,39,3.13,145,2,0.0,Clear,clear sky,15
Érd,47.369722,18.900833,2026-03-14 15:35:57.442695,17.62,16.46,16.4,18.18,1005,39,5.18,149,2,0.0,Clear,clear sky,15
Százhalombatta,47.322222,18.899167,2026-03-14 15:35:58.602191,17.75,16.57,16.38,18.17,1005,38,5.06,149,1,0.0,Clear,clear sky,15
Dunai Finomító,47.294444,18.878889,2026-03-14 15:35:59.767699,17.89,16.73,16.4,18.01,1005,38,4.99,151,2,0.0,Clear,clear sky,15
Ercsi,47.247222,18.875278,2026-03-14 15:36:00.938846,18.13,17.1,16.63,18.23,1005,42,4.9,151,2,0.0,Clear,clear sky,15
Iváncsa,47.177778,18.811944,2026-03-14 15:36:02.098769,15.67,14.39,15.67,15.67,1005,42,4.65,153,2,0.0,Clear,clear sky,15
Pusztaszabolcs,47.139722,18.761667,2026-03-14 15:36:03.266655,15.79,14.52,15.79,15.79,1005,42,4.59,154,2,0.0,Clear,clear sky,15
Szabadegyháza,47.082778,18.704167,2026-03-14 15:36:04.426033,15.82,14.55,15.82,15.82,1005,42,4.65,156,2,0.0,Clear,clear sky,15
Sárosd,47.039722,18.660278,2026-03-14 15:36:05.603105,15.91,14.65,15.91,15.91,1005,42,4.76,158,2,0.0,Clear,clear sky,15
Nagylók,46.979444,18.635833,2026-03-14 15:36:06.761038,15.79,14.52,15.79,15.79,1005,42,4.75,158,2,0.0,Clear,clear sky,15
Sárbogárd,46.896944,18.611944,2026-03-14 15:36:07.925855,16.03,14.81,16.03,16.03,1005,43,4.71,159,2,0.0,Clear,clear sky,15
Rétszilas,46.814167,18.601389,2026-03-14 15:36:09.090888,16.1,14.89,16.1,16.1,1005,43,4.51,160,2,0.0,Clear,clear sky,15
Nagyatád,46.228611,17.354167,2026-03-14 15:36:10.254985,15.54,14.38,15.54,15.54,1004,47,3.01,192,7,0.0,Clear,clear sky,15
Budapest-Keleti,47.500278,19.084167,2026-03-14 15:36:11.425807,17.48,16.3,16.47,18.25,1005,39,5.66,140,0,0.0,Clear,clear sky,15
Ferencváros,47.468611,19.088056,2026-03-14 15:36:12.583834,17.58,16.41,16.49,18.27,1005,39,5.66,140,0,0.0,Clear,clear sky,15
Budapest-Nyugati,47.510833,19.0575,2026-03-14 15:36:13.739456,17.36,16.2,16.48,18.27,1005,40,5.66,140,0,0.0,Clear,clear sky,15
Kőbánya felső,47.491944,19.133889,2026-03-14 15:36:14.905079,17.36,16.17,16.41,18.19,1005,39,5.66,140,0,0.0,Clear,clear sky,15
Rákos,47.488889,19.174722,2026-03-14 15:36:16.062832,17.27,16.04,16.37,18.15,1005,38,5.66,140,0,0.0,Clear,clear sky,15
Rákosrendező,47.525556,19.089444,2026-03-14 15:36:17.222726,17.29,16.09,16.51,18.3,1005,39,5.66,140,0,0.0,Clear,clear sky,15
Zugló,47.511389,19.101389,2026-03-14 15:36:18.388871,17.38,16.19,16.47,18.26,1005,39,5.66,140,0,0.0,Clear,clear sky,15
Mezőtárkány,47.725,20.480278,2026-03-14 15:36:19.553805,17.68,16.42,17.68,17.68,1008,35,3.97,165,11,0.0,Clouds,few clouds,15
Istvántelek,47.550278,19.106389,2026-03-14 15:36:20.715975,17.07,15.88,16.5,18.28,1005,40,5.66,140,0,0.0,Clear,clear sky,15
Rákospalota-Újpest,47.565833,19.111944,2026-03-14 15:36:21.866788,17.1,15.88,16.49,18.75,1005,39,5.14,150,0,0.0,Clear,clear sky,15
Kőbánya alsó,47.483056,19.127222,2026-03-14 15:36:23.024159,17.41,16.22,16.42,18.21,1005,39,5.66,140,0,0.0,Clear,clear sky,15
Kőbánya-Kispest,47.463889,19.149444,2026-03-14 15:36:24.185967,17.39,16.18,16.42,18.21,1005,38,5.66,140,0,0.0,Clear,clear sky,15
Pestszentlőrinc,47.454722,19.182778,2026-03-14 15:36:25.359184,17.28,16.06,16.36,18.15,1005,38,5.66,140,0,0.0,Clear,clear sky,15
Kispest,47.448135,19.157552,2026-03-14 15:36:26.517204,17.39,16.18,16.43,18.21,1005,38,5.66,140,0,0.0,Clear,clear sky,15
Újpest,47.558889,19.079722,2026-03-14 15:36:27.678187,17.0,15.8,16.5,18.28,1005,40,5.66,140,0,0.0,Clear,clear sky,15
Pestszentimre felső,47.413611,19.173333,2026-03-14 15:36:28.843995,17.4,16.19,16.45,18.24,1005,38,5.66,140,0,0.0,Clear,clear sky,15
Dunakeszi,47.626111,19.136111,2026-03-14 15:36:30.001735,16.79,15.57,16.4,18.19,1005,40,1.34,69,3,0.0,Clear,clear sky,15
Dunakeszi-Gyártelep,47.643611,19.135,2026-03-14 15:36:31.159667,16.81,15.59,16.44,18.23,1005,40,4.54,148,3,0.0,Clear,clear sky,15
Alsógöd,47.676944,19.134444,2026-03-14 15:36:32.340868,16.77,15.55,16.43,18.22,1005,40,4.58,148,2,0.0,Clear,clear sky,15
Göd,47.687778,19.1375,2026-03-14 15:36:33.506986,16.79,15.57,16.45,18.24,1005,40,4.58,148,2,0.0,Clear,clear sky,15
Felsőgöd,47.705556,19.143333,2026-03-14 15:36:34.664856,16.65,15.42,16.5,16.68,1005,40,4.64,148,2,0.0,Clear,clear sky,15
Sződ-Sződliget,47.728056,19.154722,2026-03-14 15:36:35.823930,16.64,15.4,16.49,16.67,1005,40,4.71,147,2,0.0,Clear,clear sky,15
Vác,47.782778,19.133056,2026-03-14 15:36:36.981045,16.62,15.41,16.47,16.62,1005,41,4.87,146,2,0.0,Clear,clear sky,15
Verőce,47.823889,19.029444,2026-03-14 15:36:38.139277,16.46,15.26,16.3,16.46,1005,42,4.32,144,2,0.0,Clear,clear sky,15
Kismaros,47.8275,19.010278,2026-03-14 15:36:39.300411,16.43,15.23,16.43,16.43,1005,42,4.14,144,2,0.0,Clear,clear sky,15
Nagymaros-Visegrád,47.791389,18.959167,2026-03-14 15:36:40.465429,16.45,15.25,16.45,16.61,1005,42,3.72,144,2,0.0,Clear,clear sky,15
Nagymaros,47.780278,18.952222,2026-03-14 15:36:41.630035,16.53,15.34,16.53,16.68,1005,42,3.72,144,2,0.0,Clear,clear sky,15
Zebegény,47.801389,18.908889,2026-03-14 15:36:42.789612,16.5,15.3,16.5,16.66,1005,42,3.71,144,2,0.0,Clear,clear sky,15
Szob,47.821111,18.861944,2026-03-14 15:36:43.953960,16.46,15.26,16.46,16.46,1005,42,3.64,144,1,0.0,Clear,clear sky,15
Alagimajor,47.601944,19.153889,2026-03-14 15:36:45.119468,16.79,15.57,16.44,17.68,1005,40,5.66,140,0,0.0,Clear,clear sky,15
Fót,47.611389,19.181667,2026-03-14 15:36:46.278569,16.71,15.48,16.34,17.57,1005,40,4.63,149,2,0.0,Clear,clear sky,15
Fótújfalu,47.615,19.192778,2026-03-14 15:36:47.434857,16.61,15.37,16.23,17.47,1005,40,4.63,149,2,0.0,Clear,clear sky,15
Csomád,47.635556,19.222778,2026-03-14 15:36:48.594206,16.35,15.09,15.96,17.2,1005,40,4.75,149,2,0.0,Clear,clear sky,15
Veresegyház,47.649167,19.288611,2026-03-14 15:36:49.753952,16.44,15.18,16.27,17.35,1005,40,5.09,150,2,0.0,Clear,clear sky,15
Erdőkertes,47.662222,19.295833,2026-03-14 15:36:50.919654,16.38,15.12,16.22,17.3,1005,40,5.09,150,2,0.0,Clear,clear sky,15
Őrbottyán,47.685833,19.283611,2026-03-14 15:36:52.077801,16.14,14.85,16.14,17.22,1005,40,5.2,150,2,0.0,Clear,clear sky,15
Váchartyán,47.725833,19.248889,2026-03-14 15:36:53.236209,16.5,15.28,16.5,16.5,1005,41,5.35,149,2,0.0,Clear,clear sky,15
Magyarkút-Verőce,47.826111,19.044444,2026-03-14 15:36:54.397223,16.62,15.43,16.62,16.62,1005,42,4.32,144,2,0.0,Clear,clear sky,15
Szokolya,47.871111,19.030556,2026-03-14 15:36:55.564516,14.06,12.64,14.06,14.06,1005,43,4.72,144,2,0.0,Clear,clear sky,15
Berkenye,47.885278,19.071944,2026-03-14 15:36:56.724516,14.77,13.43,14.77,14.77,1005,43,4.89,144,2,0.0,Clear,clear sky,15
Nógrád,47.901944,19.0475,2026-03-14 15:36:57.896909,14.42,13.04,14.42,14.42,1005,43,4.93,144,1,0.0,Clear,clear sky,15
Diósjenő,47.94,19.049444,2026-03-14 15:36:59.056448,14.05,12.63,14.05,14.05,1005,43,5.14,143,1,0.0,Clear,clear sky,15
Borsosberény,47.971389,19.093056,2026-03-14 15:37:00.218582,14.73,13.38,14.73,14.73,1005,43,5.52,143,1,0.0,Clear,clear sky,15
Nagyoroszi,47.993611,19.101111,2026-03-14 15:37:01.380699,14.57,13.21,14.57,14.57,1005,43,5.6,142,1,0.0,Clear,clear sky,15
Drégelyvár,48.001944,19.079444,2026-03-14 15:37:02.565122,14.85,13.51,14.85,14.85,1005,43,5.66,141,1,0.0,Clear,clear sky,15
Drégely,48.042222,19.056111,2026-03-14 15:37:03.722423,15.22,13.92,15.22,15.22,1005,43,5.72,140,1,0.0,Clear,clear sky,15
Drégelypalánk,48.055,19.046111,2026-03-14 15:37:04.881775,15.39,14.11,15.39,15.39,1005,43,5.67,139,1,0.0,Clear,clear sky,15
Ipolyvece,48.056944,19.106389,2026-03-14 15:37:06.040840,15.32,14.03,15.32,15.32,1005,43,5.69,139,0,0.0,Clear,clear sky,15
Dejtár,48.045556,19.196389,2026-03-14 15:37:07.198827,15.2,13.9,15.2,15.2,1005,43,5.49,140,0,0.0,Clear,clear sky,15
Ipolyszög,48.054444,19.221944,2026-03-14 15:37:08.355968,15.2,13.9,15.2,15.2,1006,43,5.35,138,0,0.0,Clear,clear sky,15
Iklad-Domony,47.658056,19.444444,2026-03-14 15:37:09.516987,17.1,15.96,17.1,17.1,1006,42,4.84,150,3,0.0,Clear,clear sky,15
Iklad-Domony felső,47.667778,19.428056,2026-03-14 15:37:10.675232,17.09,15.95,16.51,17.09,1006,42,4.99,150,3,0.0,Clear,clear sky,15
Galgamácsa,47.693889,19.3925,2026-03-14 15:37:11.844598,16.5,15.28,16.5,16.5,1005,41,5.25,150,2,0.0,Clear,clear sky,15
Vácrátót,47.732778,19.217778,2026-03-14 15:37:13.005056,16.42,15.16,16.42,16.42,1005,40,5.11,148,2,0.0,Clear,clear sky,15
Csörög,47.735833,19.196389,2026-03-14 15:37:14.161971,16.42,15.16,16.27,17.5,1005,40,4.92,148,2,0.0,Clear,clear sky,15
Galgagyörk,47.735278,19.372222,2026-03-14 15:37:15.328211,16.4,15.17,16.4,16.4,1005,41,5.32,149,2,0.0,Clear,clear sky,15
Püspökhatvan,47.768611,19.366944,2026-03-14 15:37:16.487333,15.06,13.72,15.06,15.06,1006,42,5.39,148,2,0.0,Clear,clear sky,15
Acsa-Erdőkürt,47.801111,19.386111,2026-03-14 15:37:17.643825,14.89,13.53,14.89,14.89,1005,42,5.38,148,2,0.0,Clear,clear sky,15
Galgaguta,47.848611,19.385556,2026-03-14 15:37:18.805000,14.57,13.18,14.57,14.57,1006,42,5.29,146,1,0.0,Clear,clear sky,15
Nógrádkövesd,47.879444,19.371111,2026-03-14 15:37:19.988464,14.73,13.36,14.73,14.73,1006,42,5.23,146,1,0.0,Clear,clear sky,15
Magyarnándor,47.970833,19.356667,2026-03-14 15:37:21.158018,14.59,13.2,14.59,14.59,1006,42,5.06,143,0,0.0,Clear,clear sky,15
Mohora,47.995556,19.347778,2026-03-14 15:37:22.316070,14.7,13.32,14.7,14.7,1006,42,4.99,142,0,0.0,Clear,clear sky,15
Szügy,48.036389,19.333056,2026-03-14 15:37:23.478247,14.92,13.59,14.92,14.92,1006,43,4.88,140,0,0.0,Clear,clear sky,15
Balassagyarmat,48.071111,19.293611,2026-03-14 15:37:24.639269,15.05,13.73,15.05,15.05,1006,43,4.96,139,0,0.0,Clear,clear sky,15
Őrhalom,48.078773,19.403936,2026-03-14 15:37:25.801036,14.71,13.33,14.71,14.71,1006,42,4.38,141,1,0.0,Clear,clear sky,15
Hugyag,48.083056,19.421111,2026-03-14 15:37:26.961929,14.71,13.33,14.71,14.71,1006,42,4.38,141,1,0.0,Clear,clear sky,15
Szécsény,48.093056,19.521111,2026-03-14 15:37:28.119634,14.85,13.49,14.85,14.85,1006,42,3.97,144,2,0.0,Clear,clear sky,15
Ludányhalászi,48.1325,19.529444,2026-03-14 15:37:29.288881,14.83,13.47,14.83,14.83,1006,42,3.76,143,3,0.0,Clear,clear sky,15
Nógrádszakál,48.178333,19.521667,2026-03-14 15:37:30.454863,14.79,13.42,14.79,14.79,1006,42,3.67,142,3,0.0,Clear,clear sky,15
Ráróspuszta,48.207222,19.541389,2026-03-14 15:37:31.620836,14.26,12.84,14.26,14.26,1006,42,3.52,141,4,0.0,Clear,clear sky,15
Litke,48.215833,19.598611,2026-03-14 15:37:32.780878,14.7,13.32,14.7,14.7,1007,42,2.99,142,4,0.0,Clear,clear sky,15
Nyíregyháza külső,47.943056,21.740278,2026-03-14 15:37:33.947393,14.91,13.32,14.91,14.91,1008,33,2.51,172,9,0.0,Clear,clear sky,15
Oros,47.945833,21.806389,2026-03-14 15:37:35.112515,15.0,13.39,15.0,15.0,1008,32,2.48,170,8,0.0,Clear,clear sky,15
Napkor,47.948889,21.873056,2026-03-14 15:37:36.271767,15.07,13.44,15.07,15.07,1008,31,2.48,161,7,0.0,Clear,clear sky,15
Apagy,47.953775,21.939044,2026-03-14 15:37:37.440218,15.11,13.49,15.11,15.11,1008,31,2.53,158,7,0.0,Clear,clear sky,15
Levelek-Magy,47.948056,21.993611,2026-03-14 15:37:38.603410,15.12,13.5,15.12,15.12,1008,31,2.64,151,7,0.0,Clear,clear sky,15
Ófehértó,47.940556,22.041389,2026-03-14 15:37:39.761694,15.08,13.45,15.08,15.08,1008,31,2.63,151,7,0.0,Clear,clear sky,15
Ligettanya,47.951667,22.071389,2026-03-14 15:37:40.926662,15.03,13.4,15.03,15.03,1008,31,2.86,142,6,0.0,Clear,clear sky,15
Baktalórántháza,47.988611,22.083333,2026-03-14 15:37:42.086669,15.02,13.39,15.02,15.02,1008,31,2.94,140,6,0.0,Clear,clear sky,15
Vaja-Rohod,48.006389,22.164167,2026-03-14 15:37:43.254207,15.03,13.4,15.03,15.03,1008,31,3.19,133,6,0.0,Clear,clear sky,15
Rákóczitanya,48.022222,22.178333,2026-03-14 15:37:44.414312,15.01,13.4,15.01,15.01,1008,32,3.26,132,5,0.0,Clear,clear sky,15
Nyírmada,48.059167,22.203056,2026-03-14 15:37:45.574069,14.98,13.37,14.98,14.98,1008,32,3.39,130,5,0.0,Clear,clear sky,15
Tunyogmatolcs,47.960244,22.442247,2026-03-14 15:37:46.734230,15.37,13.77,15.37,15.37,1008,31,3.36,130,2,0.0,Clear,clear sky,15
Tunyogmatolcs alsó,47.966025,22.464713,2026-03-14 15:37:47.902679,15.39,13.79,15.39,15.39,1008,31,3.35,131,1,0.0,Clear,clear sky,15
Fehérgyarmat,47.979167,22.524444,2026-03-14 15:37:49.062710,15.4,13.78,15.4,15.4,1008,30,3.36,134,0,0.0,Clear,clear sky,15
Penyige,47.995278,22.566944,2026-03-14 15:37:50.242270,15.45,13.83,15.45,15.45,1008,30,3.36,135,0,0.0,Clear,clear sky,15
Nagyszekeres,47.976111,22.6125,2026-03-14 15:37:51.403292,15.47,13.86,15.47,15.47,1009,30,3.37,135,0,0.0,Clear,clear sky,15
Kisszekeres,47.965833,22.629444,2026-03-14 15:37:52.565017,15.5,13.89,15.5,15.5,1008,30,3.37,135,0,0.0,Clear,clear sky,15
Jánkmajtis,47.941944,22.657222,2026-03-14 15:37:53.733323,15.57,13.94,15.57,15.57,1009,29,3.37,135,0,0.0,Clear,clear sky,15
Gacsály,47.926111,22.745,2026-03-14 15:37:54.891171,17.03,15.52,17.03,17.03,1009,28,3.38,138,0,0.0,Clear,clear sky,15
Zajta,47.9025,22.796111,2026-03-14 15:37:56.050899,17.03,15.52,17.03,17.03,1009,28,3.38,139,0,0.0,Clear,clear sky,15
Eperjeske alsó,48.360556,22.19,2026-03-14 15:37:57.218876,14.77,13.19,14.77,14.77,1008,34,3.62,131,4,0.0,Clear,clear sky,15
Mándok,48.326944,22.196389,2026-03-14 15:37:58.382914,14.79,13.19,14.79,14.79,1008,33,3.62,130,4,0.0,Clear,clear sky,15
Tornyospálca,48.268333,22.201944,2026-03-14 15:37:59.552732,14.86,13.24,14.86,14.86,1008,32,3.62,130,5,0.0,Clear,clear sky,15
Aranyosapáti,48.211303,22.253534,2026-03-14 15:38:00.713290,14.97,13.36,14.97,14.97,1008,32,3.55,130,4,0.0,Clear,clear sky,15
Gyüre,48.171389,22.269167,2026-03-14 15:38:01.875691,15.01,13.4,15.01,15.01,1008,32,3.56,129,5,0.0,Clear,clear sky,15
Varsány,48.151722,22.290047,2026-03-14 15:38:03.037306,15.05,13.45,15.05,15.05,1008,32,3.55,129,4,0.0,Clear,clear sky,15
Vásárosnamény,48.126667,22.306111,2026-03-14 15:38:04.196326,15.08,13.48,15.08,15.08,1008,32,3.53,129,4,0.0,Clear,clear sky,15
Vitka,48.095556,22.308056,2026-03-14 15:38:05.357385,15.1,13.5,15.1,15.1,1008,32,3.51,129,4,0.0,Clear,clear sky,15
Nagydobos,48.054167,22.311111,2026-03-14 15:38:06.525987,15.07,13.47,15.07,15.07,1008,32,3.48,129,4,0.0,Clear,clear sky,15
Ópályi,47.997778,22.318333,2026-03-14 15:38:07.692640,15.15,13.56,15.15,15.15,1008,32,3.37,130,4,0.0,Clear,clear sky,15
Nyírcsaholy,47.908056,22.348333,2026-03-14 15:38:08.866013,15.34,13.74,15.34,15.34,1008,31,3.22,130,3,0.0,Clear,clear sky,15
Nagyecsed,47.864722,22.385556,2026-03-14 15:38:10.034306,15.46,13.87,15.46,15.46,1008,31,3.17,128,2,0.0,Clear,clear sky,15
Tiborszállás,47.815278,22.402778,2026-03-14 15:38:11.193994,15.52,13.94,15.52,15.52,1008,31,3.06,127,2,0.0,Clear,clear sky,15
Kiskunhalas,46.434444,19.493611,2026-03-14 15:38:12.360048,15.65,14.32,15.65,15.65,1006,40,6.14,145,9,0.0,Clear,clear sky,15
Kecskemét alsó,46.895833,19.692222,2026-03-14 15:38:13.521222,17.81,16.51,16.99,17.81,1006,33,6.69,140,0,0.0,Clear,clear sky,15
Putnok,48.286667,20.4375,2026-03-14 15:38:14.679776,16.67,15.28,16.67,16.67,1008,34,2.72,142,6,0.0,Clear,clear sky,15
Bánréve,48.299722,20.351944,2026-03-14 15:38:15.838089,16.66,15.3,16.66,16.66,1008,35,2.79,144,7,0.0,Clear,clear sky,15
Ipolytarnóc,48.236667,19.629167,2026-03-14 15:38:17.000688,14.64,13.26,14.64,14.64,1007,42,2.78,141,4,0.0,Clear,clear sky,15
Rákosliget,47.486111,19.257778,2026-03-14 15:38:18.165451,17.03,15.75,16.29,17.53,1005,37,5.66,140,0,0.0,Clear,clear sky,15
Ikrény,47.657778,17.524167,2026-03-14 15:38:19.330612,17.08,16.04,17.08,17.08,1003,46,6.78,183,4,0.0,Clear,clear sky,15
Rábapatona,47.648889,17.461944,2026-03-14 15:38:20.498639,17.1,16.07,17.1,17.1,1003,46,7.02,183,5,0.0,Clear,clear sky,15
Enese,47.644167,17.425278,2026-03-14 15:38:21.667652,17.1,16.07,17.1,17.1,1003,46,7.24,182,6,0.0,Clear,clear sky,15
Kóny,47.632222,17.357222,2026-03-14 15:38:22.830654,16.68,15.63,16.68,16.68,1002,47,7.3,182,6,0.0,Clear,clear sky,15
Farád,47.595278,17.195833,2026-03-14 15:38:23.987466,17.79,16.85,17.79,17.79,1002,47,7.62,179,7,0.0,Clear,clear sky,15
Rábatamási,47.592778,17.161389,2026-03-14 15:38:25.150719,17.79,16.85,17.79,17.79,1002,47,7.62,179,7,0.0,Clear,clear sky,15
Szárföld,47.589167,17.123889,2026-03-14 15:38:26.306019,17.77,16.83,17.77,17.77,1002,47,7.67,179,8,0.0,Clear,clear sky,15
Veszkény,47.586944,17.101389,2026-03-14 15:38:27.473387,17.78,16.66,17.78,17.78,1002,40,7.73,180,8,0.0,Clear,clear sky,15
Kapuvár,47.581944,17.046944,2026-03-14 15:38:28.639672,17.76,16.64,17.76,17.76,1002,40,7.8,181,9,0.0,Clear,clear sky,15
Vitnyéd-Csermajor,47.5825,16.987222,2026-03-14 15:38:29.812307,17.77,16.65,17.77,17.77,1002,40,7.98,182,9,0.0,Clear,clear sky,15
Petőháza,47.595278,16.893056,2026-03-14 15:38:30.979887,17.72,16.59,17.72,17.72,1002,40,8.53,182,9,0.0,Clear,clear sky,15
Fertőszentmiklós,47.6,16.858889,2026-03-14 15:38:32.144231,17.72,16.59,16.71,17.72,1002,40,8.68,182,9,0.0,Clear,clear sky,15
Pinnye,47.600278,16.768611,2026-03-14 15:38:33.306647,17.6,16.46,16.59,17.6,1001,40,9.07,183,13,0.0,Clouds,few clouds,15
Fertőboz,47.625,16.691667,2026-03-14 15:38:34.469217,17.44,16.28,16.43,17.44,1001,40,9.22,182,18,0.0,Clouds,few clouds,15
Sopron,47.677778,16.587222,2026-03-14 15:38:35.633032,17.14,16.24,16.13,17.14,1001,51,9.02,181,27,0.0,Clouds,scattered clouds,15
Fertőszéplak-Fertőd,47.618889,16.850833,2026-03-14 15:38:36.793564,17.74,16.61,16.73,17.74,1001,40,8.99,182,11,0.0,Clouds,few clouds,15
Nyúl,47.587778,17.698056,2026-03-14 15:38:37.950811,17.02,15.72,17.02,18.14,1003,36,7.2,160,0,0.0,Clear,clear sky,15
Pannonhalma,47.547778,17.740833,2026-03-14 15:38:39.111979,16.96,15.65,16.96,18.08,1003,36,7.2,160,0,0.0,Clear,clear sky,15
Tarjánpuszta,47.504722,17.789167,2026-03-14 15:38:40.276041,16.73,15.4,16.73,17.84,1003,36,7.2,160,0,0.0,Clear,clear sky,15
Győrasszonyfa,47.4925,17.799167,2026-03-14 15:38:41.444784,16.66,15.32,16.66,17.77,1003,36,7.2,160,0,0.0,Clear,clear sky,15
Veszprémvarsány,47.443333,17.818333,2026-03-14 15:38:42.602904,16.71,15.61,16.71,17.83,1004,45,5.44,174,2,0.0,Clear,clear sky,15
Bakonyszentlászló,47.395556,17.8175,2026-03-14 15:38:43.760141,17.58,16.57,16.47,17.58,1004,45,5.35,174,3,0.0,Clear,clear sky,15
Porva-Csesznek,47.326944,17.841111,2026-03-14 15:38:44.920711,16.59,15.51,16.59,16.59,1004,46,5.21,175,3,0.0,Clear,clear sky,15
Zirc,47.266667,17.878056,2026-03-14 15:38:46.089023,16.45,15.38,16.45,16.45,1004,47,4.94,173,3,0.0,Clear,clear sky,15
Eplény,47.192778,17.921667,2026-03-14 15:38:47.248649,16.58,15.52,16.58,16.58,1004,47,4.42,174,3,0.0,Clear,clear sky,15
Marcaltő,47.4275,17.348889,2026-03-14 15:38:48.407743,18.17,16.98,18.17,18.17,1003,36,8.23,180,0,0.0,Clear,clear sky,15
Szany-Rábaszentandrás,47.460833,17.315278,2026-03-14 15:38:49.570551,18.17,16.98,18.17,18.17,1003,36,8.23,180,0,0.0,Clear,clear sky,15
Egyed-Rábacsanak,47.521944,17.316389,2026-03-14 15:38:50.732414,18.18,17.28,18.18,18.18,1003,47,7.21,183,6,0.0,Clear,clear sky,15
Rábapordány,47.557222,17.315,2026-03-14 15:38:51.892130,18.18,17.28,18.18,18.18,1003,47,7.25,182,6,0.0,Clear,clear sky,15
Albertfalva,47.440784,19.033965,2026-03-14 15:38:53.050856,17.48,16.3,16.54,17.78,1005,39,5.66,140,0,0.0,Clear,clear sky,15
Budafok,47.425833,19.041389,2026-03-14 15:38:54.216309,17.5,16.32,16.55,17.79,1005,39,5.66,140,0,0.0,Clear,clear sky,15
Tétényliget,47.384722,18.955278,2026-03-14 15:38:55.373827,17.5,16.32,16.57,17.81,1005,39,2.68,143,2,0.0,Clear,clear sky,15
Érd alsó,47.379722,18.923056,2026-03-14 15:38:56.532056,17.31,16.11,16.45,17.68,1005,39,2.68,143,2,0.0,Clear,clear sky,15
Tárnok,47.365556,18.873889,2026-03-14 15:38:57.702382,17.3,16.1,16.5,17.73,1005,39,5.27,151,2,0.0,Clear,clear sky,15
Martonvásár,47.321389,18.781667,2026-03-14 15:38:58.860268,17.37,16.23,16.43,17.66,1005,41,5.08,153,2,0.0,Clear,clear sky,15
Baracska,47.297222,18.753333,2026-03-14 15:39:00.022045,17.66,16.58,16.71,17.66,1005,42,4.96,154,2,0.0,Clear,clear sky,15
Pettend,47.26,18.708889,2026-03-14 15:39:01.196251,15.67,14.36,15.67,15.67,1005,41,4.82,156,2,0.0,Clear,clear sky,15
Kápolnásnyék,47.245556,18.692222,2026-03-14 15:39:02.364636,15.76,14.46,15.76,15.76,1005,41,4.74,157,2,0.0,Clear,clear sky,15
Velence,47.226944,18.663889,2026-03-14 15:39:03.529227,15.85,14.56,15.85,15.85,1005,41,4.73,157,2,0.0,Clear,clear sky,15
Velencefürdő,47.218611,18.648056,2026-03-14 15:39:04.688717,15.86,14.57,15.86,15.86,1005,41,4.7,157,2,0.0,Clear,clear sky,15
Gárdony,47.205833,18.624722,2026-03-14 15:39:05.860791,15.91,14.63,15.91,15.91,1005,41,4.7,158,2,0.0,Clear,clear sky,15
Agárd,47.197666,18.604907,2026-03-14 15:39:07.021642,15.91,14.63,15.91,15.91,1005,41,4.7,158,2,0.0,Clear,clear sky,15
Dinnyés,47.179722,18.560833,2026-03-14 15:39:08.181130,15.93,14.68,15.93,15.93,1005,42,4.7,159,2,0.0,Clear,clear sky,15
Székesfehérvár,47.183611,18.424722,2026-03-14 15:39:09.347836,16.0,14.75,16.0,16.0,1004,42,4.52,161,3,0.0,Clear,clear sky,15
Szabadbattyán,47.105278,18.388333,2026-03-14 15:39:10.515653,16.0,14.75,16.0,16.0,1004,42,4.6,158,3,0.0,Clear,clear sky,15
Kiscséripuszta,47.048056,18.355,2026-03-14 15:39:11.675818,15.83,14.57,15.83,15.83,1004,42,4.68,158,3,0.0,Clear,clear sky,15
Lepsény,46.9875,18.248056,2026-03-14 15:39:12.836620,17.68,16.6,17.68,17.68,1004,42,4.68,158,4,0.0,Clear,clear sky,15
Balatonaliga,46.984444,18.171389,2026-03-14 15:39:14.001973,17.49,16.42,17.49,17.49,1004,43,4.29,161,4,0.0,Clear,clear sky,15
Balatonvilágos,46.964167,18.157222,2026-03-14 15:39:15.160609,17.53,16.49,17.53,17.53,1004,44,4.18,163,4,0.0,Clear,clear sky,15
Szabadifürdő,46.926111,18.103333,2026-03-14 15:39:16.322706,17.7,16.31,17.7,17.7,1004,30,4.09,166,3,0.0,Clear,clear sky,15
Ózd alsó,48.227778,20.306111,2026-03-14 15:39:17.483751,16.5,15.12,16.5,16.5,1008,35,3.15,150,4,0.0,Clear,clear sky,15
Ózd,48.2225,20.294722,2026-03-14 15:39:18.651858,16.55,15.17,16.55,16.55,1008,35,3.15,150,4,0.0,Clear,clear sky,15
Alsóboldva,48.212778,20.792222,2026-03-14 15:39:19.811159,16.79,15.46,16.79,16.88,1008,36,3.22,149,3,0.0,Clear,clear sky,15
Boldva,48.223333,20.790278,2026-03-14 15:39:20.970621,16.87,15.55,16.79,16.87,1008,36,3.22,149,3,0.0,Clear,clear sky,15
Borsodszirák,48.259167,20.770556,2026-03-14 15:39:22.131952,16.83,15.48,16.83,16.83,1008,35,3.18,148,3,0.0,Clear,clear sky,15
Edelény alsó,48.279167,20.760833,2026-03-14 15:39:23.292184,14.23,12.62,14.23,14.23,1008,35,3.18,148,3,0.0,Clear,clear sky,15
Edelény,48.299722,20.749444,2026-03-14 15:39:24.460460,14.22,12.61,14.22,14.22,1008,35,3.14,147,2,0.0,Clear,clear sky,15
Szendrőlád,48.334444,20.731944,2026-03-14 15:39:25.624111,13.23,11.52,13.23,13.23,1008,35,3.01,146,2,0.0,Clear,clear sky,15
Szendrő,48.400725,20.721346,2026-03-14 15:39:26.784701,14.18,12.57,14.18,14.18,1007,35,2.89,144,2,0.0,Clear,clear sky,15
Szendrő felső,48.409907,20.720148,2026-03-14 15:39:27.951610,14.18,12.57,14.18,14.18,1007,35,2.89,144,2,0.0,Clear,clear sky,15
Szalonna,48.449444,20.722222,2026-03-14 15:39:29.112120,14.26,12.68,14.26,14.26,1007,36,2.8,144,3,0.0,Clear,clear sky,15
Perkupa,48.471389,20.691111,2026-03-14 15:39:30.276509,13.56,11.91,13.56,13.56,1007,36,2.68,143,3,0.0,Clear,clear sky,15
Szemeretelep,47.443056,19.214167,2026-03-14 15:39:31.444902,17.14,15.9,16.36,17.59,1006,38,5.66,140,0,0.0,Clear,clear sky,15
Jósvafő-Aggtelek,48.489722,20.693889,2026-03-14 15:39:32.607629,13.89,12.27,13.89,13.89,1007,36,2.67,143,3,0.0,Clear,clear sky,15
Bódvaszilas,48.5375,20.738056,2026-03-14 15:39:33.766464,13.51,11.86,13.51,13.51,1007,36,2.76,146,4,0.0,Clear,clear sky,15
Komjáti,48.5475,20.759722,2026-03-14 15:39:34.927174,13.07,11.4,13.07,13.07,1007,37,2.82,148,5,0.0,Clear,clear sky,15
Tornanádaska,48.558333,20.787222,2026-03-14 15:39:36.087729,14.24,12.69,14.24,14.24,1007,37,2.84,148,5,0.0,Clear,clear sky,15
Onga,48.121111,20.906667,2026-03-14 15:39:37.244962,16.85,15.53,16.85,16.85,1008,36,3.04,149,4,0.0,Clear,clear sky,15
Szikszó-Vásártér,48.193056,20.934722,2026-03-14 15:39:38.405565,16.81,15.49,16.81,16.81,1008,36,3.11,149,3,0.0,Clear,clear sky,15
Szikszó,48.201667,20.941667,2026-03-14 15:39:39.565071,14.2,12.62,14.2,14.2,1008,36,3.06,148,4,0.0,Clear,clear sky,15
Aszaló,48.219867,20.961466,2026-03-14 15:39:40.723404,14.08,12.48,14.08,14.08,1008,36,3.08,148,4,0.0,Clear,clear sky,15
Halmaj,48.246667,20.991667,2026-03-14 15:39:41.888862,14.26,12.68,14.26,14.26,1008,36,3.04,147,4,0.0,Clear,clear sky,15
Csobád,48.277222,21.033889,2026-03-14 15:39:43.049734,14.31,12.71,14.31,14.31,1008,35,2.99,146,4,0.0,Clear,clear sky,15
Ináncs,48.291111,21.057778,2026-03-14 15:39:44.211671,14.29,12.71,14.29,14.29,1008,36,2.87,144,4,0.0,Clear,clear sky,15
Forró-Encs,48.3275,21.117778,2026-03-14 15:39:45.370159,14.27,12.69,14.27,14.27,1007,36,2.78,142,4,0.0,Clear,clear sky,15
Méra,48.363056,21.140278,2026-03-14 15:39:46.530035,14.12,12.53,14.12,14.12,1007,36,2.65,139,4,0.0,Clear,clear sky,15
Novajidrány,48.404444,21.170556,2026-03-14 15:39:47.704692,16.11,14.72,15.5,16.11,1007,36,2.53,137,4,0.0,Clear,clear sky,15
Hernádszurdok,48.487222,21.213889,2026-03-14 15:39:48.862947,15.85,14.22,15.25,16.03,1007,28,3.6,160,0,0.0,Clear,clear sky,15
Hidasnémeti,48.508333,21.229722,2026-03-14 15:39:50.025465,15.85,14.22,15.25,16.04,1007,28,3.6,160,0,0.0,Clear,clear sky,15
Mád,48.19,21.268889,2026-03-14 15:39:51.187881,16.74,15.41,16.74,16.74,1008,36,2.52,147,6,0.0,Clear,clear sky,15
Rátka,48.215,21.230278,2026-03-14 15:39:52.361845,16.9,15.59,16.9,16.9,1008,36,2.56,144,5,0.0,Clear,clear sky,15
Tállya,48.226944,21.225278,2026-03-14 15:39:53.521003,16.85,15.53,16.85,16.85,1008,36,2.56,144,5,0.0,Clear,clear sky,15
Golop,48.242778,21.204167,2026-03-14 15:39:54.679060,16.97,15.66,16.97,16.97,1008,36,2.69,143,5,0.0,Clear,clear sky,15
Abaújszántó,48.286944,21.181667,2026-03-14 15:39:55.842952,16.88,15.56,16.88,16.88,1008,36,2.64,141,5,0.0,Clear,clear sky,15
Abaújszántói fürdő,48.268333,21.179722,2026-03-14 15:39:57.009813,16.94,15.63,16.94,16.94,1008,36,2.66,142,5,0.0,Clear,clear sky,15
Abaújkér,48.309444,21.198333,2026-03-14 15:39:58.166693,16.84,15.52,16.84,16.84,1007,36,2.61,140,5,0.0,Clear,clear sky,15
Boldogkőváralja,48.345,21.208889,2026-03-14 15:39:59.332387,16.64,15.3,16.64,16.64,1007,36,2.36,137,5,0.0,Clear,clear sky,15
Korlát-Vizsoly,48.365,21.219167,2026-03-14 15:40:00.497028,16.55,15.23,16.55,16.55,1007,37,2.31,136,5,0.0,Clear,clear sky,15
Fony,48.411389,21.242778,2026-03-14 15:40:01.674686,15.79,14.39,13.6,15.91,1007,37,2.25,135,5,0.0,Clear,clear sky,15
Hejce-Vilmány,48.419444,21.245556,2026-03-14 15:40:02.834776,15.72,14.31,13.56,15.88,1007,37,2.25,135,5,0.0,Clear,clear sky,15
Göncruszka,48.445,21.246944,2026-03-14 15:40:03.995150,15.78,14.38,15.18,15.97,1007,37,2.23,135,5,0.0,Clear,clear sky,15
Gönc,48.470556,21.261389,2026-03-14 15:40:05.151304,15.68,14.27,15.08,15.87,1007,37,2.09,135,6,0.0,Clear,clear sky,15
Zsujta,48.4925,21.265,2026-03-14 15:40:06.307768,15.69,14.05,15.1,15.89,1007,28,3.6,160,0,0.0,Clear,clear sky,15
Bodrogkeresztúr,48.175556,21.354167,2026-03-14 15:40:07.464644,17.01,15.71,17.01,17.01,1008,36,2.42,151,6,0.0,Clear,clear sky,15
Szegi,48.201944,21.387778,2026-03-14 15:40:08.626849,17.05,15.75,14.09,17.05,1008,36,2.21,151,6,0.0,Clear,clear sky,15
Erdőbénye,48.218056,21.401944,2026-03-14 15:40:09.788780,17.02,15.72,14.06,17.02,1008,36,2.07,149,6,0.0,Clear,clear sky,15
Olaszliszka-Tolcsva,48.258333,21.448056,2026-03-14 15:40:10.945996,17.05,15.75,14.09,17.05,1008,36,1.87,144,7,0.0,Clear,clear sky,15
Bodrogolaszi,48.286944,21.512778,2026-03-14 15:40:12.104525,14.03,12.32,14.03,16.99,1008,32,1.77,142,7,0.0,Clear,clear sky,15
Sárospatak,48.325833,21.566111,2026-03-14 15:40:13.267334,13.98,12.27,13.98,16.94,1008,32,1.86,138,7,0.0,Clear,clear sky,15
Sátoraljaújhely,48.385833,21.657778,2026-03-14 15:40:14.427515,14.06,12.36,14.06,14.06,1008,32,2.13,131,7,0.0,Clear,clear sky,15
Vecsés,47.40855,19.25652,2026-03-14 15:40:15.588336,17.18,15.89,16.55,17.63,1006,36,5.66,140,0,0.0,Clear,clear sky,15
Vecsés-Kertekalja,47.403333,19.271389,2026-03-14 15:40:16.738573,17.24,15.96,16.61,17.69,1006,36,5.66,140,0,0.0,Clear,clear sky,15
Üllő,47.390833,19.348889,2026-03-14 15:40:17.904252,17.17,15.88,16.55,17.62,1006,36,5.66,140,0,0.0,Clear,clear sky,15
Monor,47.34545,19.43701,2026-03-14 15:40:19.067853,17.07,15.77,17.07,17.07,1006,36,5.66,140,0,0.0,Clear,clear sky,15
Pilis,47.279722,19.536389,2026-03-14 15:40:20.229076,16.97,15.79,16.97,17.03,1006,41,5.54,152,1,0.0,Clear,clear sky,15
Albertirsa,47.240278,19.606389,2026-03-14 15:40:21.389699,17.06,15.76,17.06,17.06,1006,36,5.74,153,2,0.0,Clear,clear sky,15
Ceglédbercel-Cserő,47.210278,19.686944,2026-03-14 15:40:22.553529,17.13,15.84,17.13,17.13,1006,36,5.8,154,2,0.0,Clear,clear sky,15
Cegléd,47.182778,19.806111,2026-03-14 15:40:23.728920,17.23,15.95,17.07,17.23,1006,36,5.87,157,4,0.0,Clear,clear sky,15
Abony,47.173056,20.016389,2026-03-14 15:40:24.909159,17.16,16.05,16.97,17.3,1007,43,6.17,140,0,0.0,Clear,clear sky,15
Szolnok,47.179167,20.175833,2026-03-14 15:40:26.066331,17.09,15.9,16.99,17.32,1007,40,6.17,140,0,0.0,Clear,clear sky,15
Szajol,47.170556,20.295278,2026-03-14 15:40:27.223451,17.01,15.71,17.01,17.21,1007,36,6.17,140,0,0.0,Clear,clear sky,15
Törökszentmiklós,47.170278,20.413611,2026-03-14 15:40:28.385148,17.0,15.7,17.0,17.21,1007,36,6.17,140,0,0.0,Clear,clear sky,15
Rákoscsaba-Újtelep,47.4875,19.271944,2026-03-14 15:40:29.545455,17.03,15.75,16.29,17.53,1005,37,5.66,140,0,0.0,Clear,clear sky,15
Rákoscsaba,47.492222,19.284722,2026-03-14 15:40:30.709340,17.03,15.75,16.44,17.52,1006,37,5.66,140,0,0.0,Clear,clear sky,15
Pécel,47.493889,19.338889,2026-03-14 15:40:31.867220,16.9,15.59,16.32,17.4,1006,36,5.66,140,0,0.0,Clear,clear sky,15
Isaszeg,47.537719,19.388955,2026-03-14 15:40:33.042163,16.79,15.46,16.23,17.31,1006,36,5.66,140,0,0.0,Clear,clear sky,15
Gödöllő,47.592222,19.358611,2026-03-14 15:40:34.203787,16.45,15.09,16.01,17.09,1006,36,5.66,140,0,0.0,Clear,clear sky,15
Máriabesnyő,47.595556,19.389722,2026-03-14 15:40:35.362581,16.63,15.39,16.15,17.23,1006,40,4.87,151,2,0.0,Clear,clear sky,15
Bag,47.641111,19.471667,2026-03-14 15:40:36.522020,17.08,15.94,17.08,17.08,1006,42,4.84,150,3,0.0,Clear,clear sky,15
Aszód,47.647467,19.492882,2026-03-14 15:40:37.681013,17.16,16.03,17.16,17.16,1006,42,4.76,150,3,0.0,Clear,clear sky,15
Hévízgyörk,47.638611,19.526667,2026-03-14 15:40:38.839818,15.18,13.85,15.18,15.18,1006,42,4.68,150,3,0.0,Clear,clear sky,15
Galgahévíz,47.6325,19.558333,2026-03-14 15:40:40.039576,15.38,14.1,15.38,15.38,1006,43,4.58,151,3,0.0,Clear,clear sky,15
Tura,47.626389,19.5975,2026-03-14 15:40:41.208930,15.28,13.96,15.28,15.28,1006,42,4.55,151,3,0.0,Clear,clear sky,15
Hatvan,47.663611,19.671389,2026-03-14 15:40:42.368302,15.26,13.94,15.26,15.26,1006,42,4.33,147,3,0.0,Clear,clear sky,15
Vámosgyörk,47.686111,19.927778,2026-03-14 15:40:43.530064,15.1,13.71,15.1,15.1,1007,40,4.01,146,6,0.0,Clear,clear sky,15
Adács,47.696389,19.975278,2026-03-14 15:40:44.694307,15.05,13.63,15.05,15.05,1007,39,3.91,144,6,0.0,Clear,clear sky,15
Karácsond,47.718056,20.048611,2026-03-14 15:40:45.852797,14.88,13.44,14.88,14.88,1007,39,3.88,143,7,0.0,Clear,clear sky,15
Ludas,47.723889,20.095556,2026-03-14 15:40:47.014317,15.02,13.54,15.02,15.02,1007,37,3.9,145,8,0.0,Clear,clear sky,15
Nagyút,47.72666666666667,20.161388888888887,2026-03-14 15:40:48.174000,14.96,13.48,14.96,14.96,1007,37,3.91,146,9,0.0,Clear,clear sky,15
Kál-Kápolna,47.734167,20.254167,2026-03-14 15:40:49.334915,14.9,13.39,14.9,14.9,1007,36,3.98,151,10,0.0,Clear,clear sky,15
Füzesabony,47.751389,20.415278,2026-03-14 15:40:50.511010,14.82,13.27,14.82,14.82,1008,35,3.99,162,11,0.0,Clouds,few clouds,15
Szihalom,47.766944,20.491944,2026-03-14 15:40:51.674696,16.84,15.49,16.84,16.84,1008,35,3.93,167,11,0.0,Clouds,few clouds,15
Mezőkövesd,47.797222,20.5675,2026-03-14 15:40:52.829633,16.85,15.5,16.85,16.85,1008,35,3.73,171,10,0.0,Clear,clear sky,15
Mezőkövesd felső,47.807222,20.591389,2026-03-14 15:40:54.003598,16.83,15.48,16.83,16.92,1008,35,3.73,171,10,0.0,Clear,clear sky,15
Mezőkeresztes-Mezőnyárád,47.845556,20.670278,2026-03-14 15:40:55.167322,16.83,15.38,16.83,16.92,1008,31,3.34,170,10,0.0,Clear,clear sky,15
Csincse,47.890833,20.764167,2026-03-14 15:40:56.326309,16.85,15.4,16.85,16.94,1008,31,0.89,161,9,0.0,Clear,clear sky,15
Emőd,47.930556,20.822778,2026-03-14 15:40:57.485987,16.87,15.42,16.87,16.96,1008,31,0.89,161,8,0.0,Clear,clear sky,15
Nyékládháza,47.9925,20.840556,2026-03-14 15:40:58.647818,16.9,15.46,16.9,16.99,1008,31,0.89,161,7,0.0,Clear,clear sky,15
Miskolc-Tiszai,48.098611,20.811389,2026-03-14 15:40:59.813634,16.82,15.37,16.82,16.91,1008,31,3.08,151,5,0.0,Clear,clear sky,15
Felsőzsolca,48.083611,20.866111,2026-03-14 15:41:00.972830,16.85,15.4,16.85,16.93,1008,31,3.06,150,5,0.0,Clear,clear sky,15
Hernádnémeti-Bőcs,48.051389,20.985,2026-03-14 15:41:02.130834,16.85,15.53,16.85,16.85,1008,36,2.97,149,5,0.0,Clear,clear sky,15
Tiszalúc,48.039722,21.0575,2026-03-14 15:41:03.290798,16.89,15.57,16.89,17.04,1008,36,2.94,150,6,0.0,Clear,clear sky,15
Taktaharkány,48.091667,21.128611,2026-03-14 15:41:04.455468,17.09,15.79,17.09,17.09,1008,36,2.9,149,5,0.0,Clear,clear sky,15
Taktaszada,48.1125,21.149444,2026-03-14 15:41:05.613825,17.1,15.81,17.1,17.1,1008,36,2.84,149,6,0.0,Clear,clear sky,15
Szerencs,48.155556,21.214444,2026-03-14 15:41:06.772304,17.09,15.79,17.09,17.09,1008,36,2.64,148,6,0.0,Clear,clear sky,15
Mezőzombor,48.156944,21.267778,2026-03-14 15:41:07.932346,17.09,15.79,17.09,17.09,1008,36,2.57,149,6,0.0,Clear,clear sky,15
Tarcal,48.125,21.34,2026-03-14 15:41:09.101156,17.11,15.82,17.11,17.11,1008,36,2.56,156,6,0.0,Clear,clear sky,15
Tokaj,48.112778,21.406667,2026-03-14 15:41:10.259566,17.07,15.77,17.07,17.07,1008,36,2.42,160,6,0.0,Clear,clear sky,15
Rakamaz,48.12,21.475,2026-03-14 15:41:11.424530,17.07,15.75,17.07,17.07,1008,35,2.38,161,6,0.0,Clear,clear sky,15
Görögszállás,48.04,21.555,2026-03-14 15:41:12.582248,17.03,15.7,17.03,17.03,1008,35,2.56,168,7,0.0,Clear,clear sky,15
Nyírtelek,48.005,21.615556,2026-03-14 15:41:13.740372,17.07,15.72,17.07,17.07,1008,34,2.51,172,8,0.0,Clear,clear sky,15
Rákoshegy,47.468611,19.245556,2026-03-14 15:41:14.897239,16.99,15.74,16.24,17.47,1006,38,5.66,140,0,0.0,Clear,clear sky,15
Ecser,47.439444,19.318056,2026-03-14 15:41:16.060261,17.05,15.75,16.44,17.52,1006,36,5.66,140,0,0.0,Clear,clear sky,15
Maglód,47.438889,19.340833,2026-03-14 15:41:17.217610,16.99,15.68,16.38,17.46,1006,36,5.66,140,0,0.0,Clear,clear sky,15
Maglódi nyaraló,47.434167,19.363611,2026-03-14 15:41:18.377601,16.89,15.57,16.29,17.36,1006,36,5.66,140,0,0.0,Clear,clear sky,15
Gyömrő,47.429722,19.393333,2026-03-14 15:41:19.535762,16.83,15.51,16.25,17.33,1006,36,5.66,140,0,0.0,Clear,clear sky,15
Mende,47.426944,19.439722,2026-03-14 15:41:20.697940,16.79,15.46,16.79,17.29,1006,36,5.66,140,0,0.0,Clear,clear sky,15
Szőlősnyaraló,47.450278,19.561111,2026-03-14 15:41:21.855611,17.02,15.87,16.96,17.02,1006,42,5.02,156,1,0.0,Clear,clear sky,15
Sülysáp,47.451944,19.5275,2026-03-14 15:41:23.010160,17.0,15.85,16.94,17.0,1006,42,4.95,154,1,0.0,Clear,clear sky,15
Tápiószecső,47.443056,19.614722,2026-03-14 15:41:24.165801,17.04,15.9,17.04,17.1,1006,42,5.04,157,1,0.0,Clear,clear sky,15
Szentmártonkáta,47.431944,19.680556,2026-03-14 15:41:25.321916,17.07,15.77,17.07,17.07,1006,36,5.08,159,2,0.0,Clear,clear sky,15
Nagykáta,47.409722,19.737778,2026-03-14 15:41:26.484473,17.14,15.85,17.14,17.14,1006,36,5.2,160,2,0.0,Clear,clear sky,15
Farmos,47.355278,19.8375,2026-03-14 15:41:27.640761,17.25,15.97,17.25,17.25,1006,36,1.34,131,4,0.0,Clear,clear sky,15
Tápiószele,47.346313,19.873504,2026-03-14 15:41:28.803189,17.23,15.95,17.23,17.23,1006,36,1.34,131,4,0.0,Clear,clear sky,15
Tápiógyörgye,47.325,19.95,2026-03-14 15:41:29.967374,17.29,16.01,17.17,17.29,1006,36,1.34,131,7,0.0,Clear,clear sky,15
Újszász,47.285833,20.066944,2026-03-14 15:41:31.131357,17.33,16.06,17.01,17.33,1007,36,5.82,166,8,0.0,Clear,clear sky,15
Szurdokpüspöki,47.851944,19.690278,2026-03-14 15:41:32.291771,14.95,13.6,14.95,14.95,1006,42,4.17,142,2,0.0,Clear,clear sky,15
Lőrinci,47.739444,19.673611,2026-03-14 15:41:33.452929,15.14,13.81,15.14,15.14,1006,42,4.27,143,3,0.0,Clear,clear sky,15
Selyp,47.759167,19.670833,2026-03-14 15:41:34.613650,15.11,13.77,15.11,15.11,1006,42,4.25,142,3,0.0,Clear,clear sky,15
Apc-Zagyvaszántó,47.791328,19.66822,2026-03-14 15:41:35.777369,15.09,13.75,15.09,15.09,1006,42,4.24,142,3,0.0,Clear,clear sky,15
Pásztó,47.918889,19.688889,2026-03-14 15:41:36.938667,14.77,13.4,14.77,14.77,1006,42,4.11,144,2,0.0,Clear,clear sky,15
Mátraszőlős-Hasznos,47.938506,19.706122,2026-03-14 15:41:38.098698,14.72,13.34,14.72,14.72,1007,42,4.01,145,2,0.0,Clear,clear sky,15
Tar,47.956111,19.746389,2026-03-14 15:41:39.261033,14.27,12.85,14.27,14.27,1007,42,3.92,147,2,0.0,Clear,clear sky,15
Mátraverebély,47.968333,19.778611,2026-03-14 15:41:40.419752,14.27,12.85,14.27,14.27,1007,42,3.92,147,2,0.0,Clear,clear sky,15
Nagybátony,47.981111,19.82,2026-03-14 15:41:41.579462,14.4,12.97,14.4,14.4,1007,41,3.87,149,2,0.0,Clear,clear sky,15
Kisterenye,48.009444,19.831944,2026-03-14 15:41:42.739459,14.45,13.02,14.45,14.45,1007,41,3.82,150,2,0.0,Clear,clear sky,15
Kisterenye-Bányatelep,48.021389,19.831944,2026-03-14 15:41:43.898424,14.45,13.02,14.45,14.45,1007,41,3.82,150,2,0.0,Clear,clear sky,15
Salgótarján külső,48.089444,19.790833,2026-03-14 15:41:45.074650,13.92,12.46,13.92,13.92,1007,42,3.39,150,2,0.0,Clear,clear sky,15
Balatonfenyves GV,46.7125,17.479167,2026-03-14 15:41:46.238666,18.08,17.22,18.08,18.08,1004,49,3.89,200,5,0.0,Clear,clear sky,15
Várhegyalja,47.737778,18.366667,2026-03-14 15:41:47.406211,15.97,14.72,15.97,15.97,1004,42,5.0,162,2,0.0,Clear,clear sky,15
Imremajor,46.680556,17.499722,2026-03-14 15:41:48.563953,18.11,17.26,18.11,18.11,1004,49,3.86,199,5,0.0,Clear,clear sky,15
Rákospalota-Kertváros,47.578333,19.122778,2026-03-14 15:41:49.721736,16.84,15.62,16.49,17.72,1005,40,5.66,140,0,0.0,Clear,clear sky,15
Vicziántelep,47.675833,19.286111,2026-03-14 15:41:50.883596,16.22,14.94,16.11,17.19,1005,40,5.2,150,2,0.0,Clear,clear sky,15
Pálmajor,46.662831,17.457526,2026-03-14 15:41:52.043060,18.1,17.22,18.1,18.1,1004,48,3.81,197,5,0.0,Clear,clear sky,15
Somogyszentpál felső,46.649758,17.471404,2026-03-14 15:41:53.201395,18.07,17.19,18.07,18.07,1004,48,3.82,198,5,0.0,Clear,clear sky,15
Somogyszentpál,46.638611,17.478611,2026-03-14 15:41:54.360985,18.06,17.17,18.06,18.06,1004,48,3.77,197,5,0.0,Clear,clear sky,15
Rudnaykert,47.7175,19.257778,2026-03-14 15:41:55.522353,16.46,15.23,16.46,17.53,1005,41,5.35,149,2,0.0,Clear,clear sky,15
Maroshegy,47.158333,18.406667,2026-03-14 15:41:56.681805,15.99,14.74,15.99,15.99,1004,42,4.55,160,3,0.0,Clear,clear sky,15
Bánhida,47.573703,18.371737,2026-03-14 15:41:57.840022,15.68,14.4,15.68,15.68,1004,42,5.14,170,3,0.0,Clear,clear sky,15
Magyarkút,47.850278,19.045,2026-03-14 15:41:59.012246,14.73,13.38,14.73,14.73,1005,43,4.52,144,2,0.0,Clear,clear sky,15
Becske alsó,47.897222,19.364722,2026-03-14 15:42:00.191652,14.19,12.76,14.19,14.19,1006,42,5.15,145,1,0.0,Clear,clear sky,15
Hosszúberek-Péteri,47.370556,19.389722,2026-03-14 15:42:01.351662,17.1,15.81,17.1,17.6,1006,36,5.66,140,0,0.0,Clear,clear sky,15
Monorierdő,47.308889,19.499167,2026-03-14 15:42:02.514735,17.01,15.84,16.95,17.01,1006,41,5.4,152,1,0.0,Clear,clear sky,15
Ceglédbercel,47.215833,19.658611,2026-03-14 15:42:03.671803,17.12,15.83,17.12,17.12,1006,36,5.8,154,2,0.0,Clear,clear sky,15
Budai út,47.208333,19.731389,2026-03-14 15:42:04.834053,17.16,15.87,17.16,17.16,1006,36,5.79,155,3,0.0,Clear,clear sky,15
Büdöskútpuszta,48.373056,20.726111,2026-03-14 15:42:05.992470,14.3,12.7,14.3,14.3,1008,35,2.95,145,2,0.0,Clear,clear sky,15
Bánrévei Vízmű,48.282778,20.368333,2026-03-14 15:42:07.153920,16.69,15.33,16.69,16.69,1008,35,2.76,143,7,0.0,Clear,clear sky,15
Rákoskert,47.456389,19.296111,2026-03-14 15:42:08.312208,16.92,15.61,16.31,17.39,1006,36,5.66,140,0,0.0,Clear,clear sky,15
Szirmabesenyő,48.146944,20.783056,2026-03-14 15:42:09.470727,16.75,15.45,16.75,16.84,1008,37,3.14,150,4,0.0,Clear,clear sky,15
Kitérőgyár,47.766944,19.935278,2026-03-14 15:42:10.633387,14.74,13.31,14.74,14.74,1007,40,3.86,140,5,0.0,Clear,clear sky,15
Tápiószentmárton,47.373333,19.797778,2026-03-14 15:42:11.799427,17.19,15.9,17.19,17.19,1006,36,1.34,131,3,0.0,Clear,clear sky,15
Zagyvarékas,47.244229,20.097435,2026-03-14 15:42:12.965961,17.13,15.97,17.01,17.34,1007,41,6.17,140,0,0.0,Clear,clear sky,15
Abonyi út,47.206401,20.125204,2026-03-14 15:42:14.127177,17.12,15.96,17.01,17.34,1007,41,6.17,140,0,0.0,Clear,clear sky,15
Jászkisér felső,47.438056,20.202222,2026-03-14 15:42:15.284829,17.78,16.55,17.78,17.78,1007,36,5.05,161,9,0.0,Clear,clear sky,15
Szellőhát,47.425556,20.188889,2026-03-14 15:42:16.443783,17.33,16.06,17.33,17.33,1007,36,5.17,163,9,0.0,Clear,clear sky,15
Szilvásvárad-Szalajkavölgy,48.0956,20.38272,2026-03-14 15:42:17.601769,15.25,13.61,15.25,15.25,1008,30,3.55,157,5,0.0,Clear,clear sky,15
Vásárosnamény külső,48.084444,22.255556,2026-03-14 15:42:18.762026,14.99,13.38,14.99,14.99,1008,32,3.51,129,5,0.0,Clear,clear sky,15
Újváros,46.660556,20.536111,2026-03-14 15:42:20.001349,17.19,16.11,15.55,17.19,1007,44,5.75,174,9,0.0,Clear,clear sky,15
Városi park,46.697778,19.864722,2026-03-14 15:42:21.162650,17.1,15.94,17.1,17.92,1007,41,6.25,155,8,0.0,Clear,clear sky,15
Belsőkamaráspuszta,46.341944,20.848889,2026-03-14 15:42:22.321360,16.7,15.31,16.7,16.7,1008,34,5.78,177,20,0.0,Clouds,few clouds,15
Sajószöged,47.945278,20.981667,2026-03-14 15:42:23.509052,16.94,15.5,16.94,16.94,1008,31,2.95,151,7,0.0,Clear,clear sky,15
Kazincbarcika alsó,48.255278,20.649167,2026-03-14 15:42:24.667671,16.8,15.45,16.8,16.8,1008,35,3.0,147,3,0.0,Clear,clear sky,15
Nyárjas,46.857778,19.923611,2026-03-14 15:42:25.856100,17.05,15.7,17.05,17.88,1007,34,6.69,140,0,0.0,Clear,clear sky,15
Pogonyipuszta,48.296389,20.381667,2026-03-14 15:42:27.017030,16.65,15.28,16.65,16.65,1008,35,2.76,143,7,0.0,Clear,clear sky,15
Sióvölgy,46.911103,18.076964,2026-03-14 15:42:28.179032,17.75,16.36,17.75,17.75,1004,30,3.69,172,3,0.0,Clear,clear sky,15
Répáspuszta,46.430278,17.847222,2026-03-14 15:42:29.341904,15.48,14.34,15.48,15.48,1004,48,2.68,194,6,0.0,Clear,clear sky,15
Virányos,48.066667,21.527222,2026-03-14 15:42:30.498998,17.06,15.74,17.06,17.06,1008,35,2.49,167,6,0.0,Clear,clear sky,15
Füzesbokor,47.988611,21.6475,2026-03-14 15:42:31.659931,17.06,15.71,17.06,17.06,1008,34,2.52,172,8,0.0,Clear,clear sky,15
Kunfehértó,46.355833,19.417222,2026-03-14 15:42:32.826293,15.66,14.35,15.66,15.66,1006,41,5.93,144,8,0.0,Clear,clear sky,15
Erdőszél,46.329444,19.395,2026-03-14 15:42:33.986105,15.56,14.24,15.56,15.56,1006,41,5.67,144,8,0.0,Clear,clear sky,15
Jánoshalma,46.293056,19.330278,2026-03-14 15:42:35.147086,15.7,14.4,15.7,15.7,1006,41,5.5,144,8,0.0,Clear,clear sky,15
Mélykút,46.213056,19.370556,2026-03-14 15:42:36.306285,15.74,14.41,15.74,15.74,1006,40,5.66,143,7,0.0,Clear,clear sky,15
Bácsalmás,46.118056,19.346389,2026-03-14 15:42:37.464460,15.85,14.54,15.85,15.85,1006,40,5.57,141,7,0.0,Clear,clear sky,15
Almás,46.116216,19.328803,2026-03-14 15:42:38.626516,15.85,14.54,15.85,15.85,1006,40,5.57,141,7,0.0,Clear,clear sky,15
Bácsbokod-Bácsborsód,46.115833,19.16,2026-03-14 15:42:39.791082,15.93,14.68,15.93,15.93,1005,42,4.55,142,6,0.0,Clear,clear sky,15
Baja,46.187014,18.957602,2026-03-14 15:42:40.953150,16.15,14.97,16.15,16.15,1005,44,3.57,146,9,0.0,Clear,clear sky,15
Harkakötöny,46.458333,19.601944,2026-03-14 15:42:42.114585,16.51,15.26,16.51,16.51,1006,40,6.38,146,9,0.0,Clear,clear sky,15
Tajó,46.473056,19.650556,2026-03-14 15:42:43.275133,16.55,15.31,16.55,16.55,1006,40,6.42,146,9,0.0,Clear,clear sky,15
Kiskunmajsa,46.501667,19.728056,2026-03-14 15:42:44.434537,16.59,15.35,16.59,16.59,1006,40,6.48,148,9,0.0,Clear,clear sky,15
Jászszentlászló,46.565833,19.753611,2026-03-14 15:42:45.595006,15.56,14.24,15.56,15.56,1006,41,6.42,150,9,0.0,Clear,clear sky,15
Galambos,46.625,19.801111,2026-03-14 15:42:46.755546,15.56,14.24,15.56,15.56,1006,41,6.34,152,9,0.0,Clear,clear sky,15
Pestszentimre,47.402222,19.188611,2026-03-14 15:42:47.916173,17.27,16.04,16.45,17.68,1005,38,5.66,140,0,0.0,Clear,clear sky,15
Gyál felső,47.390278,19.204722,2026-03-14 15:42:49.074341,17.3,16.03,16.61,17.69,1005,36,5.66,140,0,0.0,Clear,clear sky,15
Gyál,47.376667,19.219444,2026-03-14 15:42:50.243554,17.32,16.05,16.64,17.72,1005,36,5.66,140,0,0.0,Clear,clear sky,15
Ócsa,47.301389,19.232222,2026-03-14 15:42:51.401839,17.34,16.07,16.67,17.73,1005,36,5.66,140,0,0.0,Clear,clear sky,15
Inárcs-Kakucs,47.247222,19.317778,2026-03-14 15:42:52.559231,17.23,16.08,17.23,17.23,1005,41,5.15,149,1,0.0,Clear,clear sky,15
Dabas,47.194722,19.328889,2026-03-14 15:42:53.726729,17.24,16.12,17.24,17.24,1005,42,5.37,149,1,0.0,Clear,clear sky,15
Gyón,47.178333,19.355556,2026-03-14 15:42:54.885920,17.21,16.08,17.21,17.21,1005,42,5.44,149,2,0.0,Clear,clear sky,15
Hernád,47.161389,19.4025,2026-03-14 15:42:56.052815,15.6,14.29,15.6,15.6,1006,41,5.73,150,3,0.0,Clear,clear sky,15
Bakonygyirót,47.416389,17.811944,2026-03-14 15:42:57.217098,16.59,15.48,16.59,17.71,1004,45,5.3,176,2,0.0,Clear,clear sky,15
Vinye,47.360317,17.819635,2026-03-14 15:42:58.378865,17.03,15.99,15.91,17.03,1004,46,5.29,174,3,0.0,Clear,clear sky,15
Nemesgörzsöny,47.402924,17.376385,2026-03-14 15:42:59.541444,18.16,16.97,18.16,18.16,1003,36,8.23,180,0,0.0,Clear,clear sky,15
Rábahíd,47.438618,17.337525,2026-03-14 15:43:00.700051,18.15,16.96,18.15,18.15,1003,36,8.23,180,0,0.0,Clear,clear sky,15
Öskü,47.162222,18.076389,2026-03-14 15:43:01.862709,15.7,14.53,15.7,15.7,1004,46,4.45,168,4,0.0,Clear,clear sky,15
Márkó,47.1275,17.813889,2026-03-14 15:43:03.022402,17.05,15.96,16.53,17.05,1004,44,3.79,181,4,0.0,Clear,clear sky,15
Nemeskocs,47.203333,17.188889,2026-03-14 15:43:04.184412,18.11,17.26,18.11,18.11,1003,49,6.66,182,7,0.0,Clear,clear sky,15
Zalagyömörő,47.011111,17.220833,2026-03-14 15:43:05.350032,15.92,14.87,15.92,15.92,1003,50,5.75,184,10,0.0,Clear,clear sky,15
Rigács,47.061667,17.199167,2026-03-14 15:43:06.507204,15.91,14.86,15.91,15.91,1003,50,5.89,184,9,0.0,Clear,clear sky,15
Kemenespálfa,47.139722,17.183056,2026-03-14 15:43:07.666779,16.06,15.0,16.06,16.06,1003,49,6.32,183,10,0.0,Clear,clear sky,15
Lentiszombathely,46.611389,16.5725,2026-03-14 15:43:08.835182,15.02,14.09,15.02,15.02,1003,58,4.0,211,73,0.0,Clouds,broken clouds,15
Ortaháza,46.626667,16.685833,2026-03-14 15:43:09.995385,14.93,13.94,14.93,14.93,1003,56,3.33,207,62,0.0,Clouds,broken clouds,15
Rádiháza,46.654722,16.765833,2026-03-14 15:43:11.167335,14.96,13.97,14.96,14.96,1003,56,3.25,203,55,0.0,Clouds,broken clouds,15
Baktüttös,46.690833,16.826389,2026-03-14 15:43:12.324884,17.6,16.85,17.6,17.6,1003,55,3.54,194,41,0.0,Clouds,scattered clouds,15
Budafa,46.851667,16.624722,2026-03-14 15:43:13.483336,15.18,14.22,15.18,15.18,1003,56,4.6,205,51,0.0,Clouds,broken clouds,15
Zalapatakalja,46.845556,16.603889,2026-03-14 15:43:14.643427,15.15,14.21,15.15,15.15,1003,57,4.87,207,57,0.0,Clouds,broken clouds,15
Tormásliget,47.430556,16.781667,2026-03-14 15:43:15.803405,16.41,15.44,16.41,16.41,1002,51,8.05,186,7,0.0,Clear,clear sky,15
Belecska,46.64,18.411389,2026-03-14 15:43:16.961839,16.13,14.9,16.13,16.13,1005,42,4.79,162,4,0.0,Clear,clear sky,15
Almár,47.956111,20.356944,2026-03-14 15:43:18.129074,16.46,14.94,16.37,16.46,1008,30,3.96,160,7,0.0,Clear,clear sky,15
Vasútmúzeum,47.543889,19.099444,2026-03-14 15:43:19.290020,16.96,15.73,15.93,17.73,1005,39,5.66,140,0,0.0,Clear,clear sky,15
Abda,47.690833,17.540556,2026-03-14 15:43:20.446292,17.09,16.06,17.09,17.09,1003,46,6.9,181,5,0.0,Clear,clear sky,15
Vadaspark,47.526111,18.949167,2026-03-14 15:43:21.607599,14.99,13.59,14.13,15.92,1005,40,4.92,179,3,0.0,Clear,clear sky,15
Barosstelep,47.398889,18.989167,2026-03-14 15:43:22.764787,17.52,16.35,15.99,17.79,1005,39,2.68,143,2,0.0,Clear,clear sky,15
Fegyvernek-Örményes,47.194444,20.5575,2026-03-14 15:43:23.923881,17.02,15.69,17.02,17.02,1007,35,4.5,163,9,0.0,Clear,clear sky,15
Zagyvapálfalva,48.068889,19.785,2026-03-14 15:43:25.086708,14.14,12.71,14.14,14.14,1007,42,3.56,150,2,0.0,Clear,clear sky,15
Salgótarján,48.105556,19.807222,2026-03-14 15:43:26.247075,13.47,11.97,13.47,13.47,1007,42,3.21,150,2,0.0,Clear,clear sky,15
Szabadisóstó,46.933889,18.118056,2026-03-14 15:43:27.422624,17.73,16.34,17.73,17.73,1004,30,4.05,166,3,0.0,Clear,clear sky,15
Siófok,46.907778,18.053889,2026-03-14 15:43:28.584408,17.73,16.34,17.73,17.73,1004,30,3.69,172,3,0.0,Clear,clear sky,15
Balatonszéplak felső,46.898056,18.018056,2026-03-14 15:43:29.748255,17.73,16.34,17.73,17.73,1004,30,3.54,176,3,0.0,Clear,clear sky,15
Balatonszéplak alsó,46.891944,17.993333,2026-03-14 15:43:30.906961,17.73,16.34,17.73,17.73,1004,30,3.58,180,3,0.0,Clear,clear sky,15
Zamárdi felső,46.886111,17.969444,2026-03-14 15:43:32.069416,17.74,16.35,17.74,18.26,1004,30,3.58,180,3,0.0,Clear,clear sky,15
Zamárdi,46.88,17.944722,2026-03-14 15:43:33.243426,17.68,16.29,17.68,18.19,1004,30,3.58,180,3,0.0,Clear,clear sky,15
Szántód,46.861944,17.899167,2026-03-14 15:43:34.404311,17.75,16.36,17.75,18.27,1004,30,3.58,180,3,0.0,Clear,clear sky,15
Szőny-Déli,47.735278,18.141944,2026-03-14 15:43:35.568642,17.12,16.01,17.12,17.84,1004,43,5.58,168,3,0.0,Clear,clear sky,15
Várpalota,47.194444,18.149167,2026-03-14 15:43:36.726586,15.48,14.23,15.48,15.48,1004,44,4.63,166,4,0.0,Clear,clear sky,15
Pétfürdő,47.1675,18.121389,2026-03-14 15:43:37.887796,15.9,14.72,15.9,15.9,1004,45,4.56,166,4,0.0,Clear,clear sky,15
Hajmáskér,47.141111,18.009444,2026-03-14 15:43:39.048053,17.33,16.35,17.33,17.84,1004,47,4.43,170,4,0.0,Clear,clear sky,15
Veszprém,47.118889,17.91,2026-03-14 15:43:40.211439,17.64,16.61,17.12,17.64,1004,44,3.94,175,4,0.0,Clear,clear sky,15
Herend,47.136944,17.760278,2026-03-14 15:43:41.378188,16.82,15.71,16.31,16.82,1004,44,3.78,183,4,0.0,Clear,clear sky,15
Városlőd,47.144167,17.652778,2026-03-14 15:43:42.535452,16.99,15.89,16.98,16.99,1004,44,4.3,191,4,0.0,Clear,clear sky,15
Városlőd-Kislőd,47.133889,17.631111,2026-03-14 15:43:43.694164,17.1,16.01,17.09,17.1,1004,44,4.11,191,5,0.0,Clear,clear sky,15
Ajka,47.105902,17.572938,2026-03-14 15:43:44.862010,17.4,16.34,17.39,17.4,1004,44,4.48,194,5,0.0,Clear,clear sky,15
Ajka-Gyártelep,47.096806,17.555219,2026-03-14 15:43:46.022289,17.45,16.4,17.44,17.45,1004,44,4.48,194,5,0.0,Clear,clear sky,15
Devecser,47.1125,17.435278,2026-03-14 15:43:47.196721,17.86,16.85,17.84,17.86,1004,44,5.07,192,4,0.0,Clear,clear sky,15
Somlóvásárhely,47.124444,17.369167,2026-03-14 15:43:48.365218,17.97,17.1,17.95,17.97,1003,49,5.79,189,4,0.0,Clear,clear sky,15
Tüskevár,47.128611,17.331389,2026-03-14 15:43:49.536088,18.0,17.13,17.99,18.0,1003,49,5.95,188,4,0.0,Clear,clear sky,15
Karakószörcsök,47.133611,17.287778,2026-03-14 15:43:50.700554,16.04,14.98,16.04,16.04,1003,49,6.07,187,4,0.0,Clear,clear sky,15
Kerta,47.151944,17.237222,2026-03-14 15:43:51.859812,16.14,15.09,16.14,16.14,1003,49,6.41,183,7,0.0,Clear,clear sky,15
Boba,47.183333,17.191389,2026-03-14 15:43:53.019297,16.12,15.07,16.12,16.12,1003,49,6.56,183,8,0.0,Clear,clear sky,15
Börgönd,47.140278,18.515,2026-03-14 15:43:54.186323,15.84,14.58,15.84,15.84,1005,42,4.76,159,2,0.0,Clear,clear sky,15
Belsőbáránd,47.102778,18.499722,2026-03-14 15:43:55.344975,15.83,14.57,15.83,15.83,1005,42,4.8,159,2,0.0,Clear,clear sky,15
Zichyújfalu,47.124444,18.6725,2026-03-14 15:43:56.506470,15.76,14.49,15.76,15.76,1005,42,4.68,157,2,0.0,Clear,clear sky,15
Seregélyes,47.121111,18.580556,2026-03-14 15:43:57.665550,15.96,14.71,15.96,15.96,1005,42,4.77,159,2,0.0,Clear,clear sky,15
Polgárdi-Ipartelepek,47.079167,18.314444,2026-03-14 15:43:58.827071,15.69,14.41,15.69,15.69,1004,42,4.51,158,4,0.0,Clear,clear sky,15
Polgárdi,47.07,18.284167,2026-03-14 15:43:59.984365,15.69,14.41,15.69,15.69,1004,42,4.51,158,4,0.0,Clear,clear sky,15
Füle,47.05,18.255278,2026-03-14 15:44:01.143573,15.68,14.4,15.68,15.68,1004,42,4.49,158,4,0.0,Clear,clear sky,15
Zánka-Erzsébettábor,46.8775,17.709167,2026-03-14 15:44:02.304561,17.68,16.29,17.68,18.2,1004,30,3.61,204,4,0.0,Clear,clear sky,15
Csajág,47.033889,18.186389,2026-03-14 15:44:03.477990,17.57,16.51,17.57,17.57,1004,43,4.24,161,4,0.0,Clear,clear sky,15
Balatonakarattya,47.017222,18.167778,2026-03-14 15:44:04.640651,17.42,16.34,17.42,17.42,1004,43,4.24,161,4,0.0,Clear,clear sky,15
Csittényhegy,47.025278,18.1375,2026-03-14 15:44:05.798291,17.64,16.61,17.64,17.64,1004,44,4.12,163,4,0.0,Clear,clear sky,15
Balatonkenese,47.0325,18.105556,2026-03-14 15:44:06.972371,17.72,16.72,17.72,17.72,1004,45,4.01,165,4,0.0,Clear,clear sky,15
Balatonfűzfő,47.060278,18.0425,2026-03-14 15:44:08.129904,17.75,16.36,17.75,18.26,1004,30,3.75,171,3,0.0,Clear,clear sky,15
Balatonalmádi,47.028333,18.015,2026-03-14 15:44:09.292204,17.72,16.33,17.72,18.24,1004,30,3.65,172,3,0.0,Clear,clear sky,15
Káptalanfüred,47.008889,18.003889,2026-03-14 15:44:10.454724,17.75,16.36,17.75,18.26,1004,30,3.45,176,3,0.0,Clear,clear sky,15
Alsóörs,46.985278,17.974722,2026-03-14 15:44:11.607270,18.44,17.28,17.67,19.33,1004,36,4.47,225,3,0.0,Clear,clear sky,15
Csopak,46.974722,17.931111,2026-03-14 15:44:12.762866,17.63,16.23,17.63,18.15,1004,30,3.58,180,3,0.0,Clear,clear sky,15
Balatonarács,46.9625,17.8975,2026-03-14 15:44:13.923018,17.53,16.12,17.53,18.05,1004,30,3.58,180,3,0.0,Clear,clear sky,15
Balatonfüred,46.955833,17.883056,2026-03-14 15:44:15.083204,17.6,16.2,17.6,18.12,1004,30,3.58,180,3,0.0,Clear,clear sky,15
Aszófő,46.925556,17.8325,2026-03-14 15:44:16.249446,17.7,16.31,17.7,18.21,1004,30,3.58,180,3,0.0,Clear,clear sky,15
Örvényes,46.9125,17.818056,2026-03-14 15:44:17.409763,17.72,16.33,17.72,18.23,1004,30,3.58,180,3,0.0,Clear,clear sky,15
Balatonudvari,46.904722,17.808056,2026-03-14 15:44:18.569133,17.75,16.36,17.75,18.27,1004,30,3.58,180,4,0.0,Clear,clear sky,15
Fövenyes,46.893611,17.789444,2026-03-14 15:44:19.727832,17.77,16.39,17.77,18.28,1004,30,3.58,180,3,0.0,Clear,clear sky,15
Balatonakali-Dörgicse,46.88,17.747778,2026-03-14 15:44:20.901564,17.76,16.37,17.76,18.28,1004,30,3.39,201,4,0.0,Clear,clear sky,15
Zánka-Köveskál,46.872778,17.687778,2026-03-14 15:44:22.063702,17.75,16.36,17.75,18.27,1004,30,3.66,205,5,0.0,Clear,clear sky,15
Balatonszepezd,46.851111,17.663056,2026-03-14 15:44:23.220209,17.75,16.36,17.75,18.27,1004,30,3.76,206,5,0.0,Clear,clear sky,15
Szepezdfürdő,46.839722,17.649444,2026-03-14 15:44:24.381527,17.72,16.83,17.72,18.24,1004,49,3.79,205,5,0.0,Clear,clear sky,15
Révfülöp,46.829167,17.632222,2026-03-14 15:44:25.543643,17.73,16.84,17.73,18.25,1004,49,3.79,205,5,0.0,Clear,clear sky,15
Balatonrendes,46.824722,17.582778,2026-03-14 15:44:26.705827,17.73,16.86,17.73,18.25,1004,50,3.89,203,6,0.0,Clear,clear sky,15
Ábrahámhegy,46.815,17.572222,2026-03-14 15:44:27.864401,17.7,16.83,17.7,18.21,1004,50,3.89,203,6,0.0,Clear,clear sky,15
Badacsonyörs,46.805556,17.531667,2026-03-14 15:44:29.025766,18.27,17.46,18.27,18.27,1004,50,3.9,201,6,0.0,Clear,clear sky,15
Kisújszállás,47.223889,20.751111,2026-03-14 15:44:30.194027,15.41,13.92,15.41,15.41,1007,35,3.98,158,7,0.0,Clear,clear sky,15
Karcag,47.303333,20.928056,2026-03-14 15:44:31.355764,15.3,13.77,15.3,15.3,1008,34,3.75,168,9,0.0,Clear,clear sky,15
Püspökladány,47.3275,21.128889,2026-03-14 15:44:32.518525,15.36,13.81,15.36,15.36,1008,33,3.43,180,13,0.0,Clouds,few clouds,15
Kaba,47.368889,21.259444,2026-03-14 15:44:33.679232,17.1,15.73,17.1,17.1,1008,33,2.99,179,18,0.0,Clouds,few clouds,15
Hajdúszoboszló,47.429444,21.406944,2026-03-14 15:44:34.836258,17.09,15.46,17.09,17.09,1008,23,3.09,180,0,0.0,Clear,clear sky,15
Ebes,47.462778,21.488889,2026-03-14 15:44:35.995906,17.04,15.4,17.04,17.04,1008,23,3.09,180,0,0.0,Clear,clear sky,15
Debrecen,47.520278,21.628611,2026-03-14 15:44:37.160049,16.92,15.27,16.92,16.92,1008,23,3.09,180,0,0.0,Clear,clear sky,15
Debrecen-Csapókert,47.540556,21.648056,2026-03-14 15:44:38.323788,16.87,15.21,16.87,16.87,1008,23,3.09,180,0,0.0,Clear,clear sky,15
Apafa,47.584045,21.655858,2026-03-14 15:44:39.491314,16.83,15.17,16.83,16.83,1008,23,3.09,180,0,0.0,Clear,clear sky,15
Bocskaikert,47.6425,21.666389,2026-03-14 15:44:40.648400,16.76,15.09,16.76,16.76,1008,23,3.09,180,0,0.0,Clear,clear sky,15
Hajdúhadház,47.686944,21.679167,2026-03-14 15:44:41.809553,16.73,15.27,16.73,16.73,1008,31,2.5,157,12,0.0,Clouds,few clouds,15
Téglás,47.714722,21.684722,2026-03-14 15:44:42.977854,16.8,15.37,16.8,16.8,1008,32,2.54,160,12,0.0,Clouds,few clouds,15
Újfehértó,47.814444,21.706389,2026-03-14 15:44:44.137370,14.92,13.3,14.92,14.92,1008,32,2.62,167,12,0.0,Clouds,few clouds,15
Nyíregyháza,47.946667,21.705556,2026-03-14 15:44:45.300392,14.87,13.27,14.87,14.87,1008,33,2.57,173,9,0.0,Clear,clear sky,15
Sóstó,47.998051,21.729047,2026-03-14 15:44:46.469575,17.04,15.66,17.04,17.04,1008,33,2.43,171,8,0.0,Clear,clear sky,15
Sóstóhegy,48.012222,21.742778,2026-03-14 15:44:47.628674,17.04,15.66,17.04,17.04,1008,33,2.39,169,8,0.0,Clear,clear sky,15
Kemecse,48.065556,21.801667,2026-03-14 15:44:48.784226,14.99,13.41,14.99,14.99,1008,33,2.38,160,8,0.0,Clear,clear sky,15
Nyírbogdány,48.082222,21.855278,2026-03-14 15:44:49.942919,14.98,13.4,14.98,14.98,1008,33,2.45,153,8,0.0,Clear,clear sky,15
Kék,48.093333,21.883889,2026-03-14 15:44:51.109204,15.04,13.44,15.04,15.04,1008,32,2.64,147,7,0.0,Clear,clear sky,15
Demecser,48.111667,21.926667,2026-03-14 15:44:52.280854,15.05,13.45,15.05,15.05,1008,32,2.83,141,7,0.0,Clear,clear sky,15
Gégény,48.128333,21.951944,2026-03-14 15:44:53.439532,15.02,13.41,15.02,15.02,1008,32,3.04,137,6,0.0,Clear,clear sky,15
Pátroha,48.158611,21.996667,2026-03-14 15:44:54.602400,15.04,13.44,15.04,15.04,1008,32,3.25,133,6,0.0,Clear,clear sky,15
Ajak,48.1865,22.048972,2026-03-14 15:44:55.762428,15.01,13.4,15.01,15.01,1008,32,3.42,131,5,0.0,Clear,clear sky,15
Kisvárda,48.208333,22.078333,2026-03-14 15:44:56.924371,14.98,13.37,14.98,14.98,1008,32,3.59,129,5,0.0,Clear,clear sky,15
Kisvárda-Hármasút,48.228333,22.091944,2026-03-14 15:44:58.085156,14.98,13.37,14.98,14.98,1008,32,3.59,129,5,0.0,Clear,clear sky,15
Fényeslitke,48.267222,22.107222,2026-03-14 15:44:59.249548,14.88,13.29,14.88,14.88,1008,33,3.65,129,5,0.0,Clear,clear sky,15
Komoró,48.305278,22.118056,2026-03-14 15:45:00.420290,14.88,13.29,14.88,14.88,1008,33,3.68,129,5,0.0,Clear,clear sky,15
Tuzsér,48.342222,22.131667,2026-03-14 15:45:01.577067,14.78,13.18,14.78,14.78,1008,33,3.69,129,5,0.0,Clear,clear sky,15
Tiszabezdéd,48.371389,22.145,2026-03-14 15:45:02.747714,14.78,13.2,14.78,14.78,1008,34,3.66,130,4,0.0,Clear,clear sky,15
Záhony,48.402222,22.183611,2026-03-14 15:45:03.903253,14.74,13.16,14.74,14.74,1008,34,3.6,132,4,0.0,Clear,clear sky,15
Karcag-Vásártér,47.3225,20.9075,2026-03-14 15:45:05.063638,15.3,13.77,15.3,15.3,1008,34,3.75,168,9,0.0,Clear,clear sky,15
Berekfürdő,47.374722,20.827222,2026-03-14 15:45:06.229412,15.23,13.72,15.23,15.23,1008,35,3.87,166,9,0.0,Clear,clear sky,15
Kunmadaras,47.415278,20.793056,2026-03-14 15:45:07.387867,15.15,13.63,15.15,15.15,1008,35,3.88,167,10,0.0,Clear,clear sky,15
Tiszaszentimre,47.490833,20.733056,2026-03-14 15:45:08.550302,15.09,13.57,15.09,15.09,1008,35,3.87,166,12,0.0,Clouds,few clouds,15
Tiszaszőlős,47.555556,20.728056,2026-03-14 15:45:09.718978,15.02,13.49,15.02,15.02,1008,35,3.82,169,12,0.0,Clouds,few clouds,15
Hosszúhát,47.235556,21.101944,2026-03-14 15:45:10.889035,15.46,13.92,15.46,15.46,1008,33,3.4,177,14,0.0,Clouds,few clouds,15
Szerep,47.234444,21.145833,2026-03-14 15:45:12.054234,15.49,13.96,15.49,15.49,1008,33,3.32,180,15,0.0,Clouds,few clouds,15
Sárrétudvari,47.231667,21.180833,2026-03-14 15:45:13.215372,15.5,13.94,15.5,15.5,1008,32,3.23,182,16,0.0,Clouds,few clouds,15
Biharnagybajom,47.208889,21.221944,2026-03-14 15:45:14.382251,15.54,13.99,15.54,15.54,1008,32,3.07,186,19,0.0,Clouds,few clouds,15
Füzesgyarmat,47.113056,21.194444,2026-03-14 15:45:15.541381,15.61,14.09,15.61,15.61,1008,33,3.17,181,22,0.0,Clouds,few clouds,15
Füzesgyarmatfürdő,47.093787,21.201582,2026-03-14 15:45:16.700063,15.61,14.09,15.61,15.61,1008,33,3.17,181,22,0.0,Clouds,few clouds,15
Báránd,47.299722,21.235278,2026-03-14 15:45:17.857363,15.45,13.91,15.45,15.45,1008,33,3.07,183,17,0.0,Clouds,few clouds,15
Sáp,47.259722,21.360556,2026-03-14 15:45:19.016812,15.56,14.01,15.56,15.56,1008,32,2.83,187,20,0.0,Clouds,few clouds,15
Berettyóújfalu,47.211944,21.535556,2026-03-14 15:45:20.175218,15.72,14.16,15.72,15.72,1008,31,2.35,190,29,0.0,Clouds,scattered clouds,15
Mezőpeterd,47.176111,21.625278,2026-03-14 15:45:21.343337,16.39,14.87,16.28,16.39,1008,30,2.11,190,31,0.0,Clouds,scattered clouds,15
Biharkeresztes,47.135556,21.721389,2026-03-14 15:45:22.504406,16.36,14.76,16.25,16.36,1008,27,1.54,310,0,0.0,Clear,clear sky,15
Tócóvölgy,47.529444,21.588889,2026-03-14 15:45:23.666450,16.97,15.32,16.97,16.97,1008,23,3.09,180,0,0.0,Clear,clear sky,15
Sáregres,46.7825,18.588889,2026-03-14 15:45:24.844159,16.08,14.87,16.08,16.08,1005,43,4.44,160,2,0.0,Clear,clear sky,15
Simontornya,46.756582,18.540674,2026-03-14 15:45:26.016291,16.02,14.8,16.02,16.02,1005,43,4.7,160,3,0.0,Clear,clear sky,15
Tolnanémedi,46.727778,18.475833,2026-03-14 15:45:27.177938,16.11,14.9,16.11,16.11,1005,43,4.78,160,3,0.0,Clear,clear sky,15
Pincehely,46.681389,18.43,2026-03-14 15:45:28.343474,15.99,14.74,15.99,15.99,1005,42,5.03,162,4,0.0,Clear,clear sky,15
Keszőhidegkút-Gyönk,46.597778,18.426111,2026-03-14 15:45:29.500634,16.05,14.81,16.05,16.05,1005,42,4.64,162,3,0.0,Clear,clear sky,15
Szárazd,46.575556,18.420833,2026-03-14 15:45:30.663538,16.09,14.85,16.09,16.09,1005,42,4.49,162,3,0.0,Clear,clear sky,15
Regöly,46.568889,18.396111,2026-03-14 15:45:31.822334,16.09,14.85,16.09,16.09,1005,42,4.49,162,3,0.0,Clear,clear sky,15
Szakály-Hőgyész,46.523611,18.389444,2026-03-14 15:45:32.998542,16.0,14.78,16.0,16.0,1005,43,4.26,163,3,0.0,Clear,clear sky,15
Dúzs,46.493889,18.377222,2026-03-14 15:45:34.154127,16.04,14.82,16.04,16.04,1005,43,4.1,163,3,0.0,Clear,clear sky,15
Csibrák,46.466667,18.336389,2026-03-14 15:45:35.314210,16.09,14.88,16.09,16.09,1005,43,3.95,164,3,0.0,Clear,clear sky,15
Kurd,46.449167,18.319167,2026-03-14 15:45:36.475806,15.75,14.5,15.75,15.75,1005,43,3.77,163,3,0.0,Clear,clear sky,15
Döbrököz,46.418889,18.255,2026-03-14 15:45:37.638036,16.02,14.83,16.02,16.02,1005,44,3.5,164,3,0.0,Clear,clear sky,15
Dombóvár,46.37,18.149722,2026-03-14 15:45:38.796976,15.93,14.75,15.93,15.93,1005,45,2.82,164,3,0.0,Clear,clear sky,15
Dombóvár alsó,46.363889,18.134167,2026-03-14 15:45:39.970049,15.93,14.75,15.93,15.93,1005,45,2.82,164,3,0.0,Clear,clear sky,15
Somoskőújfalu,48.154722,19.815556,2026-03-14 15:45:41.135254,12.36,10.75,12.36,12.36,1007,42,2.85,148,3,0.0,Clear,clear sky,15
Jászfényszaru,47.593056,19.754444,2026-03-14 15:45:42.292335,15.3,13.96,15.3,15.3,1006,41,4.49,154,3,0.0,Clear,clear sky,15
Pusztamonostor,47.564444,19.794167,2026-03-14 15:45:43.450987,17.16,16.0,17.16,17.16,1006,41,4.61,156,4,0.0,Clear,clear sky,15
Jászberény,47.494444,19.893333,2026-03-14 15:45:44.615789,17.26,16.09,17.26,17.26,1006,40,5.05,162,5,0.0,Clear,clear sky,15
Meggyespele,47.441944,19.938889,2026-03-14 15:45:45.775654,17.28,16.0,17.28,17.28,1006,36,5.34,163,7,0.0,Clear,clear sky,15
Portelek,47.418056,19.958889,2026-03-14 15:45:46.935961,17.3,16.03,17.3,17.3,1006,36,5.44,164,7,0.0,Clear,clear sky,15
Jászboldogháza-Jánoshida,47.366944,20.001389,2026-03-14 15:45:48.099155,17.29,16.01,17.29,17.29,1006,36,5.62,164,7,0.0,Clear,clear sky,15
Jászárokszállás,47.635556,19.971111,2026-03-14 15:45:49.263254,15.25,13.85,15.25,15.25,1007,39,4.27,151,6,0.0,Clear,clear sky,15
Jászdózsa,47.563056,20.028056,2026-03-14 15:45:50.424548,15.29,13.87,15.29,15.29,1007,38,4.59,155,8,0.0,Clear,clear sky,15
Jászapáti,47.513611,20.155,2026-03-14 15:45:51.587535,15.28,13.83,15.28,15.28,1007,37,4.75,157,9,0.0,Clear,clear sky,15
Jászkisér,47.456111,20.203333,2026-03-14 15:45:52.749840,15.33,13.86,15.33,15.33,1007,36,4.94,159,9,0.0,Clear,clear sky,15
Jászladány,47.373333,20.159167,2026-03-14 15:45:53.915374,16.79,15.46,16.79,17.01,1007,36,5.48,166,9,0.0,Clear,clear sky,15
Szászberek,47.320556,20.090833,2026-03-14 15:45:55.073171,16.78,15.45,16.66,17.01,1007,36,5.72,167,9,0.0,Clear,clear sky,15
Gyöngyöshalász,47.743056,19.932222,2026-03-14 15:45:56.234294,14.94,13.53,14.94,14.94,1007,40,3.86,140,5,0.0,Clear,clear sky,15
Gyöngyös,47.783056,19.937222,2026-03-14 15:45:57.391385,14.54,13.07,14.54,14.54,1007,39,3.85,141,5,0.0,Clear,clear sky,15
Erdőtelek,47.683333,20.3025,2026-03-14 15:45:58.548981,14.93,13.42,14.93,14.93,1007,36,4.06,151,11,0.0,Clouds,few clouds,15
Heves,47.609444,20.306111,2026-03-14 15:45:59.710766,15.08,13.58,15.08,15.08,1007,36,4.25,151,11,0.0,Clouds,few clouds,15
Hevesvezekény,47.562222,20.365833,2026-03-14 15:46:00.882782,15.12,13.63,15.12,15.12,1007,36,4.27,151,11,0.0,Clouds,few clouds,15
Tarnaszentmiklós,47.546944,20.390833,2026-03-14 15:46:02.038919,15.15,13.66,15.15,15.15,1007,36,4.32,152,11,0.0,Clouds,few clouds,15
Kisköre,47.495556,20.481667,2026-03-14 15:46:03.202597,15.15,13.66,15.15,15.15,1007,36,4.19,153,11,0.0,Clouds,few clouds,15
Abádszalók,47.455278,20.553056,2026-03-14 15:46:04.359778,15.15,13.66,15.15,15.15,1007,36,4.19,154,11,0.0,Clouds,few clouds,15
Kunhegyes,47.376667,20.641111,2026-03-14 15:46:05.518730,15.21,13.73,15.21,15.21,1007,36,4.08,157,11,0.0,Clouds,few clouds,15
Kenderes,47.254444,20.686111,2026-03-14 15:46:06.680908,15.39,13.9,15.39,15.39,1007,35,4.14,158,8,0.0,Clear,clear sky,15
Maklár,47.808056,20.404722,2026-03-14 15:46:07.838762,16.8,15.45,16.8,16.8,1008,35,3.96,164,10,0.0,Clear,clear sky,15
Andornaktálya,47.852203,20.402295,2026-03-14 15:46:08.998970,16.74,15.38,16.65,16.74,1008,35,3.89,165,10,0.0,Clear,clear sky,15
Eger,47.891667,20.381667,2026-03-14 15:46:10.162674,16.65,15.28,16.56,16.65,1008,35,3.96,161,9,0.0,Clear,clear sky,15
Egervár,47.908056,20.380556,2026-03-14 15:46:11.339324,16.47,14.96,16.38,16.47,1008,30,3.94,161,8,0.0,Clear,clear sky,15
Eger-Felnémet,47.936667,20.370556,2026-03-14 15:46:12.498112,16.52,15.01,16.43,16.52,1008,30,3.91,161,8,0.0,Clear,clear sky,15
Szarvaskő,47.988611,20.3325,2026-03-14 15:46:13.657930,16.11,14.56,16.11,16.11,1008,30,3.92,160,6,0.0,Clear,clear sky,15
Mónosbél,48.031944,20.33,2026-03-14 15:46:14.819043,15.93,14.36,15.93,15.93,1008,30,3.82,159,5,0.0,Clear,clear sky,15
Bélapátfalva,48.055556,20.340556,2026-03-14 15:46:15.977768,15.64,14.04,15.64,15.64,1008,30,3.74,158,4,0.0,Clear,clear sky,15
Bélapátfalvi Cementgyár,48.058056,20.355,2026-03-14 15:46:17.138424,15.59,13.99,15.59,15.59,1008,30,3.74,158,4,0.0,Clear,clear sky,15
Szilvásvárad,48.11345,20.37919,2026-03-14 15:46:18.298308,15.46,13.84,15.46,15.46,1008,30,3.45,156,4,0.0,Clear,clear sky,15
Hejőkeresztúr,47.960278,20.869444,2026-03-14 15:46:19.461972,16.91,15.47,16.91,16.91,1008,31,0.45,142,7,0.0,Clear,clear sky,15
Tiszaújváros,47.926111,21.030556,2026-03-14 15:46:20.627190,16.96,15.65,16.96,16.96,1008,36,2.96,150,7,0.0,Clear,clear sky,15
Miskolc-Gömöri,48.106667,20.800278,2026-03-14 15:46:21.796275,16.81,15.36,16.81,16.89,1008,31,3.12,150,5,0.0,Clear,clear sky,15
Sajókeresztúr,48.168008,20.774014,2026-03-14 15:46:22.960410,16.75,15.42,16.75,16.84,1008,36,3.17,150,4,0.0,Clear,clear sky,15
Sajóecseg,48.186111,20.766667,2026-03-14 15:46:24.122673,16.79,15.46,16.79,16.88,1008,36,3.18,149,3,0.0,Clear,clear sky,15
Sajószentpéter,48.222222,20.708056,2026-03-14 15:46:25.281552,16.78,15.43,16.7,16.78,1008,35,3.16,149,3,0.0,Clear,clear sky,15
Kazincbarcika,48.264444,20.6275,2026-03-14 15:46:26.441187,16.79,15.44,16.79,16.79,1008,35,2.91,145,3,0.0,Clear,clear sky,15
Sajókaza,48.272778,20.581944,2026-03-14 15:46:27.602815,16.78,15.43,16.78,16.78,1008,35,2.85,144,3,0.0,Clear,clear sky,15
Vadna,48.276389,20.555278,2026-03-14 15:46:28.762965,16.76,15.41,16.76,16.76,1008,35,2.85,144,3,0.0,Clear,clear sky,15
Dubicsány,48.280833,20.504722,2026-03-14 15:46:29.985812,16.75,15.37,16.75,16.75,1008,34,2.76,143,5,0.0,Clear,clear sky,15
Raposka,46.851389,17.412778,2026-03-14 15:46:31.143872,18.06,17.23,18.06,18.06,1004,50,4.14,194,5,0.0,Clear,clear sky,15
Ivacs,47.641944,19.273889,2026-03-14 15:46:32.305965,16.55,15.31,15.56,17.35,1005,40,5.05,150,2,0.0,Clear,clear sky,15
Kisköre-Tiszahíd,47.480835,20.507698,2026-03-14 15:46:33.462442,17.21,15.87,17.21,17.21,1007,34,2.68,103,11,0.0,Clouds,few clouds,15
Rozsály,47.912778,22.7825,2026-03-14 15:46:34.633029,17.03,15.52,17.03,17.03,1009,28,3.39,138,0,0.0,Clear,clear sky,15
Pusztakettős,47.453611,20.749722,2026-03-14 15:46:35.797552,17.21,15.87,17.21,17.21,1008,34,3.89,166,11,0.0,Clouds,few clouds,15
Kisvác,47.795278,19.113611,2026-03-14 15:46:36.962117,16.61,15.42,15.89,16.61,1005,42,4.76,146,2,0.0,Clear,clear sky,15
Tiszafüred-Gyártelep,47.6075,20.736111,2026-03-14 15:46:38.130318,17.18,15.84,17.18,17.18,1008,34,3.76,171,12,0.0,Clouds,few clouds,15
Újkenéz,48.251111,22.221667,2026-03-14 15:46:39.290434,14.88,13.26,14.88,14.88,1008,32,3.57,130,5,0.0,Clear,clear sky,15
Püspökladány-Vásártér,47.319167,21.096111,2026-03-14 15:46:40.452463,15.38,13.84,15.38,15.38,1008,33,3.43,179,13,0.0,Clouds,few clouds,15
Végegyháza alsó,46.3675,20.866944,2026-03-14 15:46:41.616997,16.72,15.34,16.72,16.72,1008,34,5.53,178,21,0.0,Clouds,few clouds,15
Orosháza felső,46.553611,20.655278,2026-03-14 15:46:42.779787,17.17,15.83,17.17,17.17,1007,34,5.79,176,12,0.0,Clouds,few clouds,15
Ambrózfalva,46.353056,20.740556,2026-03-14 15:46:43.937441,15.62,14.13,15.62,15.62,1008,34,6.03,174,13,0.0,Clouds,few clouds,15
Alsónyék,46.199444,18.738056,2026-03-14 15:46:45.099592,16.12,14.96,16.12,16.12,1005,45,2.95,155,13,0.0,Clouds,few clouds,15
Tompapuszta,46.321389,20.966389,2026-03-14 15:46:46.262628,16.71,17.05,16.71,17.06,1008,100,5.27,181,38,0.0,Clouds,scattered clouds,15
Halászlak,46.911879,20.56228,2026-03-14 15:46:47.420331,17.2,15.89,17.2,17.2,1007,35,5.1,176,7,0.0,Clear,clear sky,15
Sirató,46.840556,20.61,2026-03-14 15:46:48.579972,17.21,15.9,17.21,17.21,1007,35,5.1,177,8,0.0,Clear,clear sky,15
Csabacsűd felső,46.829167,20.649167,2026-03-14 15:46:49.749108,17.2,15.86,17.2,17.2,1007,34,4.94,176,9,0.0,Clear,clear sky,15
Orosháza-Üveggyár,46.579979,20.683644,2026-03-14 15:46:50.909176,17.16,15.82,17.16,17.16,1007,34,5.6,177,12,0.0,Clouds,few clouds,15
Gyulai városerdő,46.69482,21.32281,2026-03-14 15:46:52.075847,17.19,15.75,17.19,17.19,1008,30,2.7,189,59,0.0,Clouds,broken clouds,15
Kórógyszentgyörgy,46.564377,20.224998,2026-03-14 15:46:53.233405,15.57,14.31,15.57,17.21,1007,43,6.45,162,8,0.0,Clear,clear sky,15
Kunszállás,46.784444,19.767222,2026-03-14 15:46:54.393737,17.04,15.69,17.04,17.04,1006,34,6.69,140,0,0.0,Clear,clear sky,15
Selymes,46.655321,19.8534,2026-03-14 15:46:55.561937,15.56,14.24,15.56,15.56,1007,41,6.31,153,8,0.0,Clear,clear sky,15
Petőfiszállási tanyák,46.587805,19.874509,2026-03-14 15:46:56.727903,16.68,15.45,16.68,16.68,1007,40,6.44,153,8,0.0,Clear,clear sky,15
Kisteleki szőlők,46.514199,19.92868,2026-03-14 15:46:57.888558,16.67,15.44,16.67,16.67,1007,40,6.61,154,8,0.0,Clear,clear sky,15
Kapitányság,46.435336,19.987564,2026-03-14 15:46:59.048418,16.69,15.33,16.69,16.69,1007,35,6.72,154,7,0.0,Clear,clear sky,15
Őszeszék,46.39025,20.016017,2026-03-14 15:47:00.208923,16.72,15.36,16.72,16.72,1007,35,6.79,154,6,0.0,Clear,clear sky,15
Vilmaszállás,46.366389,20.030833,2026-03-14 15:47:01.374949,16.7,15.34,16.7,16.7,1007,35,7.6,161,6,0.0,Clear,clear sky,15
Jánosszállás,46.334359,20.051199,2026-03-14 15:47:02.547258,16.73,15.37,16.73,16.73,1007,35,6.86,153,5,0.0,Clear,clear sky,15
Felsőpakony,47.343056,19.230556,2026-03-14 15:47:03.708611,17.37,16.13,16.67,17.75,1005,37,5.66,140,0,0.0,Clear,clear sky,15
Felsőméntelek,46.987074,19.557745,2026-03-14 15:47:04.873464,16.88,15.51,16.88,16.88,1006,34,6.69,140,0,0.0,Clear,clear sky,15
Alsóméntelek,46.961558,19.579121,2026-03-14 15:47:06.031853,16.91,15.54,16.91,16.91,1006,34,6.69,140,0,0.0,Clear,clear sky,15
Nagynyír,46.943319,19.585447,2026-03-14 15:47:07.197055,16.9,15.53,16.9,16.9,1006,34,6.69,140,0,0.0,Clear,clear sky,15
Úrihegy,46.917778,19.621389,2026-03-14 15:47:08.355835,16.93,15.57,16.93,16.93,1006,34,6.69,140,0,0.0,Clear,clear sky,15
Miklóstelep,46.913412,19.630913,2026-03-14 15:47:09.519740,16.94,15.58,16.94,16.94,1006,34,6.69,140,0,0.0,Clear,clear sky,15
Tiszajenő alsó,47.016944,20.134444,2026-03-14 15:47:10.679396,16.68,15.58,16.68,17.02,1007,45,6.17,140,0,0.0,Clear,clear sky,15
Óbög,46.987222,20.111111,2026-03-14 15:47:11.840585,16.77,15.57,16.66,17.17,1007,41,6.17,140,0,0.0,Clear,clear sky,15
Árpádszállás,46.866456,19.989163,2026-03-14 15:47:13.002594,17.1,15.75,16.59,17.1,1007,34,6.69,140,0,0.0,Clear,clear sky,15
Tőserdő,46.851111,19.980278,2026-03-14 15:47:14.161199,17.12,15.78,16.61,17.12,1007,34,6.69,140,0,0.0,Clear,clear sky,15
Tiszaalpár felső,46.836256,19.976753,2026-03-14 15:47:15.335008,17.14,15.8,15.51,17.14,1007,34,6.69,140,0,0.0,Clear,clear sky,15
Borsihalom,46.773056,19.92,2026-03-14 15:47:16.500876,17.13,15.94,15.5,17.13,1007,40,6.23,156,7,0.0,Clear,clear sky,15
Petőfiváros,46.725556,19.848611,2026-03-14 15:47:17.662976,17.1,15.94,17.1,17.1,1007,41,6.2,154,8,0.0,Clear,clear sky,15
Csorna,47.601944,17.248889,2026-03-14 15:47:18.824955,17.78,16.84,17.78,17.78,1002,47,7.53,179,7,0.0,Clear,clear sky,15
Szorgalmatos,47.986667,21.366389,2026-03-14 15:47:19.989872,17.09,15.77,17.09,17.09,1008,35,2.78,162,8,0.0,Clear,clear sky,15
Fótfürdő,47.6225,19.200556,2026-03-14 15:47:21.152535,16.49,15.21,15.56,17.35,1005,39,4.63,149,2,0.0,Clear,clear sky,15
Fenyveshegy,47.818333,19.068056,2026-03-14 15:47:22.318665,16.68,15.5,16.68,16.68,1005,42,4.35,145,2,0.0,Clear,clear sky,15
Hűvösvölgy,47.541202,18.96351,2026-03-14 15:47:23.477258,15.93,14.62,15.1,16.89,1005,40,4.92,179,3,0.0,Clear,clear sky,15
Hárshegy,47.535318,18.961433,2026-03-14 15:47:24.630867,15.93,14.62,15.1,16.89,1005,40,4.92,179,3,0.0,Clear,clear sky,15
Szépjuhászné,47.528277,18.955246,2026-03-14 15:47:25.791795,15.07,13.68,14.21,16.0,1005,40,4.92,179,3,0.0,Clear,clear sky,15
Jánoshegy,47.51433,18.95047,2026-03-14 15:47:26.954288,15.03,13.63,14.12,15.91,1005,40,4.92,179,3,0.0,Clear,clear sky,15
Virágvölgy,47.505965,18.95876,2026-03-14 15:47:28.114396,14.77,13.35,13.8,15.6,1005,40,4.92,179,2,0.0,Clear,clear sky,15
Csillebérc,47.498196,18.961694,2026-03-14 15:47:29.279961,14.57,13.13,13.57,15.37,1005,40,4.92,179,2,0.0,Clear,clear sky,15
Normafa,47.5,18.970558,2026-03-14 15:47:30.438448,14.64,13.2,13.62,15.42,1005,40,4.47,153,2,0.0,Clear,clear sky,15
Széchenyihegy,47.49413,18.977049,2026-03-14 15:47:31.595144,14.7,13.27,13.64,15.44,1005,40,4.47,153,2,0.0,Clear,clear sky,15
Balatonfőkajár felső,47.031389,18.215278,2026-03-14 15:47:32.761884,17.4,16.32,17.4,17.4,1004,43,4.36,160,4,0.0,Clear,clear sky,15
Piroska,47.148333,20.129722,2026-03-14 15:47:33.923874,16.83,15.64,16.68,17.02,1007,41,6.17,140,0,0.0,Clear,clear sky,15
Somodor,46.4725,17.836667,2026-03-14 15:47:35.088217,15.59,14.46,15.59,15.59,1004,48,2.83,196,6,0.0,Clear,clear sky,15
Középmező,45.995833,18.668889,2026-03-14 15:47:36.247057,18.39,17.43,18.39,18.39,1005,44,2.35,144,7,0.0,Clear,clear sky,15
Jobbágyi,47.828889,19.6875,2026-03-14 15:47:37.406755,14.96,13.61,14.96,14.96,1006,42,4.21,141,3,0.0,Clear,clear sky,15
Ferihegy,47.437222,19.223889,2026-03-14 15:47:38.568756,17.13,15.89,15.79,17.59,1006,38,5.66,140,0,0.0,Clear,clear sky,15
Máriapócs,47.852778,22.019167,2026-03-14 15:47:39.742134,15.07,13.44,15.07,15.07,1008,31,2.44,160,7,0.0,Clear,clear sky,15
Máriaudvar,47.751944,19.165,2026-03-14 15:47:40.905862,16.64,15.43,15.92,16.64,1005,41,4.79,147,2,0.0,Clear,clear sky,15
Nagyberki,46.353333,18.004167,2026-03-14 15:47:42.076811,15.67,14.49,15.67,15.67,1004,46,2.46,173,4,0.0,Clear,clear sky,15
Badacsonytomaj,46.804722,17.518056,2026-03-14 15:47:43.241073,15.86,14.81,15.86,15.86,1004,50,3.9,201,6,0.0,Clear,clear sky,15
Badacsony,46.788611,17.506389,2026-03-14 15:47:44.400887,18.11,17.28,18.11,18.11,1004,50,3.92,200,6,0.0,Clear,clear sky,15
Badacsonylábdihegy,46.793889,17.470833,2026-03-14 15:47:45.561809,18.08,17.25,18.08,18.08,1004,50,3.92,200,6,0.0,Clear,clear sky,15
Badacsonytördemic-Szigliget,46.809722,17.469167,2026-03-14 15:47:46.726904,18.03,17.19,18.03,18.03,1004,50,3.93,200,6,0.0,Clear,clear sky,15
Nemesgulács-Kisapáti,46.836944,17.476389,2026-03-14 15:47:47.888461,18.25,17.44,18.07,18.25,1004,50,3.94,199,6,0.0,Clear,clear sky,15
Tapolca,46.877778,17.428611,2026-03-14 15:47:49.045311,18.16,17.34,17.99,18.16,1004,50,4.25,193,5,0.0,Clear,clear sky,15
Uzsabánya alsó,46.898333,17.345278,2026-03-14 15:47:50.208765,17.79,16.93,17.79,17.79,1004,50,4.59,190,4,0.0,Clear,clear sky,15
Uzsa,46.920278,17.331667,2026-03-14 15:47:51.369172,17.75,16.89,17.75,17.75,1004,50,4.75,189,4,0.0,Clear,clear sky,15
Sümegi Bazaltbánya,46.9525,17.2925,2026-03-14 15:47:52.532913,15.7,14.63,15.7,15.7,1004,50,5.03,187,4,0.0,Clear,clear sky,15
Sümeg,46.981111,17.270833,2026-03-14 15:47:53.698141,15.9,14.85,15.9,15.9,1003,50,5.4,185,7,0.0,Clear,clear sky,15
Gógánfa,47.021111,17.207778,2026-03-14 15:47:54.855852,15.92,14.87,15.92,15.92,1003,50,5.75,184,10,0.0,Clear,clear sky,15
Ukk,47.041944,17.195833,2026-03-14 15:47:56.032067,15.99,14.95,15.99,15.99,1003,50,5.94,183,12,0.0,Clouds,few clouds,15
Nemeskeresztúr,47.093611,17.183611,2026-03-14 15:47:57.191275,15.97,14.9,15.97,15.97,1003,49,6.2,183,11,0.0,Clouds,few clouds,15
Jánosháza,47.115833,17.171667,2026-03-14 15:47:58.349180,16.06,15.0,16.06,16.06,1003,49,6.32,183,10,0.0,Clear,clear sky,15
Keszthely,46.758333,17.248056,2026-03-14 15:47:59.507215,18.08,16.88,18.08,18.08,1004,36,4.12,200,0,0.0,Clear,clear sky,15
Alsógyenes,46.765844,17.276435,2026-03-14 15:48:00.664860,18.08,16.88,18.08,18.08,1004,36,4.12,200,0,0.0,Clear,clear sky,15
Gyenesdiás,46.763333,17.292778,2026-03-14 15:48:01.829060,18.08,16.88,18.08,18.08,1004,36,4.12,200,0,0.0,Clear,clear sky,15
Vonyarcvashegy,46.755278,17.318333,2026-03-14 15:48:02.999704,18.09,16.89,18.09,18.09,1004,36,4.12,200,0,0.0,Clear,clear sky,15
Balatongyörök,46.751944,17.354444,2026-03-14 15:48:04.163952,18.11,16.92,18.11,18.11,1004,36,4.12,200,0,0.0,Clear,clear sky,15
Becehegy,46.776111,17.372778,2026-03-14 15:48:05.324192,18.08,16.88,18.08,18.08,1004,36,4.12,200,0,0.0,Clear,clear sky,15
Balatonederics,46.8025,17.385,2026-03-14 15:48:06.481645,18.03,17.19,18.03,18.03,1004,50,4.12,193,5,0.0,Clear,clear sky,15
Dabronc,47.025766,17.167006,2026-03-14 15:48:07.649131,15.95,14.91,15.95,15.95,1003,50,5.8,183,13,0.0,Clouds,few clouds,15
Türje,46.994444,17.093611,2026-03-14 15:48:08.809791,15.87,14.82,15.87,15.87,1003,50,5.71,183,20,0.0,Clouds,few clouds,15
Zalabér-Batyk,46.983056,17.040833,2026-03-14 15:48:09.982887,15.91,14.89,15.91,15.91,1003,51,5.53,184,28,0.0,Clouds,scattered clouds,15
Pakod,46.959167,16.996667,2026-03-14 15:48:11.145001,15.77,14.73,15.77,15.77,1003,51,5.49,184,29,0.0,Clouds,scattered clouds,15
Pókaszepetk,46.924444,16.972222,2026-03-14 15:48:12.306092,15.83,14.83,15.83,15.83,1003,52,5.24,184,29,0.0,Clouds,scattered clouds,15
Kemendollár,46.905833,16.946667,2026-03-14 15:48:13.465113,17.91,17.11,17.91,17.91,1003,52,5.19,185,30,0.0,Clouds,scattered clouds,15
Zalaegerszeg,46.833056,16.848333,2026-03-14 15:48:14.626954,17.73,16.99,17.73,17.73,1003,55,4.43,193,36,0.0,Clouds,scattered clouds,15
Bocfölde,46.780278,16.853611,2026-03-14 15:48:15.786439,17.79,17.03,17.79,17.79,1003,54,4.2,191,36,0.0,Clouds,scattered clouds,15
Sárhida,46.755833,16.851389,2026-03-14 15:48:16.948053,17.75,17.02,17.75,17.75,1003,55,3.95,193,40,0.0,Clouds,scattered clouds,15
Bak,46.7325,16.849167,2026-03-14 15:48:18.109816,17.77,17.04,17.77,17.77,1003,55,3.82,194,41,0.0,Clouds,scattered clouds,15
Tófej,46.670833,16.801944,2026-03-14 15:48:19.272319,17.61,16.86,17.61,17.61,1003,55,3.43,197,46,0.0,Clouds,scattered clouds,15
Gutorfölde,46.646944,16.739722,2026-03-14 15:48:20.442013,14.96,13.97,14.96,14.96,1003,56,3.25,203,55,0.0,Clouds,broken clouds,15
Csömödér-Páka,46.608056,16.641111,2026-03-14 15:48:21.607930,11.85,10.58,11.85,11.85,1003,57,3.39,209,65,0.0,Clouds,broken clouds,15
Iklódbördőce,46.603056,16.604722,2026-03-14 15:48:22.767814,11.85,10.58,11.85,11.85,1003,57,3.8,210,71,0.0,Clouds,broken clouds,15
Lenti,46.621389,16.528611,2026-03-14 15:48:23.931804,11.79,10.54,11.79,11.79,1003,58,4.31,211,76,0.0,Clouds,broken clouds,15
Rédics,46.618056,16.471111,2026-03-14 15:48:25.090823,11.79,10.54,11.79,11.79,1003,58,4.49,212,78,0.0,Clouds,broken clouds,15
Zalalövő,46.845556,16.576389,2026-03-14 15:48:26.249470,14.94,14.0,14.94,14.94,1003,58,5.02,207,60,0.0,Clouds,broken clouds,15
Zalaegerszeg-Ola,46.849167,16.844722,2026-03-14 15:48:27.416281,15.26,14.28,15.26,15.26,1003,55,4.43,193,36,0.0,Clouds,scattered clouds,15
Andráshida,46.863116,16.7792,2026-03-14 15:48:28.601424,15.23,14.24,15.23,15.23,1003,55,4.59,195,36,0.0,Clouds,scattered clouds,15
Bagod,46.875,16.746111,2026-03-14 15:48:29.763093,15.29,14.34,15.29,15.29,1003,56,4.58,200,39,0.0,Clouds,scattered clouds,15
Zalaszentgyörgy,46.872222,16.7125,2026-03-14 15:48:30.928248,15.22,14.26,15.22,15.22,1003,56,4.63,201,41,0.0,Clouds,scattered clouds,15
Zalacséb-Salomvár,46.858056,16.662222,2026-03-14 15:48:32.085761,14.96,14.0,14.96,14.96,1003,57,4.7,203,44,0.0,Clouds,scattered clouds,15
Kópháza,47.631389,16.6375,2026-03-14 15:48:33.251329,17.33,16.45,15.77,17.33,1001,51,9.13,182,21,0.0,Clouds,few clouds,15
Nagycenk,47.601111,16.690278,2026-03-14 15:48:34.408947,17.44,16.57,15.88,17.44,1001,51,9.07,183,17,0.0,Clouds,few clouds,15
Sopronkövesd,47.548333,16.748056,2026-03-14 15:48:35.577436,15.71,14.69,15.71,17.27,1001,52,8.76,185,10,0.0,Clear,clear sky,15
Lövő,47.509444,16.7775,2026-03-14 15:48:36.750347,15.75,14.74,15.75,17.31,1002,52,8.45,185,7,0.0,Clear,clear sky,15
Újkér,47.457778,16.786667,2026-03-14 15:48:37.919013,15.77,14.76,15.77,15.77,1002,52,8.18,186,6,0.0,Clear,clear sky,15
Bük,47.388611,16.752222,2026-03-14 15:48:39.093407,15.83,14.83,15.83,15.83,1002,52,8.02,189,10,0.0,Clear,clear sky,15
Acsád,47.308333,16.734722,2026-03-14 15:48:40.256420,15.58,14.55,15.58,15.58,1002,52,7.78,193,14,0.0,Clouds,few clouds,15
Salköveskút-Vassurány,47.291389,16.704167,2026-03-14 15:48:41.414203,15.59,14.56,15.59,15.59,1002,52,7.67,193,15,0.0,Clouds,few clouds,15
Zalaszentiván,46.8875,16.909444,2026-03-14 15:48:42.576798,17.89,17.14,17.89,17.89,1003,54,4.92,189,31,0.0,Clouds,scattered clouds,15
Alsónemesapáti,46.854167,16.936389,2026-03-14 15:48:43.743941,17.88,17.11,17.88,17.88,1003,53,4.92,185,29,0.0,Clouds,scattered clouds,15
Józsa,47.600833,21.584444,2026-03-14 15:48:44.906144,16.86,15.2,16.86,16.86,1008,23,3.09,180,0,0.0,Clear,clear sky,15
Hajdúszentgyörgy,47.608056,21.578333,2026-03-14 15:48:46.078037,16.83,15.17,16.83,16.83,1008,23,3.09,180,0,0.0,Clear,clear sky,15
Zelemér,47.627778,21.578333,2026-03-14 15:48:47.239078,16.78,15.11,16.78,16.78,1008,23,3.09,180,0,0.0,Clear,clear sky,15
Hajdúböszörmény,47.668056,21.524167,2026-03-14 15:48:48.398213,16.81,15.41,16.81,16.81,1008,33,2.68,154,21,0.0,Clouds,few clouds,15
Hajdúvid,47.749444,21.508056,2026-03-14 15:48:49.562852,14.75,13.14,14.75,14.75,1008,33,2.73,156,20,0.0,Clouds,few clouds,15
Hajdúdorog,47.805556,21.493056,2026-03-14 15:48:50.725602,14.69,13.08,14.69,14.69,1008,33,2.76,159,18,0.0,Clouds,few clouds,15
Hajdúnánás,47.831944,21.426667,2026-03-14 15:48:51.890403,14.7,13.09,14.7,14.7,1008,33,2.82,157,16,0.0,Clouds,few clouds,15
Hajdúnánás-Vásártér,47.843056,21.407222,2026-03-14 15:48:53.063453,14.7,13.09,14.7,14.7,1008,33,2.82,157,16,0.0,Clouds,few clouds,15
Tedej,47.903611,21.404444,2026-03-14 15:48:54.229501,17.1,15.75,17.1,17.1,1008,34,2.83,161,12,0.0,Clouds,few clouds,15
Tiszavasvári,47.945278,21.374722,2026-03-14 15:48:55.386546,17.1,15.78,17.1,17.1,1008,35,2.84,160,10,0.0,Clear,clear sky,15
Egyházerdő,47.9725,21.365,2026-03-14 15:48:56.564354,17.12,15.8,17.12,17.12,1008,35,2.82,161,9,0.0,Clear,clear sky,15
Tiszalök,48.013056,21.369167,2026-03-14 15:48:57.730280,17.09,15.79,17.09,17.09,1008,36,2.74,162,7,0.0,Clear,clear sky,15
Hajnalos,47.998889,21.414167,2026-03-14 15:48:58.891246,17.1,15.78,17.1,17.1,1008,35,2.75,164,8,0.0,Clear,clear sky,15
Kisfástanya,47.989167,21.47,2026-03-14 15:49:00.053734,17.07,15.75,17.07,17.07,1008,35,2.73,165,8,0.0,Clear,clear sky,15
Tiszaeszlár,48.010556,21.491944,2026-03-14 15:49:01.209719,17.08,15.76,17.08,17.08,1008,35,2.65,167,7,0.0,Clear,clear sky,15
Bashalom,48.026111,21.514722,2026-03-14 15:49:02.370989,17.05,15.72,17.05,17.05,1008,35,2.59,166,7,0.0,Clear,clear sky,15
Sáránd,47.415556,21.625,2026-03-14 15:49:03.531300,17.01,15.37,17.01,17.01,1008,23,3.09,180,0,0.0,Clear,clear sky,15
Derecske,47.365,21.584167,2026-03-14 15:49:04.694848,17.08,15.44,17.08,17.08,1008,23,3.09,180,0,0.0,Clear,clear sky,15
Derecske-Vásártér,47.352222,21.58,2026-03-14 15:49:05.858593,17.08,15.44,17.08,17.08,1008,23,3.09,180,0,0.0,Clear,clear sky,15
Konyár,47.323611,21.666111,2026-03-14 15:49:07.019526,17.05,15.41,17.05,17.05,1008,23,3.09,180,0,0.0,Clear,clear sky,15
Konyári Sóstófürdő,47.324167,21.744444,2026-03-14 15:49:08.179291,17.06,15.63,17.06,17.06,1008,31,1.85,173,20,0.0,Clouds,few clouds,15
Pocsaj-Esztár,47.288333,21.793056,2026-03-14 15:49:09.340520,17.05,15.62,16.35,17.05,1008,31,1.73,179,19,0.0,Clouds,few clouds,15
Kismarja,47.243889,21.813889,2026-03-14 15:49:10.501748,16.35,14.85,16.24,16.35,1008,31,1.74,185,20,0.0,Clouds,few clouds,15
Nagykereki,47.191667,21.8,2026-03-14 15:49:11.663204,16.34,14.73,16.23,16.34,1008,27,1.71,191,21,0.0,Clouds,few clouds,15
Debrecen-Szabadságtelep,47.527778,21.658611,2026-03-14 15:49:12.820465,16.89,15.24,16.89,16.89,1008,23,3.09,180,0,0.0,Clear,clear sky,15
Kondoroskert,47.525556,21.713889,2026-03-14 15:49:13.986179,16.92,15.27,16.92,16.92,1008,23,3.09,180,0,0.0,Clear,clear sky,15
Nagycsere,47.523889,21.763056,2026-03-14 15:49:15.146129,16.9,15.25,16.9,16.9,1008,23,3.09,180,0,0.0,Clear,clear sky,15
Haláp,47.521667,21.818333,2026-03-14 15:49:16.309599,16.9,15.25,16.9,16.9,1008,23,3.09,180,0,0.0,Clear,clear sky,15
Vámospércs,47.518056,21.893889,2026-03-14 15:49:17.477697,16.84,15.42,16.84,16.84,1008,32,1.52,150,7,0.0,Clear,clear sky,15
Szentannapuszta,47.52,21.965833,2026-03-14 15:49:18.643157,16.79,15.36,16.79,16.79,1008,32,1.28,148,7,0.0,Clear,clear sky,15
Nyírábrány,47.523889,22.016944,2026-03-14 15:49:19.808517,15.27,13.69,15.27,15.27,1008,32,1.15,146,7,0.0,Clear,clear sky,15
Dombostanya,47.602778,21.706389,2026-03-14 15:49:20.967514,16.82,15.16,16.82,16.82,1008,23,3.09,180,0,0.0,Clear,clear sky,15
Hajdúsámson,47.608056,21.755278,2026-03-14 15:49:22.127704,16.82,15.16,16.82,16.82,1008,23,3.09,180,0,0.0,Clear,clear sky,15
Tamásipuszta,47.632778,21.796111,2026-03-14 15:49:23.308075,16.77,15.34,16.77,16.77,1008,32,2.12,157,6,0.0,Clear,clear sky,15
Aradványpuszta,47.662778,21.8425,2026-03-14 15:49:24.475741,16.72,15.28,16.72,16.72,1008,32,2.1,160,6,0.0,Clear,clear sky,15
Nyíradony,47.699444,21.903333,2026-03-14 15:49:25.639212,14.87,13.27,14.87,14.87,1008,33,2.07,166,6,0.0,Clear,clear sky,15
Nyírmihálydi,47.7375,21.958889,2026-03-14 15:49:26.809301,14.87,13.27,14.87,14.87,1008,33,2.11,167,7,0.0,Clear,clear sky,15
Nyírgelse,47.750833,21.987778,2026-03-14 15:49:27.971070,14.84,13.24,14.84,14.84,1008,33,2.16,167,7,0.0,Clear,clear sky,15
Nyírbogát,47.793056,22.066389,2026-03-14 15:49:29.131593,14.95,13.34,14.95,14.95,1008,32,2.29,157,7,0.0,Clear,clear sky,15
Nagykálló,47.871111,21.825833,2026-03-14 15:49:30.297817,14.86,13.26,14.86,14.86,1008,33,2.5,171,7,0.0,Clear,clear sky,15
Kállósemjén,47.854722,21.935,2026-03-14 15:49:31.457735,14.91,13.29,14.91,14.91,1008,32,2.45,168,7,0.0,Clear,clear sky,15
Nyírbátor,47.8425,22.131111,2026-03-14 15:49:32.616179,14.92,13.3,14.92,14.92,1008,32,2.44,151,6,0.0,Clear,clear sky,15
Nyírcsászári,47.865556,22.179167,2026-03-14 15:49:33.775063,15.0,13.39,15.0,15.0,1008,32,2.69,142,5,0.0,Clear,clear sky,15
Hodász,47.896111,22.213611,2026-03-14 15:49:34.933712,14.95,13.36,14.95,14.95,1008,33,2.96,135,5,0.0,Clear,clear sky,15
Nyírmeggyes,47.9225,22.256667,2026-03-14 15:49:36.104092,14.97,13.38,14.97,14.97,1008,33,3.21,132,4,0.0,Clear,clear sky,15
Mátészalka,47.951389,22.313333,2026-03-14 15:49:37.270392,15.02,13.44,15.02,15.02,1008,33,3.32,130,4,0.0,Clear,clear sky,15
Kocsord,47.941944,22.375833,2026-03-14 15:49:38.428347,15.22,13.66,15.22,15.22,1008,33,3.32,130,2,0.0,Clear,clear sky,15
Kocsord alsó,47.946389,22.400556,2026-03-14 15:49:39.591146,15.22,13.66,15.22,15.22,1008,33,3.32,130,2,0.0,Clear,clear sky,15
Győrtelek,47.936667,22.424722,2026-03-14 15:49:40.753806,15.27,13.69,15.27,15.27,1008,32,3.33,130,2,0.0,Clear,clear sky,15
Győrtelek alsó,47.921111,22.443333,2026-03-14 15:49:41.918901,15.34,13.77,15.34,15.34,1008,32,3.3,129,1,0.0,Clear,clear sky,15
Ököritófülpös,47.911389,22.495,2026-03-14 15:49:43.081027,15.38,13.81,15.38,15.38,1008,32,3.32,130,1,0.0,Clear,clear sky,15
Porcsalma-Tyukod,47.868056,22.568333,2026-03-14 15:49:44.242384,17.05,15.62,17.05,17.05,1008,31,3.37,129,0,0.0,Clear,clear sky,15
Csenger,47.826111,22.666389,2026-03-14 15:49:45.406591,17.04,15.61,17.04,17.04,1008,31,3.43,130,0,0.0,Clear,clear sky,15
Kisfái,46.888303,19.807366,2026-03-14 15:49:46.569078,17.02,15.67,17.02,17.02,1006,34,6.69,140,0,0.0,Clear,clear sky,15
Nyárlőrinci szőlők,46.8775,19.828333,2026-03-14 15:49:47.731803,17.03,15.68,17.03,17.03,1006,34,6.69,140,0,0.0,Clear,clear sky,15
Nyárlőrinc alsó,46.863889,19.878889,2026-03-14 15:49:48.889987,17.05,15.7,17.05,17.05,1006,34,6.69,140,0,0.0,Clear,clear sky,15
Tiszaug-Tiszahídfő,46.866106,20.052098,2026-03-14 15:49:50.047934,17.02,15.82,15.57,17.21,1007,40,6.23,159,7,0.0,Clear,clear sky,15
Csongrádi úti tanyák,46.690278,19.921667,2026-03-14 15:49:51.214215,15.53,14.21,15.53,17.16,1007,41,6.33,156,8,0.0,Clear,clear sky,15
Kettőshalom,46.689167,20.0225,2026-03-14 15:49:52.374373,15.56,14.29,15.56,17.2,1007,43,6.36,158,8,0.0,Clear,clear sky,15
Csongrád alsó,46.711389,20.126389,2026-03-14 15:49:53.540209,15.56,14.29,15.56,17.2,1007,43,6.3,160,8,0.0,Clear,clear sky,15
Dónát,46.66988,20.368168,2026-03-14 15:49:54.707326,17.22,16.15,15.58,17.22,1007,44,7.6,159,9,0.0,Clear,clear sky,15
Pusztatemplom,46.676667,20.407222,2026-03-14 15:49:55.873726,17.21,16.14,15.57,17.21,1007,44,7.6,159,8,0.0,Clear,clear sky,15
Előhát,47.364722,20.653611,2026-03-14 15:49:57.037774,17.22,15.89,17.22,17.22,1007,34,4.11,157,11,0.0,Clouds,few clouds,15
Polgárdi-Tekerespuszta,47.017778,18.297778,2026-03-14 15:49:58.203815,15.85,14.59,15.85,15.85,1004,42,4.68,158,4,0.0,Clear,clear sky,15
Szatina-Kishajmás,46.202778,18.083611,2026-03-14 15:49:59.375348,18.25,17.33,18.25,18.25,1004,46,2.35,152,7,0.0,Clear,clear sky,15
Márok,45.886944,18.499167,2026-03-14 15:50:00.540216,18.16,17.05,18.16,18.47,1005,39,2.24,200,4,0.0,Clear,clear sky,15
Nagynyárád,45.953333,18.564722,2026-03-14 15:50:01.697837,18.23,17.13,18.23,18.53,1005,39,2.13,146,5,0.0,Clear,clear sky,15
Szászvár,46.2875,18.369722222222222,2026-03-14 15:50:02.863099,15.4,14.2,15.4,15.4,1005,46,3.08,153,3,0.0,Clear,clear sky,15
Cikó,46.263514,18.557605,2026-03-14 15:50:04.023823,15.73,14.56,15.73,15.73,1005,46,3.25,154,7,0.0,Clear,clear sky,15
Gyöngyfa-Magyarmecske,45.983889,17.958889,2026-03-14 15:50:05.182082,18.57,17.74,18.57,18.57,1004,48,3.16,144,20,0.0,Clouds,few clouds,15
Nagyhát,47.581389,21.445,2026-03-14 15:50:06.340993,16.92,15.27,16.92,16.92,1008,23,3.09,180,0,0.0,Clear,clear sky,15
Balmazújváros,47.613889,21.348056,2026-03-14 15:50:07.505696,17.1,15.73,17.1,17.1,1008,33,2.94,152,21,0.0,Clouds,few clouds,15
Kónya,47.600833,21.2375,2026-03-14 15:50:08.668063,14.91,13.34,14.91,14.91,1008,34,3.01,159,18,0.0,Clouds,few clouds,15
Hortobágy,47.586111,21.154722,2026-03-14 15:50:09.831697,14.88,13.31,14.88,14.88,1008,34,3.09,165,13,0.0,Clouds,few clouds,15
Hortobágyi Halastó,47.604167,21.074167,2026-03-14 15:50:10.991043,14.85,13.3,14.85,14.85,1008,35,3.17,169,11,0.0,Clouds,few clouds,15
Ohat-Pusztakócs,47.623333,20.951111,2026-03-14 15:50:12.150237,14.77,13.22,14.77,14.77,1008,35,3.34,174,9,0.0,Clear,clear sky,15
Egyek,47.616944,20.883611,2026-03-14 15:50:13.315266,17.19,15.9,17.19,17.19,1008,36,3.52,175,10,0.0,Clear,clear sky,15
Tiszafüred,47.627778,20.756111,2026-03-14 15:50:14.482606,17.19,15.9,17.19,17.19,1008,36,3.68,173,12,0.0,Clouds,few clouds,15
Poroszló,47.657778,20.654444,2026-03-14 15:50:15.660199,17.2,15.89,17.2,17.2,1008,35,3.83,169,11,0.0,Clouds,few clouds,15
Kétútköz,47.694167,20.565,2026-03-14 15:50:16.820576,17.17,15.86,17.17,17.17,1008,35,3.88,169,11,0.0,Clouds,few clouds,15
Egerfarmos,47.711667,20.5225,2026-03-14 15:50:17.982362,17.15,15.83,17.15,17.15,1008,35,3.95,165,11,0.0,Clouds,few clouds,15
Piliscsaba,47.638056,18.829722,2026-03-14 15:50:19.147186,15.67,14.36,15.18,17.44,1005,41,0.45,90,2,0.0,Clear,clear sky,15
Pilisjászfalu,47.656111,18.797778,2026-03-14 15:50:20.316173,15.81,14.52,15.43,17.7,1005,41,4.47,151,1,0.0,Clear,clear sky,15
Leányvár,47.687594,18.772553,2026-03-14 15:50:21.476434,15.6,14.29,15.6,16.34,1005,41,4.37,151,1,0.0,Clear,clear sky,15
Dorog,47.723333,18.732778,2026-03-14 15:50:22.641435,15.82,14.55,15.82,18.08,1005,42,4.28,151,1,0.0,Clear,clear sky,15
Esztergom-Kertváros,47.743333,18.719167,2026-03-14 15:50:23.800079,15.89,14.63,15.89,15.89,1005,42,4.15,150,1,0.0,Clear,clear sky,15
Esztergom,47.7775,18.743611,2026-03-14 15:50:24.971372,15.95,14.7,15.95,15.95,1005,42,3.78,148,1,0.0,Clear,clear sky,15
Dunaalmás,47.733056,18.326389,2026-03-14 15:50:26.132707,16.0,14.75,16.0,16.0,1004,42,5.01,164,2,0.0,Clear,clear sky,15
Neszmély,47.734444,18.345278,2026-03-14 15:50:27.295562,16.0,14.75,16.0,16.0,1004,42,5.01,164,2,0.0,Clear,clear sky,15
Süttő,47.761111,18.455,2026-03-14 15:50:28.454973,15.87,14.61,15.87,15.87,1004,42,5.02,157,2,0.0,Clear,clear sky,15
Piszke,47.75307,18.478017,2026-03-14 15:50:29.619469,15.86,14.6,15.86,15.86,1004,42,5.0,156,2,0.0,Clear,clear sky,15
Lábatlan,47.751944,18.513333,2026-03-14 15:50:30.777792,15.81,14.54,15.81,15.81,1004,42,4.93,155,1,0.0,Clear,clear sky,15
Eternitgyár,47.755544,18.530014,2026-03-14 15:50:31.937538,15.81,14.54,15.81,15.81,1004,42,4.93,155,1,0.0,Clear,clear sky,15
Nyergesújfalu felső,47.762222,18.540556,2026-03-14 15:50:33.107748,15.81,14.54,15.81,15.81,1004,42,4.93,155,1,0.0,Clear,clear sky,15
Nyergesújfalu,47.761111,18.561667,2026-03-14 15:50:34.266992,15.72,14.44,15.72,15.72,1004,42,4.85,154,1,0.0,Clear,clear sky,15
Tokod,47.735,18.675,2026-03-14 15:50:35.432988,15.91,14.65,15.91,15.91,1005,42,4.41,152,1,0.0,Clear,clear sky,15
Környe,47.541667,18.330278,2026-03-14 15:50:36.598940,15.63,14.35,15.63,15.63,1004,42,5.19,172,3,0.0,Clear,clear sky,15
Kecskéd alsó,47.519722,18.316667,2026-03-14 15:50:37.763184,15.67,14.39,15.67,15.67,1004,42,5.26,173,4,0.0,Clear,clear sky,15
Oroszlány,47.486944,18.308611,2026-03-14 15:50:38.926650,15.58,14.29,15.58,15.58,1004,42,5.22,173,4,0.0,Clear,clear sky,15
Győrszabadhegy,47.663056,17.648056,2026-03-14 15:50:40.089624,17.08,15.78,17.08,17.08,1003,36,7.2,160,0,0.0,Clear,clear sky,15
Ménfőcsanak felső,47.638333,17.615,2026-03-14 15:50:41.247732,17.08,15.78,17.08,17.08,1003,36,7.2,160,0,0.0,Clear,clear sky,15
