station_name,station_lat,station_lon,observation_time,temp,feels_like,temp_min,temp_max,pressure,humidity,wind_speed,wind_deg,clouds,precipitation_1h,weather_main,weather_description,collection_hour
Búcsúszentlászló,46.793056,16.932778,2026-03-09 07:12:06.307730,6.84,4.47,6.84,6.84,1028,76,3.38,127,46,0.0,Clouds,scattered clouds,7
Angyalföld,47.549722,19.09,2026-03-09 07:12:07.479451,7.79,5.51,7.2,9.27,1030,60,3.58,153,0,0.0,Clear,clear sky,7
Felsőjánosfa,46.841389,16.544167,2026-03-09 07:12:08.654475,4.14,2.23,4.14,4.14,1028,77,2.13,139,74,0.0,Clouds,broken clouds,7
Pankasz,46.835833,16.496111,2026-03-09 07:12:09.831286,3.85,2.04,3.85,3.85,1028,78,1.99,136,76,0.0,Clouds,broken clouds,7
Nagyrákos,46.827222,16.455556,2026-03-09 07:12:11.018419,3.81,2.07,3.81,3.81,1028,78,1.92,134,76,0.0,Clouds,broken clouds,7
Őriszentpéter,46.828889,16.415278,2026-03-09 07:12:12.188081,3.92,2.35,3.92,3.92,1028,78,1.79,130,78,0.0,Clouds,broken clouds,7
Törökbálint,47.45,18.908611,2026-03-09 07:12:13.359232,8.21,6.02,6.97,9.05,1030,59,3.58,153,15,0.0,Clouds,few clouds,7
Bicske alsó,47.486389,18.642778,2026-03-09 07:12:14.531060,8.49,6.79,7.45,8.94,1030,68,2.86,126,48,0.0,Clouds,scattered clouds,7
Bajánsenye,46.818056,16.358056,2026-03-09 07:12:15.699802,3.99,2.44,3.99,3.99,1027,79,1.78,126,79,0.0,Clouds,broken clouds,7
Aquincum,47.566218,19.048273,2026-03-09 07:12:16.871117,7.84,5.57,7.23,9.3,1030,60,3.58,153,10,0.0,Clear,clear sky,7
Piliscsév,47.673889,18.791389,2026-03-09 07:12:18.043043,8.59,7.37,6.81,8.88,1030,55,2.21,124,20,0.0,Clouds,few clouds,7
Tát,47.741201,18.64783,2026-03-09 07:12:19.213701,9.29,7.95,9.29,9.29,1030,70,2.54,125,24,0.0,Clouds,few clouds,7
Süttő felső,47.756667,18.437222,2026-03-09 07:12:20.392747,4.99,2.43,4.99,4.99,1029,70,3.09,128,58,0.0,Clouds,broken clouds,7
Budatétény,47.405,19.016389,2026-03-09 07:12:21.567170,8.51,8.14,7.27,9.34,1030,59,1.34,136,0,0.0,Clear,clear sky,7
Seregélyes-Szőlőhegy,47.119444,18.612222,2026-03-09 07:12:22.756142,4.81,1.39,4.81,4.81,1030,66,4.43,146,89,0.0,Clouds,overcast clouds,7
Gödöllő-Állami telepek,47.564444,19.375556,2026-03-09 07:12:23.934759,7.54,7.54,6.71,7.79,1030,57,1.03,0,0,0.0,Clear,clear sky,7
Dunakeszi alsó,47.607778,19.128889,2026-03-09 07:12:25.107396,7.8,6.68,7.19,9.27,1030,61,1.94,151,4,0.0,Clear,clear sky,7
Vác-Alsóváros,47.773056,19.149722,2026-03-09 07:12:26.278386,7.17,6.25,7.17,9.25,1030,73,1.65,115,2,0.0,Clear,clear sky,7
Szob alsó,47.816667,18.8725,2026-03-09 07:12:27.456975,9.28,8.24,9.28,9.28,1030,72,2.14,117,7,0.0,Clear,clear sky,7
Zalaszentmihály-Pacsa,46.7225,16.951944,2026-03-09 07:12:28.628461,6.75,4.55,6.75,6.75,1028,76,3.09,90,0,0.0,Clear,clear sky,7
Pötréte,46.682778,16.9575,2026-03-09 07:12:29.800638,6.75,4.55,6.75,6.75,1028,76,3.09,90,0,0.0,Clear,clear sky,7
Felsőrajk,46.667222,16.982778,2026-03-09 07:12:30.975672,6.81,4.62,6.81,6.81,1028,76,3.09,90,0,0.0,Clear,clear sky,7
Gelse,46.600556,16.982778,2026-03-09 07:12:32.146388,6.81,4.62,6.81,6.81,1028,76,3.09,90,0,0.0,Clear,clear sky,7
Őrtilos,46.297778,16.887778,2026-03-09 07:12:33.320882,4.09,0.91,4.09,4.09,1027,72,3.72,107,80,0.0,Clouds,broken clouds,7
Zákány,46.251944,16.9425,2026-03-09 07:12:34.490757,3.86,0.31,3.86,3.86,1027,72,4.26,110,77,0.0,Clouds,broken clouds,7
Berzence,46.201389,17.143611,2026-03-09 07:12:35.660967,4.16,0.41,4.16,4.16,1028,71,4.75,117,43,0.0,Clouds,scattered clouds,7
Somogyudvarhely,46.163333,17.179722,2026-03-09 07:12:36.834931,4.15,0.36,4.15,4.15,1028,70,4.83,117,37,0.0,Clouds,scattered clouds,7
Bélavár,46.122778,17.207778,2026-03-09 07:12:38.013101,4.23,0.43,4.23,4.23,1028,71,4.89,116,30,0.0,Clouds,scattered clouds,7
Vízvár,46.101389,17.239444,2026-03-09 07:12:39.184127,4.15,0.34,4.15,4.15,1028,71,4.86,115,24,0.0,Clouds,few clouds,7
Babócsa,46.028359,17.342276,2026-03-09 07:12:40.355486,4.19,0.48,4.19,4.19,1028,71,4.7,114,14,0.0,Clouds,few clouds,7
Péterhida-Komlósd,46.006667,17.358056,2026-03-09 07:12:41.529362,4.27,0.61,4.27,4.27,1028,72,4.63,112,12,0.0,Clouds,few clouds,7
Barcs,45.951944,17.446944,2026-03-09 07:12:42.702944,4.3,0.66,4.3,4.3,1028,73,4.6,109,13,0.0,Clouds,few clouds,7
Barcs felső,45.958333,17.486389,2026-03-09 07:12:43.882830,4.22,0.55,4.22,4.22,1028,73,4.62,110,14,0.0,Clouds,few clouds,7
Középrigóc,45.970556,17.525,2026-03-09 07:12:45.063777,4.15,0.46,4.15,4.15,1028,74,4.64,110,15,0.0,Clouds,few clouds,7
Darány,45.992222,17.598611,2026-03-09 07:12:46.234048,4.18,0.49,4.18,4.18,1028,74,4.64,111,18,0.0,Clouds,few clouds,7
Kisdobsza,46.012222,17.668056,2026-03-09 07:12:47.407043,4.26,0.64,4.26,4.26,1028,74,4.56,112,25,0.0,Clouds,scattered clouds,7
Nemeske,46.023333,17.705278,2026-03-09 07:12:48.584238,4.3,0.69,4.3,4.3,1028,74,4.56,111,28,0.0,Clouds,scattered clouds,7
Molvány,46.035278,17.748611,2026-03-09 07:12:49.757796,4.31,0.77,4.31,4.31,1028,74,4.42,111,43,0.0,Clouds,scattered clouds,7
Szigetvár,46.043333,17.801944,2026-03-09 07:12:50.940368,4.3,0.77,4.3,4.3,1028,74,4.4,110,49,0.0,Clouds,scattered clouds,7
Nagypeterd,46.039444,17.871667,2026-03-09 07:12:52.120945,5.53,2.32,5.53,5.53,1028,74,4.35,108,61,0.0,Clouds,broken clouds,7
Szentdénes,46.036667,17.926944,2026-03-09 07:12:53.296866,5.48,2.27,5.48,5.48,1028,74,4.33,108,66,0.0,Clouds,broken clouds,7
Háros,47.412222,19.035,2026-03-09 07:12:54.468469,8.44,8.06,7.23,9.3,1030,59,1.34,136,0,0.0,Clear,clear sky,7
Nagytétény-Diósd,47.398333,18.974444,2026-03-09 07:12:55.647001,8.52,8.15,7.26,9.33,1030,59,1.34,136,6,0.0,Clear,clear sky,7
Érdliget,47.390278,18.937778,2026-03-09 07:12:56.819330,8.45,8.07,7.17,9.25,1030,58,1.34,136,8,0.0,Clear,clear sky,7
Érd felső,47.381111,18.922222,2026-03-09 07:12:57.991100,8.43,8.05,7.14,9.21,1030,58,1.34,136,11,0.0,Clouds,few clouds,7
Érd,47.369722,18.900833,2026-03-09 07:12:59.171902,8.41,6.64,7.1,9.18,1030,58,2.94,141,10,0.0,Clear,clear sky,7
Százhalombatta,47.322222,18.899167,2026-03-09 07:13:00.348297,8.43,6.56,7.09,9.16,1030,58,3.11,142,11,0.0,Clouds,few clouds,7
Dunai Finomító,47.294444,18.878889,2026-03-09 07:13:01.530453,8.46,6.51,7.51,8.47,1030,58,3.25,141,18,0.0,Clouds,few clouds,7
Ercsi,47.247222,18.875278,2026-03-09 07:13:02.703503,8.69,6.73,7.74,8.7,1030,67,3.36,142,22,0.0,Clouds,few clouds,7
Iváncsa,47.177778,18.811944,2026-03-09 07:13:03.876782,4.73,1.57,4.73,4.73,1030,67,3.92,146,48,0.0,Clouds,scattered clouds,7
Pusztaszabolcs,47.139722,18.761667,2026-03-09 07:13:05.050064,4.83,1.43,4.83,4.83,1030,66,4.4,149,68,0.0,Clouds,broken clouds,7
Szabadegyháza,47.082778,18.704167,2026-03-09 07:13:06.222174,4.83,1.19,4.83,4.83,1030,66,4.86,151,88,0.0,Clouds,overcast clouds,7
Sárosd,47.039722,18.660278,2026-03-09 07:13:07.394419,4.87,1.18,4.87,4.87,1030,66,4.98,151,96,0.0,Clouds,overcast clouds,7
Nagylók,46.979444,18.635833,2026-03-09 07:13:08.568106,4.77,0.87,4.77,4.77,1030,65,5.39,152,100,0.0,Clouds,overcast clouds,7
Sárbogárd,46.896944,18.611944,2026-03-09 07:13:09.741456,4.98,1.04,4.98,4.98,1029,65,5.59,151,100,0.0,Clouds,overcast clouds,7
Rétszilas,46.814167,18.601389,2026-03-09 07:13:10.912964,5.06,1.09,5.06,5.06,1029,65,5.71,149,100,0.0,Clouds,overcast clouds,7
Nagyatád,46.228611,17.354167,2026-03-09 07:13:12.084997,4.12,0.57,4.12,4.12,1028,70,4.36,123,26,0.0,Clouds,scattered clouds,7
Budapest-Keleti,47.500278,19.084167,2026-03-09 07:13:13.255090,7.99,5.75,7.17,9.25,1030,60,3.58,153,0,0.0,Clear,clear sky,7
Ferencváros,47.468611,19.088056,2026-03-09 07:13:14.427625,8.15,5.95,7.19,9.27,1030,59,3.58,153,0,0.0,Clear,clear sky,7
Budapest-Nyugati,47.510833,19.0575,2026-03-09 07:13:15.603772,7.96,5.72,7.19,9.26,1030,60,3.58,153,0,0.0,Clear,clear sky,7
Kőbánya felső,47.491944,19.133889,2026-03-09 07:13:16.777110,7.97,7.97,7.12,9.19,1030,60,1.03,0,0,0.0,Clear,clear sky,7
Rákos,47.488889,19.174722,2026-03-09 07:13:17.950528,7.94,7.94,7.08,9.15,1030,59,1.03,0,0,0.0,Clear,clear sky,7
Rákosrendező,47.525556,19.089444,2026-03-09 07:13:19.121846,7.91,5.66,7.22,9.29,1030,60,3.58,153,0,0.0,Clear,clear sky,7
Zugló,47.511389,19.101389,2026-03-09 07:13:20.299932,7.95,5.7,7.18,9.25,1030,60,3.58,153,0,0.0,Clear,clear sky,7
Mezőtárkány,47.725,20.480278,2026-03-09 07:13:21.482580,6.57,6.57,6.57,6.57,1031,71,0.68,17,15,0.0,Clouds,few clouds,7
Istvántelek,47.550278,19.106389,2026-03-09 07:13:22.653307,8.06,8.06,7.77,9.28,1030,60,1.03,0,0,0.0,Clear,clear sky,7
Rákospalota-Újpest,47.565833,19.111944,2026-03-09 07:13:23.826552,8.05,8.05,7.76,9.27,1030,60,1.03,0,0,0.0,Clear,clear sky,7
Kőbánya alsó,47.483056,19.127222,2026-03-09 07:13:25.012558,8.11,7.68,7.69,9.2,1030,59,1.34,136,0,0.0,Clear,clear sky,7
Kőbánya-Kispest,47.463889,19.149444,2026-03-09 07:13:26.181335,8.14,8.14,7.69,9.2,1030,59,1.03,0,0,0.0,Clear,clear sky,7
Pestszentlőrinc,47.454722,19.182778,2026-03-09 07:13:27.351626,8.09,8.09,7.63,9.14,1030,59,1.03,0,0,0.0,Clear,clear sky,7
Kispest,47.448135,19.157552,2026-03-09 07:13:28.523025,8.17,8.17,7.7,9.21,1030,59,1.03,0,0,0.0,Clear,clear sky,7
Újpest,47.558889,19.079722,2026-03-09 07:13:29.695947,8.03,5.8,7.77,9.28,1030,60,3.58,153,0,0.0,Clear,clear sky,7
Pestszentimre felső,47.413611,19.173333,2026-03-09 07:13:30.868239,8.23,8.23,7.72,9.23,1030,59,1.03,0,0,0.0,Clear,clear sky,7
Dunakeszi,47.626111,19.136111,2026-03-09 07:13:32.041059,7.99,7.04,7.66,9.18,1030,60,1.8,146,3,0.0,Clear,clear sky,7
Dunakeszi-Gyártelep,47.643611,19.135,2026-03-09 07:13:33.209620,7.92,7.08,7.71,9.22,1030,61,1.68,140,3,0.0,Clear,clear sky,7
Alsógöd,47.676944,19.134444,2026-03-09 07:13:34.387838,7.99,7.25,7.7,9.21,1030,65,1.6,133,3,0.0,Clear,clear sky,7
Göd,47.687778,19.1375,2026-03-09 07:13:35.561379,8.03,7.29,7.72,9.23,1030,65,1.6,133,3,0.0,Clear,clear sky,7
Felsőgöd,47.705556,19.143333,2026-03-09 07:13:36.740355,7.82,7.09,7.77,9.28,1030,65,1.56,127,2,0.0,Clear,clear sky,7
Sződ-Sződliget,47.728056,19.154722,2026-03-09 07:13:37.909981,7.84,7.12,7.76,9.27,1030,65,1.56,122,2,0.0,Clear,clear sky,7
Vác,47.782778,19.133056,2026-03-09 07:13:39.080767,7.73,6.89,7.73,9.25,1030,73,1.65,115,2,0.0,Clear,clear sky,7
Verőce,47.823889,19.029444,2026-03-09 07:13:40.254071,7.57,6.36,7.57,9.08,1030,73,2.0,113,5,0.0,Clear,clear sky,7
Kismaros,47.8275,19.010278,2026-03-09 07:13:41.426531,9.21,8.24,9.21,9.21,1030,73,2.04,114,5,0.0,Clear,clear sky,7
Nagymaros-Visegrád,47.791389,18.959167,2026-03-09 07:13:42.596540,9.23,8.4,7.72,9.23,1030,72,1.88,115,6,0.0,Clear,clear sky,7
Nagymaros,47.780278,18.952222,2026-03-09 07:13:43.767945,9.31,8.49,7.79,9.31,1030,72,1.88,115,6,0.0,Clear,clear sky,7
Zebegény,47.801389,18.908889,2026-03-09 07:13:44.944994,9.28,8.34,7.77,9.28,1030,72,2.02,115,6,0.0,Clear,clear sky,7
Szob,47.821111,18.861944,2026-03-09 07:13:46.117083,9.24,8.12,9.24,9.24,1030,72,2.23,117,6,0.0,Clear,clear sky,7
Alagimajor,47.601944,19.153889,2026-03-09 07:13:47.290608,8.03,8.03,7.71,9.22,1030,60,1.03,0,0,0.0,Clear,clear sky,7
Fót,47.611389,19.181667,2026-03-09 07:13:48.463985,7.73,6.76,7.6,9.12,1030,62,1.78,146,3,0.0,Clear,clear sky,7
Fótújfalu,47.615,19.192778,2026-03-09 07:13:49.634837,7.63,6.64,7.5,9.01,1030,62,1.78,146,3,0.0,Clear,clear sky,7
Csomád,47.635556,19.222778,2026-03-09 07:13:50.806692,7.38,6.37,7.23,8.74,1030,65,1.76,147,2,0.0,Clear,clear sky,7
Veresegyház,47.649167,19.288611,2026-03-09 07:13:51.982258,7.49,6.68,7.38,7.9,1030,65,1.59,141,1,0.0,Clear,clear sky,7
Erdőkertes,47.662222,19.295833,2026-03-09 07:13:53.154653,7.44,6.63,7.33,7.85,1030,70,1.59,141,1,0.0,Clear,clear sky,7
Őrbottyán,47.685833,19.283611,2026-03-09 07:13:54.340304,7.25,6.5,7.25,7.77,1030,71,1.51,133,0,0.0,Clear,clear sky,7
Váchartyán,47.725833,19.248889,2026-03-09 07:13:55.509139,7.61,6.92,7.61,7.61,1030,72,1.5,121,0,0.0,Clear,clear sky,7
Magyarkút-Verőce,47.826111,19.044444,2026-03-09 07:13:56.681698,7.73,6.55,7.73,7.73,1030,73,2.0,113,5,0.0,Clear,clear sky,7
Szokolya,47.871111,19.030556,2026-03-09 07:13:57.857672,3.54,1.45,3.54,3.54,1030,73,2.21,114,6,0.0,Clear,clear sky,7
Berkenye,47.885278,19.071944,2026-03-09 07:13:59.041645,4.27,2.35,4.27,4.27,1030,73,2.16,114,5,0.0,Clear,clear sky,7
Nógrád,47.901944,19.0475,2026-03-09 07:14:00.217247,3.91,1.78,3.91,3.91,1030,73,2.32,114,6,0.0,Clear,clear sky,7
Diósjenő,47.94,19.049444,2026-03-09 07:14:01.401289,3.54,1.25,3.54,3.54,1030,73,2.41,115,6,0.0,Clear,clear sky,7
Borsosberény,47.971389,19.093056,2026-03-09 07:14:02.589535,4.28,2.31,4.28,4.28,1030,73,2.22,115,4,0.0,Clear,clear sky,7
Nagyoroszi,47.993611,19.101111,2026-03-09 07:14:03.767168,4.13,2.09,4.13,4.13,1030,72,2.26,115,4,0.0,Clear,clear sky,7
Drégelyvár,48.001944,19.079444,2026-03-09 07:14:04.943734,4.38,2.15,4.38,4.38,1030,72,2.52,113,6,0.0,Clear,clear sky,7
Drégely,48.042222,19.056111,2026-03-09 07:14:06.114960,4.75,2.57,4.75,4.75,1030,71,2.54,112,6,0.0,Clear,clear sky,7
Drégelypalánk,48.055,19.046111,2026-03-09 07:14:07.283979,4.89,2.65,4.89,4.89,1030,71,2.64,110,7,0.0,Clear,clear sky,7
Ipolyvece,48.056944,19.106389,2026-03-09 07:14:08.462629,4.89,2.95,4.89,4.89,1030,70,2.3,110,5,0.0,Clear,clear sky,7
Dejtár,48.045556,19.196389,2026-03-09 07:14:09.646563,4.84,3.14,4.84,4.84,1030,71,2.04,113,2,0.0,Clear,clear sky,7
Ipolyszög,48.054444,19.221944,2026-03-09 07:14:10.828233,4.89,3.36,4.89,4.89,1031,70,1.89,110,1,0.0,Clear,clear sky,7
Iklad-Domony,47.658056,19.444444,2026-03-09 07:14:12.000502,8.1,8.1,8.1,8.1,1030,72,1.31,134,0,0.0,Clear,clear sky,7
Iklad-Domony felső,47.667778,19.428056,2026-03-09 07:14:13.169431,8.09,8.09,7.62,8.09,1030,72,1.33,127,0,0.0,Clear,clear sky,7
Galgamácsa,47.693889,19.3925,2026-03-09 07:14:14.338289,7.61,7.01,7.61,7.61,1030,72,1.43,124,0,0.0,Clear,clear sky,7
Vácrátót,47.732778,19.217778,2026-03-09 07:14:15.511100,7.53,6.81,7.53,7.53,1030,72,1.52,122,1,0.0,Clear,clear sky,7
Csörög,47.735833,19.196389,2026-03-09 07:14:16.689490,7.54,6.81,7.53,9.05,1030,71,1.53,122,1,0.0,Clear,clear sky,7
Galgagyörk,47.735278,19.372222,2026-03-09 07:14:17.861671,7.51,6.89,7.51,7.51,1030,72,1.43,118,0,0.0,Clear,clear sky,7
Püspökhatvan,47.768611,19.366944,2026-03-09 07:14:19.038922,4.71,3.66,4.71,4.71,1030,73,1.47,111,0,0.0,Clear,clear sky,7
Acsa-Erdőkürt,47.801111,19.386111,2026-03-09 07:14:20.214988,4.57,3.48,4.57,4.57,1030,73,1.48,109,0,0.0,Clear,clear sky,7
Galgaguta,47.848611,19.385556,2026-03-09 07:14:21.386728,4.3,3.18,4.3,4.3,1030,73,1.48,109,0,0.0,Clear,clear sky,7
Nógrádkövesd,47.879444,19.371111,2026-03-09 07:14:22.567767,4.48,3.41,4.48,4.48,1030,73,1.46,109,0,0.0,Clear,clear sky,7
Magyarnándor,47.970833,19.356667,2026-03-09 07:14:23.743049,4.36,3.24,4.36,4.36,1031,72,1.48,113,0,0.0,Clear,clear sky,7
Mohora,47.995556,19.347778,2026-03-09 07:14:24.916476,4.5,3.43,4.5,4.5,1031,72,1.46,113,0,0.0,Clear,clear sky,7
Szügy,48.036389,19.333056,2026-03-09 07:14:26.088245,4.75,3.8,4.75,4.75,1031,70,1.4,110,0,0.0,Clear,clear sky,7
Balassagyarmat,48.071111,19.293611,2026-03-09 07:14:27.265701,4.83,3.77,4.83,4.83,1031,70,1.49,108,0,0.0,Clear,clear sky,7
Őrhalom,48.078773,19.403936,2026-03-09 07:14:28.436384,4.65,4.65,4.65,4.65,1031,69,0.98,95,0,0.0,Clear,clear sky,7
Hugyag,48.083056,19.421111,2026-03-09 07:14:29.607915,4.65,4.65,4.65,4.65,1031,69,0.98,95,0,0.0,Clear,clear sky,7
Szécsény,48.093056,19.521111,2026-03-09 07:14:30.779026,4.96,4.96,4.96,4.96,1031,69,0.75,92,0,0.0,Clear,clear sky,7
Ludányhalászi,48.1325,19.529444,2026-03-09 07:14:31.950286,4.93,4.93,4.93,4.93,1031,68,0.79,73,0,0.0,Clear,clear sky,7
Nógrádszakál,48.178333,19.521667,2026-03-09 07:14:33.128534,4.88,4.88,4.88,4.88,1031,68,0.84,66,0,0.0,Clear,clear sky,7
Ráróspuszta,48.207222,19.541389,2026-03-09 07:14:34.300551,4.32,4.32,4.32,4.32,1031,66,0.96,59,0,0.0,Clear,clear sky,7
Litke,48.215833,19.598611,2026-03-09 07:14:35.470590,4.88,4.88,4.88,4.88,1031,67,0.78,60,0,0.0,Clear,clear sky,7
Nyíregyháza külső,47.943056,21.740278,2026-03-09 07:14:36.646024,5.76,4.94,5.76,5.76,1031,66,1.4,155,3,0.0,Clear,clear sky,7
Oros,47.945833,21.806389,2026-03-09 07:14:37.819901,5.71,4.36,5.71,5.71,1031,66,1.84,155,2,0.0,Clear,clear sky,7
Napkor,47.948889,21.873056,2026-03-09 07:14:38.997483,5.68,3.62,5.68,5.68,1031,65,2.61,149,1,0.0,Clear,clear sky,7
Apagy,47.953775,21.939044,2026-03-09 07:14:40.167702,5.65,3.41,5.65,5.65,1031,64,2.83,147,1,0.0,Clear,clear sky,7
Levelek-Magy,47.948056,21.993611,2026-03-09 07:14:41.341929,5.55,3.01,5.55,5.55,1031,64,3.22,144,0,0.0,Clear,clear sky,7
Ófehértó,47.940556,22.041389,2026-03-09 07:14:42.515081,5.42,2.81,5.42,5.42,1031,63,3.29,143,0,0.0,Clear,clear sky,7
Ligettanya,47.951667,22.071389,2026-03-09 07:14:43.683864,5.37,2.47,5.37,5.37,1031,63,3.74,141,0,0.0,Clear,clear sky,7
Baktalórántháza,47.988611,22.083333,2026-03-09 07:14:44.854978,5.4,2.46,5.4,5.4,1031,63,3.81,141,0,0.0,Clear,clear sky,7
Vaja-Rohod,48.006389,22.164167,2026-03-09 07:14:46.028147,5.37,2.27,5.37,5.37,1031,63,4.07,139,0,0.0,Clear,clear sky,7
Rákóczitanya,48.022222,22.178333,2026-03-09 07:14:47.203819,5.32,2.17,5.32,5.32,1031,63,4.15,138,0,0.0,Clear,clear sky,7
Nyírmada,48.059167,22.203056,2026-03-09 07:14:48.376434,5.37,2.24,5.37,5.37,1031,64,4.13,137,0,0.0,Clear,clear sky,7
Tunyogmatolcs,47.960244,22.442247,2026-03-09 07:14:49.555991,5.27,1.89,5.27,5.27,1032,62,4.55,135,0,0.0,Clear,clear sky,7
Tunyogmatolcs alsó,47.966025,22.464713,2026-03-09 07:14:50.729874,5.21,1.85,5.21,5.21,1032,62,4.5,135,0,0.0,Clear,clear sky,7
Fehérgyarmat,47.979167,22.524444,2026-03-09 07:14:51.904731,5.16,1.97,5.16,5.16,1032,62,4.15,135,0,0.0,Clear,clear sky,7
Penyige,47.995278,22.566944,2026-03-09 07:14:53.075809,5.14,2.02,5.14,5.14,1032,62,4.02,134,0,0.0,Clear,clear sky,7
Nagyszekeres,47.976111,22.6125,2026-03-09 07:14:54.248968,5.1,2.05,5.1,5.1,1032,61,3.88,134,0,0.0,Clear,clear sky,7
Kisszekeres,47.965833,22.629444,2026-03-09 07:14:55.431290,5.07,1.96,5.07,5.07,1032,61,3.98,134,0,0.0,Clear,clear sky,7
Jánkmajtis,47.941944,22.657222,2026-03-09 07:14:56.604887,5.0,1.91,5.0,5.0,1032,60,3.92,134,0,0.0,Clear,clear sky,7
Gacsály,47.926111,22.745,2026-03-09 07:14:57.772834,8.93,7.0,8.93,9.03,1032,60,3.39,130,0,0.0,Clear,clear sky,7
Zajta,47.9025,22.796111,2026-03-09 07:14:58.943472,8.92,7.11,8.92,9.03,1032,59,3.18,128,0,0.0,Clear,clear sky,7
Eperjeske alsó,48.360556,22.19,2026-03-09 07:15:00.123839,5.54,2.99,5.54,5.54,1032,68,3.23,120,0,0.0,Clear,clear sky,7
Mándok,48.326944,22.196389,2026-03-09 07:15:01.296360,5.51,2.8,5.51,5.51,1032,68,3.47,123,0,0.0,Clear,clear sky,7
Tornyospálca,48.268333,22.201944,2026-03-09 07:15:02.465903,5.55,2.72,5.55,5.55,1032,67,3.68,126,0,0.0,Clear,clear sky,7
Aranyosapáti,48.211303,22.253534,2026-03-09 07:15:03.643312,5.55,2.67,5.55,5.55,1032,66,3.77,129,0,0.0,Clear,clear sky,7
Gyüre,48.171389,22.269167,2026-03-09 07:15:04.816950,5.51,2.51,5.51,5.51,1032,65,3.96,132,0,0.0,Clear,clear sky,7
Varsány,48.151722,22.290047,2026-03-09 07:15:05.993781,5.47,2.44,5.47,5.47,1032,65,4.0,133,0,0.0,Clear,clear sky,7
Vásárosnamény,48.126667,22.306111,2026-03-09 07:15:07.168806,5.46,2.37,5.46,5.46,1032,65,4.09,134,0,0.0,Clear,clear sky,7
Vitka,48.095556,22.308056,2026-03-09 07:15:08.340702,5.43,2.3,5.43,5.43,1031,64,4.16,135,0,0.0,Clear,clear sky,7
Nagydobos,48.054167,22.311111,2026-03-09 07:15:09.519480,5.35,2.17,5.35,5.35,1031,64,4.22,136,0,0.0,Clear,clear sky,7
Ópályi,47.997778,22.318333,2026-03-09 07:15:10.710084,5.28,1.98,5.28,5.28,1031,63,4.41,136,0,0.0,Clear,clear sky,7
Nyírcsaholy,47.908056,22.348333,2026-03-09 07:15:11.880099,5.25,1.83,5.25,5.25,1031,62,4.62,135,0,0.0,Clear,clear sky,7
Nagyecsed,47.864722,22.385556,2026-03-09 07:15:13.053653,5.21,1.73,5.21,5.21,1031,61,4.72,135,0,0.0,Clear,clear sky,7
Tiborszállás,47.815278,22.402778,2026-03-09 07:15:14.222500,5.17,1.75,5.17,5.17,1031,61,4.6,134,0,0.0,Clear,clear sky,7
Kiskunhalas,46.434444,19.493611,2026-03-09 07:15:15.396168,5.33,1.1,5.33,5.33,1030,66,6.56,154,16,0.0,Clouds,few clouds,7
Kecskemét alsó,46.895833,19.692222,2026-03-09 07:15:16.560182,4.99,3.88,4.99,4.99,1030,70,1.54,90,0,0.0,Clear,clear sky,7
Putnok,48.286667,20.4375,2026-03-09 07:15:17.729474,10.35,9.19,8.36,10.38,1031,67,0.54,74,0,0.0,Clear,clear sky,7
Bánréve,48.299722,20.351944,2026-03-09 07:15:18.898764,10.36,9.2,9.99,10.36,1031,67,0.45,80,0,0.0,Clear,clear sky,7
Ipolytarnóc,48.236667,19.629167,2026-03-09 07:15:20.070909,4.85,4.85,4.85,4.85,1031,67,0.77,61,0,0.0,Clear,clear sky,7
Rákosliget,47.486111,19.257778,2026-03-09 07:15:21.248041,8.04,8.04,7.56,9.09,1030,59,1.03,0,0,0.0,Clear,clear sky,7
Ikrény,47.657778,17.524167,2026-03-09 07:15:22.417670,5.08,2.91,5.08,5.08,1028,72,2.6,135,99,0.0,Clouds,overcast clouds,7
Rábapatona,47.648889,17.461944,2026-03-09 07:15:23.586516,5.1,3.38,5.1,5.1,1028,72,2.1,138,96,0.0,Clouds,overcast clouds,7
Enese,47.644167,17.425278,2026-03-09 07:15:24.759134,5.1,3.67,5.1,5.1,1028,72,1.83,144,91,0.0,Clouds,overcast clouds,7
Kóny,47.632222,17.357222,2026-03-09 07:15:25.928123,5.21,4.02,5.21,5.21,1028,71,1.63,152,81,0.0,Clouds,broken clouds,7
Farád,47.595278,17.195833,2026-03-09 07:15:27.103177,6.68,5.05,6.68,6.68,1028,70,2.31,165,41,0.0,Clouds,scattered clouds,7
Rábatamási,47.592778,17.161389,2026-03-09 07:15:28.287337,6.68,5.05,6.68,6.68,1028,70,2.31,165,41,0.0,Clouds,scattered clouds,7
Szárföld,47.589167,17.123889,2026-03-09 07:15:29.459578,6.66,4.88,6.66,6.66,1028,70,2.48,165,37,0.0,Clouds,scattered clouds,7
Veszkény,47.586944,17.101389,2026-03-09 07:15:30.628577,6.67,4.76,6.67,6.67,1028,67,2.66,165,34,0.0,Clouds,scattered clouds,7
Kapuvár,47.581944,17.046944,2026-03-09 07:15:31.807400,6.65,4.52,6.65,6.65,1028,67,2.96,166,28,0.0,Clouds,scattered clouds,7
Vitnyéd-Csermajor,47.5825,16.987222,2026-03-09 07:15:32.979253,6.66,4.33,6.66,6.66,1028,67,3.26,165,28,0.0,Clouds,scattered clouds,7
Petőháza,47.595278,16.893056,2026-03-09 07:15:34.149143,6.61,4.01,6.61,6.61,1027,67,3.69,163,29,0.0,Clouds,scattered clouds,7
Fertőszentmiklós,47.6,16.858889,2026-03-09 07:15:35.317642,6.61,3.98,6.61,6.61,1027,67,3.74,163,30,0.0,Clouds,scattered clouds,7
Pinnye,47.600278,16.768611,2026-03-09 07:15:36.492024,6.49,3.96,6.49,6.49,1027,67,3.53,167,37,0.0,Clouds,scattered clouds,7
Fertőboz,47.625,16.691667,2026-03-09 07:15:37.664326,6.33,3.89,6.33,6.33,1027,67,3.33,165,43,0.0,Clouds,scattered clouds,7
Sopron,47.677778,16.587222,2026-03-09 07:15:38.837461,6.03,3.79,6.03,6.03,1027,71,2.94,160,49,0.0,Clouds,scattered clouds,7
Fertőszéplak-Fertőd,47.618889,16.850833,2026-03-09 07:15:40.010400,6.63,3.93,6.63,6.63,1027,67,3.87,161,31,0.0,Clouds,scattered clouds,7
Nyúl,47.587778,17.698056,2026-03-09 07:15:41.183854,5.02,3.33,5.02,8.14,1028,75,2.06,110,0,0.0,Clear,clear sky,7
Pannonhalma,47.547778,17.740833,2026-03-09 07:15:42.360693,4.96,3.26,4.96,8.08,1028,75,2.06,110,0,0.0,Clear,clear sky,7
Tarjánpuszta,47.504722,17.789167,2026-03-09 07:15:43.528666,4.73,2.99,4.73,7.84,1028,75,2.06,110,0,0.0,Clear,clear sky,7
Győrasszonyfa,47.4925,17.799167,2026-03-09 07:15:44.702661,4.66,2.91,4.66,7.77,1028,75,2.06,110,0,0.0,Clear,clear sky,7
Veszprémvarsány,47.443333,17.818333,2026-03-09 07:15:45.878507,4.71,1.12,4.71,7.83,1028,71,4.71,138,91,0.0,Clouds,overcast clouds,7
Bakonyszentlászló,47.395556,17.8175,2026-03-09 07:15:47.062239,7.58,4.9,4.47,7.58,1029,71,4.25,139,87,0.0,Clouds,overcast clouds,7
Porva-Csesznek,47.326944,17.841111,2026-03-09 07:15:48.232346,6.59,3.96,6.59,6.59,1029,72,3.73,139,80,0.0,Clouds,broken clouds,7
Zirc,47.266667,17.878056,2026-03-09 07:15:49.402497,2.62,-0.34,2.62,2.62,1029,73,2.98,136,70,0.0,Clouds,broken clouds,7
Eplény,47.192778,17.921667,2026-03-09 07:15:50.578369,3.07,0.65,3.07,3.07,1029,73,2.46,124,58,0.0,Clouds,broken clouds,7
Marcaltő,47.4275,17.348889,2026-03-09 07:15:51.750096,8.17,7.52,8.17,8.17,1028,61,1.54,170,0,0.0,Clear,clear sky,7
Szany-Rábaszentandrás,47.460833,17.315278,2026-03-09 07:15:52.925602,8.17,7.52,8.17,8.17,1028,61,1.54,170,0,0.0,Clear,clear sky,7
Egyed-Rábacsanak,47.521944,17.316389,2026-03-09 07:15:54.099857,8.18,7.39,8.18,8.18,1028,71,1.67,170,53,0.0,Clouds,broken clouds,7
Rábapordány,47.557222,17.315,2026-03-09 07:15:55.273426,8.18,7.48,8.18,8.18,1028,71,1.58,168,56,0.0,Clouds,broken clouds,7
Albertfalva,47.440784,19.033965,2026-03-09 07:15:56.446901,8.86,6.81,7.81,9.34,1030,58,3.58,153,0,0.0,Clear,clear sky,7
Budafok,47.425833,19.041389,2026-03-09 07:15:57.617319,8.9,6.86,7.82,9.35,1030,58,3.58,153,0,0.0,Clear,clear sky,7
Tétényliget,47.384722,18.955278,2026-03-09 07:15:58.795608,8.91,8.91,7.84,9.37,1030,58,0.89,140,8,0.0,Clear,clear sky,7
Érd alsó,47.379722,18.923056,2026-03-09 07:15:59.964799,8.43,8.05,7.14,9.21,1030,58,1.34,136,11,0.0,Clouds,few clouds,7
Tárnok,47.365556,18.873889,2026-03-09 07:16:01.135439,8.78,7.05,7.77,9.3,1030,58,3.0,138,17,0.0,Clouds,few clouds,7
Martonvásár,47.321389,18.781667,2026-03-09 07:16:02.310771,8.76,6.9,7.72,9.23,1030,67,3.21,137,26,0.0,Clouds,scattered clouds,7
Baracska,47.297222,18.753333,2026-03-09 07:16:03.493486,8.87,6.96,7.82,9.33,1030,67,3.34,138,33,0.0,Clouds,scattered clouds,7
Pettend,47.26,18.708889,2026-03-09 07:16:04.665481,8.68,6.62,8.68,8.68,1030,67,3.53,138,48,0.0,Clouds,scattered clouds,7
Kápolnásnyék,47.245556,18.692222,2026-03-09 07:16:05.834169,8.71,6.56,8.71,8.71,1030,67,3.71,140,60,0.0,Clouds,broken clouds,7
Velence,47.226944,18.663889,2026-03-09 07:16:07.005470,8.73,6.57,8.73,8.73,1030,67,3.75,139,68,0.0,Clouds,broken clouds,7
Velencefürdő,47.218611,18.648056,2026-03-09 07:16:08.176809,4.83,1.71,4.83,4.83,1030,66,3.9,141,71,0.0,Clouds,broken clouds,7
Gárdony,47.205833,18.624722,2026-03-09 07:16:09.346603,4.85,1.72,4.85,4.85,1030,66,3.92,140,79,0.0,Clouds,broken clouds,7
Agárd,47.197666,18.604907,2026-03-09 07:16:10.523733,4.85,1.72,4.85,4.85,1030,66,3.92,140,79,0.0,Clouds,broken clouds,7
Dinnyés,47.179722,18.560833,2026-03-09 07:16:11.698526,4.85,1.66,4.85,4.85,1030,67,4.02,141,94,0.0,Clouds,overcast clouds,7
Székesfehérvár,47.183611,18.424722,2026-03-09 07:16:12.867576,4.79,1.92,4.79,4.79,1030,68,3.48,135,100,0.0,Clouds,overcast clouds,7
Szabadbattyán,47.105278,18.388333,2026-03-09 07:16:14.038345,4.74,1.74,4.74,4.74,1029,68,3.67,140,99,0.0,Clouds,overcast clouds,7
Kiscséripuszta,47.048056,18.355,2026-03-09 07:16:15.211447,4.53,1.4,4.53,4.53,1029,68,3.81,141,98,0.0,Clouds,overcast clouds,7
Lepsény,46.9875,18.248056,2026-03-09 07:16:16.379780,6.57,3.86,6.57,6.57,1029,68,3.87,140,94,0.0,Clouds,overcast clouds,7
Balatonaliga,46.984444,18.171389,2026-03-09 07:16:17.551484,6.38,3.87,6.38,6.38,1029,69,3.45,133,78,0.0,Clouds,broken clouds,7
Balatonvilágos,46.964167,18.157222,2026-03-09 07:16:18.723418,6.42,3.88,6.42,6.42,1029,70,3.51,132,70,0.0,Clouds,broken clouds,7
Szabadifürdő,46.926111,18.103333,2026-03-09 07:16:19.893560,6.59,3.94,6.59,6.59,1029,56,3.77,133,60,0.0,Clouds,broken clouds,7
Ózd alsó,48.227778,20.306111,2026-03-09 07:16:21.064293,10.2,9.05,9.83,10.2,1031,68,0.32,125,0,0.0,Clear,clear sky,7
Ózd,48.2225,20.294722,2026-03-09 07:16:22.235052,10.25,9.11,9.88,10.25,1031,68,0.32,125,0,0.0,Clear,clear sky,7
Alsóboldva,48.212778,20.792222,2026-03-09 07:16:23.405916,8.42,8.42,8.38,10.21,1031,66,0.55,99,3,0.0,Clear,clear sky,7
Boldva,48.223333,20.790278,2026-03-09 07:16:24.575372,8.41,8.41,8.37,10.2,1031,47,0.55,99,3,0.0,Clear,clear sky,7
Borsodszirák,48.259167,20.770556,2026-03-09 07:16:25.744744,8.37,8.37,8.32,10.16,1031,47,0.62,96,2,0.0,Clear,clear sky,7
Edelény alsó,48.279167,20.760833,2026-03-09 07:16:26.916070,8.3,8.3,8.3,8.5,1031,67,0.62,96,2,0.0,Clear,clear sky,7
Edelény,48.299722,20.749444,2026-03-09 07:16:28.085378,8.28,8.28,8.28,8.48,1031,67,0.69,92,2,0.0,Clear,clear sky,7
Szendrőlád,48.334444,20.731944,2026-03-09 07:16:29.256443,8.19,8.19,8.19,8.19,1031,67,0.89,86,1,0.0,Clear,clear sky,7
Szendrő,48.400725,20.721346,2026-03-09 07:16:30.435730,5.6,5.6,5.6,5.6,1031,67,1.08,82,1,0.0,Clear,clear sky,7
Szendrő felső,48.409907,20.720148,2026-03-09 07:16:31.610994,5.6,5.6,5.6,5.6,1031,67,1.08,82,1,0.0,Clear,clear sky,7
Szalonna,48.449444,20.722222,2026-03-09 07:16:32.784366,5.54,5.54,5.54,5.54,1031,67,1.21,80,0,0.0,Clear,clear sky,7
Perkupa,48.471389,20.691111,2026-03-09 07:16:33.954260,4.79,4.79,4.79,4.79,1031,66,1.21,85,0,0.0,Clear,clear sky,7
Szemeretelep,47.443056,19.214167,2026-03-09 07:16:35.124981,8.28,8.28,7.62,9.16,1030,58,1.03,0,0,0.0,Clear,clear sky,7
Jósvafő-Aggtelek,48.489722,20.693889,2026-03-09 07:16:36.295335,5.06,5.06,5.06,5.06,1031,66,1.19,87,0,0.0,Clear,clear sky,7
Bódvaszilas,48.5375,20.738056,2026-03-09 07:16:37.468074,4.62,4.62,4.62,4.62,1031,66,1.21,85,0,0.0,Clear,clear sky,7
Komjáti,48.5475,20.759722,2026-03-09 07:16:38.639376,4.13,4.13,4.13,4.13,1031,66,1.18,87,0,0.0,Clear,clear sky,7
Tornanádaska,48.558333,20.787222,2026-03-09 07:16:39.819635,5.29,5.29,5.29,5.29,1031,67,1.21,84,1,0.0,Clear,clear sky,7
Onga,48.121111,20.906667,2026-03-09 07:16:40.992643,8.43,8.43,8.43,8.62,1031,47,0.96,88,4,0.0,Clear,clear sky,7
Szikszó-Vásártér,48.193056,20.934722,2026-03-09 07:16:42.161771,8.39,8.39,8.39,8.59,1031,47,0.62,102,4,0.0,Clear,clear sky,7
Szikszó,48.201667,20.941667,2026-03-09 07:16:43.332895,8.41,8.41,8.41,8.6,1031,47,0.66,102,4,0.0,Clear,clear sky,7
Aszaló,48.219867,20.961466,2026-03-09 07:16:44.504704,8.39,8.39,8.39,8.58,1031,47,0.57,105,5,0.0,Clear,clear sky,7
Halmaj,48.246667,20.991667,2026-03-09 07:16:45.677159,8.37,8.37,8.37,8.37,1031,68,0.51,106,5,0.0,Clear,clear sky,7
Csobád,48.277222,21.033889,2026-03-09 07:16:46.848339,8.34,8.34,8.34,8.34,1031,67,0.48,102,6,0.0,Clear,clear sky,7
Ináncs,48.291111,21.057778,2026-03-09 07:16:48.024596,8.34,8.34,8.34,8.34,1031,67,0.57,97,6,0.0,Clear,clear sky,7
Forró-Encs,48.3275,21.117778,2026-03-09 07:16:49.204741,5.75,5.75,5.75,5.75,1031,68,0.67,92,6,0.0,Clear,clear sky,7
Méra,48.363056,21.140278,2026-03-09 07:16:50.384929,5.43,5.43,5.43,5.43,1031,68,0.85,81,6,0.0,Clear,clear sky,7
Novajidrány,48.404444,21.170556,2026-03-09 07:16:51.556144,8.33,8.33,7.5,8.33,1031,68,0.99,79,6,0.0,Clear,clear sky,7
Hernádszurdok,48.487222,21.213889,2026-03-09 07:16:52.731897,7.99,5.74,6.36,8.25,1031,48,3.6,360,0,0.0,Clear,clear sky,7
Hidasnémeti,48.508333,21.229722,2026-03-09 07:16:53.902869,7.99,5.74,6.36,8.26,1031,48,3.6,360,0,0.0,Clear,clear sky,7
Mád,48.19,21.268889,2026-03-09 07:16:55.074791,5.6,4.61,5.6,5.6,1031,69,1.52,76,5,0.0,Clear,clear sky,7
Rátka,48.215,21.230278,2026-03-09 07:16:56.249021,5.96,5.96,5.96,5.96,1031,68,1.32,84,5,0.0,Clear,clear sky,7
Tállya,48.226944,21.225278,2026-03-09 07:16:57.417425,5.96,5.96,5.96,5.96,1031,68,1.32,84,5,0.0,Clear,clear sky,7
Golop,48.242778,21.204167,2026-03-09 07:16:58.592328,5.98,5.98,5.98,5.98,1031,68,1.01,95,6,0.0,Clear,clear sky,7
Abaújszántó,48.286944,21.181667,2026-03-09 07:16:59.771815,5.61,5.61,5.61,5.61,1031,68,0.87,94,6,0.0,Clear,clear sky,7
Abaújszántói fürdő,48.268333,21.179722,2026-03-09 07:17:00.947449,5.91,5.91,5.91,5.91,1031,68,0.92,96,6,0.0,Clear,clear sky,7
Abaújkér,48.309444,21.198333,2026-03-09 07:17:02.117034,5.57,5.57,5.57,5.57,1031,68,0.86,91,6,0.0,Clear,clear sky,7
Boldogkőváralja,48.345,21.208889,2026-03-09 07:17:03.285499,5.48,5.48,5.48,5.48,1031,68,1.03,84,6,0.0,Clear,clear sky,7
Korlát-Vizsoly,48.365,21.219167,2026-03-09 07:17:04.454704,5.55,5.55,5.55,5.55,1031,68,1.06,82,6,0.0,Clear,clear sky,7
Fony,48.411389,21.242778,2026-03-09 07:17:05.624004,7.97,7.97,5.83,8.13,1031,69,1.14,78,6,0.0,Clear,clear sky,7
Hejce-Vilmány,48.419444,21.245556,2026-03-09 07:17:06.793552,7.88,7.88,5.79,8.1,1031,69,1.14,78,6,0.0,Clear,clear sky,7
Göncruszka,48.445,21.246944,2026-03-09 07:17:07.969586,7.75,7.75,5.88,8.19,1031,69,1.18,76,6,0.0,Clear,clear sky,7
Gönc,48.470556,21.261389,2026-03-09 07:17:09.144994,7.49,7.49,5.79,8.09,1031,69,1.22,76,5,0.0,Clear,clear sky,7
Zsujta,48.4925,21.265,2026-03-09 07:17:10.323294,7.41,5.04,5.81,8.11,1031,48,3.6,360,0,0.0,Clear,clear sky,7
Bodrogkeresztúr,48.175556,21.354167,2026-03-09 07:17:11.496349,5.21,3.81,5.21,5.21,1031,69,1.81,65,5,0.0,Clear,clear sky,7
Szegi,48.201944,21.387778,2026-03-09 07:17:12.674935,6.32,5.05,6.32,6.32,1031,69,1.86,59,5,0.0,Clear,clear sky,7
Erdőbénye,48.218056,21.401944,2026-03-09 07:17:13.845421,6.29,5.03,6.29,6.29,1031,69,1.84,58,4,0.0,Clear,clear sky,7
Olaszliszka-Tolcsva,48.258333,21.448056,2026-03-09 07:17:15.019345,6.32,5.16,6.32,6.32,1031,70,1.75,59,4,0.0,Clear,clear sky,7
Bodrogolaszi,48.286944,21.512778,2026-03-09 07:17:16.199335,6.26,5.09,6.26,6.26,1031,96,1.75,59,4,0.0,Clear,clear sky,7
Sárospatak,48.325833,21.566111,2026-03-09 07:17:17.374825,6.21,4.92,6.21,6.21,1031,96,1.86,63,4,0.0,Clear,clear sky,7
Sátoraljaújhely,48.385833,21.657778,2026-03-09 07:17:18.549648,6.29,5.17,6.29,6.29,1031,96,1.71,79,3,0.0,Clear,clear sky,7
Vecsés,47.40855,19.25652,2026-03-09 07:17:19.720229,8.22,8.22,7.66,9.2,1030,57,1.03,0,0,0.0,Clear,clear sky,7
Vecsés-Kertekalja,47.403333,19.271389,2026-03-09 07:17:20.897578,8.26,8.26,7.7,9.23,1030,57,1.03,0,0,0.0,Clear,clear sky,7
Üllő,47.390833,19.348889,2026-03-09 07:17:22.067789,8.2,8.2,7.66,9.19,1030,57,1.03,0,0,0.0,Clear,clear sky,7
Monor,47.34545,19.43701,2026-03-09 07:17:23.238219,8.07,8.07,8.07,8.07,1030,57,1.03,0,0,0.0,Clear,clear sky,7
Pilis,47.279722,19.536389,2026-03-09 07:17:24.410183,8.03,6.18,8.03,8.03,1030,70,2.95,160,5,0.0,Clear,clear sky,7
Albertirsa,47.240278,19.606389,2026-03-09 07:17:25.583023,4.85,2.36,4.85,4.85,1030,71,2.96,162,3,0.0,Clear,clear sky,7
Ceglédbercel-Cserő,47.210278,19.686944,2026-03-09 07:17:26.751115,4.96,2.53,4.96,4.96,1030,71,2.9,165,2,0.0,Clear,clear sky,7
Cegléd,47.182778,19.806111,2026-03-09 07:17:27.926028,7.68,5.96,5.07,7.68,1030,71,2.66,167,0,0.0,Clear,clear sky,7
Abony,47.173056,20.016389,2026-03-09 07:17:29.102053,7.74,7.74,3.97,7.74,1030,69,1.03,0,0,0.0,Clear,clear sky,7
Szolnok,47.179167,20.175833,2026-03-09 07:17:30.273642,3.99,3.99,3.99,7.76,1030,75,1.03,0,0,0.0,Clear,clear sky,7
Szajol,47.170556,20.295278,2026-03-09 07:17:31.448417,4.01,4.01,4.01,7.77,1030,75,1.03,0,0,0.0,Clear,clear sky,7
Törökszentmiklós,47.170278,20.413611,2026-03-09 07:17:32.617481,4.0,4.0,4.0,7.77,1031,75,1.03,0,0,0.0,Clear,clear sky,7
Rákoscsaba-Újtelep,47.4875,19.271944,2026-03-09 07:17:33.794025,8.17,8.17,7.56,9.09,1030,58,1.03,0,0,0.0,Clear,clear sky,7
Rákoscsaba,47.492222,19.284722,2026-03-09 07:17:34.965180,8.05,8.05,7.55,9.08,1030,58,1.03,0,0,0.0,Clear,clear sky,7
Pécel,47.493889,19.338889,2026-03-09 07:17:36.133056,7.92,7.92,7.43,8.96,1030,57,1.03,0,0,0.0,Clear,clear sky,7
Isaszeg,47.537719,19.388955,2026-03-09 07:17:37.311346,7.8,7.8,7.34,8.42,1030,57,1.03,0,0,0.0,Clear,clear sky,7
Gödöllő,47.592222,19.358611,2026-03-09 07:17:38.484395,7.49,7.49,7.12,8.2,1030,57,1.03,0,0,0.0,Clear,clear sky,7
Máriabesnyő,47.595556,19.389722,2026-03-09 07:17:39.658449,7.65,6.74,7.26,8.34,1030,70,1.71,153,1,0.0,Clear,clear sky,7
Bag,47.641111,19.471667,2026-03-09 07:17:40.828158,8.08,8.08,8.08,8.08,1030,72,1.31,134,0,0.0,Clear,clear sky,7
Aszód,47.647467,19.492882,2026-03-09 07:17:42.010828,8.16,8.16,8.16,8.16,1030,72,1.25,131,0,0.0,Clear,clear sky,7
Hévízgyörk,47.638611,19.526667,2026-03-09 07:17:43.178240,4.83,4.83,4.83,4.83,1030,72,1.2,128,0,0.0,Clear,clear sky,7
Galgahévíz,47.6325,19.558333,2026-03-09 07:17:44.351052,5.05,5.05,5.05,5.05,1031,72,1.1,129,0,0.0,Clear,clear sky,7
Tura,47.626389,19.5975,2026-03-09 07:17:45.523931,5.0,5.0,5.0,5.0,1031,72,1.05,124,0,0.0,Clear,clear sky,7
Hatvan,47.663611,19.671389,2026-03-09 07:17:46.699791,5.17,5.17,5.17,5.17,1031,72,0.99,95,0,0.0,Clear,clear sky,7
Vámosgyörk,47.686111,19.927778,2026-03-09 07:17:47.878172,5.39,5.39,5.39,5.39,1031,71,0.73,38,2,0.0,Clear,clear sky,7
Adács,47.696389,19.975278,2026-03-09 07:17:49.047846,5.53,5.53,5.53,5.53,1031,71,0.81,22,3,0.0,Clear,clear sky,7
Karácsond,47.718056,20.048611,2026-03-09 07:17:50.217658,5.48,5.48,5.48,5.48,1031,71,0.82,16,4,0.0,Clear,clear sky,7
Ludas,47.723889,20.095556,2026-03-09 07:17:51.390466,5.75,5.75,5.75,5.75,1031,71,0.82,11,5,0.0,Clear,clear sky,7
Nagyút,47.72666666666667,20.161388888888887,2026-03-09 07:17:52.573524,5.75,5.75,5.75,5.75,1031,71,0.8,12,6,0.0,Clear,clear sky,7
Kál-Kápolna,47.734167,20.254167,2026-03-09 07:17:53.743756,5.87,5.87,5.87,5.87,1031,71,0.71,18,8,0.0,Clear,clear sky,7
Füzesabony,47.751389,20.415278,2026-03-09 07:17:54.914022,6.05,6.05,6.05,6.05,1031,71,0.63,29,13,0.0,Clouds,few clouds,7
Szihalom,47.766944,20.491944,2026-03-09 07:17:56.082884,5.17,5.17,5.17,5.17,1031,71,0.61,31,13,0.0,Clouds,few clouds,7
Mezőkövesd,47.797222,20.5675,2026-03-09 07:17:57.251667,5.18,5.18,5.18,5.18,1031,71,0.69,24,13,0.0,Clouds,few clouds,7
Mezőkövesd felső,47.807222,20.591389,2026-03-09 07:17:58.433652,8.61,8.61,8.61,10.25,1031,71,0.69,24,13,0.0,Clouds,few clouds,7
Mezőkeresztes-Mezőnyárád,47.845556,20.670278,2026-03-09 07:17:59.613091,8.69,8.69,8.41,10.25,1031,72,0.85,18,10,0.0,Clear,clear sky,7
Csincse,47.890833,20.764167,2026-03-09 07:18:00.787625,8.57,8.57,8.43,10.27,1031,73,1.08,23,10,0.0,Clear,clear sky,7
Emőd,47.930556,20.822778,2026-03-09 07:18:01.961539,8.55,8.55,8.45,10.29,1031,73,1.05,35,8,0.0,Clear,clear sky,7
Nyékládháza,47.9925,20.840556,2026-03-09 07:18:03.136923,8.55,8.55,8.48,10.32,1031,70,1.04,51,7,0.0,Clear,clear sky,7
Miskolc-Tiszai,48.098611,20.811389,2026-03-09 07:18:04.310112,8.44,8.44,8.4,10.24,1031,65,0.68,70,4,0.0,Clear,clear sky,7
Felsőzsolca,48.083611,20.866111,2026-03-09 07:18:05.478854,8.47,8.47,8.43,10.26,1031,65,0.87,77,5,0.0,Clear,clear sky,7
Hernádnémeti-Bőcs,48.051389,20.985,2026-03-09 07:18:06.665043,8.43,8.01,8.43,8.62,1031,46,1.37,82,5,0.0,Clear,clear sky,7
Tiszalúc,48.039722,21.0575,2026-03-09 07:18:07.847255,8.47,7.67,8.47,8.67,1031,71,1.72,77,5,0.0,Clear,clear sky,7
Taktaharkány,48.091667,21.128611,2026-03-09 07:18:09.022037,8.52,7.8,8.52,8.52,1031,70,1.65,81,5,0.0,Clear,clear sky,7
Taktaszada,48.1125,21.149444,2026-03-09 07:18:10.194429,8.53,7.84,8.53,8.53,1031,69,1.62,82,5,0.0,Clear,clear sky,7
Szerencs,48.155556,21.214444,2026-03-09 07:18:11.367577,6.13,5.14,6.13,6.13,1031,69,1.58,78,5,0.0,Clear,clear sky,7
Mezőzombor,48.156944,21.267778,2026-03-09 07:18:12.539102,6.02,4.92,6.02,6.02,1031,69,1.66,74,5,0.0,Clear,clear sky,7
Tarcal,48.125,21.34,2026-03-09 07:18:13.711150,6.1,4.65,6.1,6.1,1031,69,2.0,61,6,0.0,Clear,clear sky,7
Tokaj,48.112778,21.406667,2026-03-09 07:18:14.881321,5.51,3.88,5.51,5.51,1031,69,2.08,53,5,0.0,Clear,clear sky,7
Rakamaz,48.12,21.475,2026-03-09 07:18:16.053872,6.01,4.49,6.01,6.01,1031,69,2.06,52,5,0.0,Clear,clear sky,7
Görögszállás,48.04,21.555,2026-03-09 07:18:17.229622,5.95,4.92,5.95,5.95,1031,69,1.59,51,5,0.0,Clear,clear sky,7
Nyírtelek,48.005,21.615556,2026-03-09 07:18:18.400365,5.88,5.88,5.88,5.88,1031,68,0.96,78,4,0.0,Clear,clear sky,7
Rákoshegy,47.468611,19.245556,2026-03-09 07:18:19.569554,8.15,8.15,7.51,9.04,1030,58,1.03,0,0,0.0,Clear,clear sky,7
Ecser,47.439444,19.318056,2026-03-09 07:18:20.733455,7.93,7.93,7.42,8.95,1030,57,1.03,0,0,0.0,Clear,clear sky,7
Maglód,47.438889,19.340833,2026-03-09 07:18:21.908955,8.01,8.01,7.49,9.03,1030,57,1.03,0,0,0.0,Clear,clear sky,7
Maglódi nyaraló,47.434167,19.363611,2026-03-09 07:18:23.084023,7.92,7.92,7.86,8.93,1030,57,1.03,0,0,0.0,Clear,clear sky,7
Gyömrő,47.429722,19.393333,2026-03-09 07:18:24.262980,7.83,7.83,7.82,8.89,1030,57,1.03,0,0,0.0,Clear,clear sky,7
Mende,47.426944,19.439722,2026-03-09 07:18:25.522605,7.79,7.79,7.79,8.4,1030,57,1.03,0,0,0.0,Clear,clear sky,7
Szőlősnyaraló,47.450278,19.561111,2026-03-09 07:18:26.696451,8.02,7.01,8.02,8.02,1030,72,1.87,162,1,0.0,Clear,clear sky,7
Sülysáp,47.451944,19.5275,2026-03-09 07:18:27.858314,7.96,6.75,7.96,7.96,1030,71,2.08,164,1,0.0,Clear,clear sky,7
Tápiószecső,47.443056,19.614722,2026-03-09 07:18:29.026693,8.1,7.22,8.1,8.1,1030,72,1.75,161,0,0.0,Clear,clear sky,7
Szentmártonkáta,47.431944,19.680556,2026-03-09 07:18:30.201885,4.9,3.81,4.9,4.9,1031,72,1.52,157,0,0.0,Clear,clear sky,7
Nagykáta,47.409722,19.737778,2026-03-09 07:18:31.373585,4.94,3.79,4.94,4.94,1031,73,1.57,156,0,0.0,Clear,clear sky,7
Farmos,47.355278,19.8375,2026-03-09 07:18:32.546150,4.99,3.85,4.99,4.99,1031,73,1.57,154,0,0.0,Clear,clear sky,7
Tápiószele,47.346313,19.873504,2026-03-09 07:18:33.719176,4.95,3.73,4.95,4.95,1031,73,1.63,156,0,0.0,Clear,clear sky,7
Tápiógyörgye,47.325,19.95,2026-03-09 07:18:34.888004,7.73,7.14,7.73,7.73,1031,72,1.43,155,0,0.0,Clear,clear sky,7
Újszász,47.285833,20.066944,2026-03-09 07:18:36.063636,7.77,7.22,4.01,7.77,1031,72,1.4,157,1,0.0,Clear,clear sky,7
Szurdokpüspöki,47.851944,19.690278,2026-03-09 07:18:37.232354,5.16,5.16,5.16,5.16,1031,72,0.9,97,0,0.0,Clear,clear sky,7
Lőrinci,47.739444,19.673611,2026-03-09 07:18:38.405558,5.14,5.14,5.14,5.14,1031,72,1.07,87,0,0.0,Clear,clear sky,7
Selyp,47.759167,19.670833,2026-03-09 07:18:39.575948,5.15,5.15,5.15,5.15,1031,72,1.08,87,0,0.0,Clear,clear sky,7
Apc-Zagyvaszántó,47.791328,19.66822,2026-03-09 07:18:40.748687,5.18,5.18,5.18,5.18,1031,72,1.06,87,0,0.0,Clear,clear sky,7
Pásztó,47.918889,19.688889,2026-03-09 07:18:41.923584,5.05,5.05,5.05,5.05,1031,72,0.77,109,0,0.0,Clear,clear sky,7
Mátraszőlős-Hasznos,47.938506,19.706122,2026-03-09 07:18:43.101700,5.11,5.11,5.11,5.11,1031,72,0.67,120,0,0.0,Clear,clear sky,7
Tar,47.956111,19.746389,2026-03-09 07:18:44.270979,4.74,4.74,4.74,4.74,1031,72,0.63,141,0,0.0,Clear,clear sky,7
Mátraverebély,47.968333,19.778611,2026-03-09 07:18:45.489471,4.36,4.36,4.36,4.36,1031,72,0.66,149,0,0.0,Clear,clear sky,7
Nagybátony,47.981111,19.82,2026-03-09 07:18:46.659272,4.96,4.96,4.96,4.96,1031,72,0.68,155,0,0.0,Clear,clear sky,7
Kisterenye,48.009444,19.831944,2026-03-09 07:18:47.832306,5.1,5.1,5.1,5.1,1031,72,0.77,163,0,0.0,Clear,clear sky,7
Kisterenye-Bányatelep,48.021389,19.831944,2026-03-09 07:18:49.006235,5.1,5.1,5.1,5.1,1031,72,0.77,163,0,0.0,Clear,clear sky,7
Salgótarján külső,48.089444,19.790833,2026-03-09 07:18:50.175246,4.51,4.51,4.51,4.51,1031,71,0.68,152,0,0.0,Clear,clear sky,7
Balatonfenyves GV,46.7125,17.479167,2026-03-09 07:18:51.347942,7.08,5.02,7.08,7.08,1028,72,2.97,92,50,0.0,Clouds,scattered clouds,7
Várhegyalja,47.737778,18.366667,2026-03-09 07:18:52.519067,4.88,2.08,4.88,4.88,1029,69,3.4,129,82,0.0,Clouds,broken clouds,7
Imremajor,46.680556,17.499722,2026-03-09 07:18:53.690795,7.11,5.1,7.11,7.11,1028,72,2.91,94,52,0.0,Clouds,broken clouds,7
Rákospalota-Kertváros,47.578333,19.122778,2026-03-09 07:18:54.865477,8.54,8.54,8.22,9.29,1030,58,1.03,0,0,0.0,Clear,clear sky,7
Vicziántelep,47.675833,19.286111,2026-03-09 07:18:56.038090,7.79,7.12,7.69,8.3,1030,71,1.51,133,0,0.0,Clear,clear sky,7
Pálmajor,46.662831,17.457526,2026-03-09 07:18:57.213729,7.1,5.17,7.1,7.1,1028,72,2.79,95,49,0.0,Clouds,scattered clouds,7
Somogyszentpál felső,46.649758,17.471404,2026-03-09 07:18:58.401562,7.07,5.09,7.07,7.07,1028,72,2.86,96,54,0.0,Clouds,broken clouds,7
Somogyszentpál,46.638611,17.478611,2026-03-09 07:18:59.572672,7.06,5.11,7.06,7.06,1028,72,2.81,99,57,0.0,Clouds,broken clouds,7
Rudnaykert,47.7175,19.257778,2026-03-09 07:19:00.736084,7.57,6.88,7.57,7.57,1030,72,1.5,121,0,0.0,Clear,clear sky,7
Maroshegy,47.158333,18.406667,2026-03-09 07:19:01.912815,4.77,1.84,4.77,4.77,1030,68,3.57,137,100,0.0,Clouds,overcast clouds,7
Bánhida,47.573703,18.371737,2026-03-09 07:19:03.085716,4.53,1.57,4.53,4.53,1029,68,3.53,134,83,0.0,Clouds,broken clouds,7
Magyarkút,47.850278,19.045,2026-03-09 07:19:04.271650,4.22,2.36,4.22,4.22,1030,73,2.1,114,6,0.0,Clear,clear sky,7
Becske alsó,47.897222,19.364722,2026-03-09 07:19:05.450589,3.98,2.85,3.98,3.98,1030,73,1.45,110,0,0.0,Clear,clear sky,7
Hosszúberek-Péteri,47.370556,19.389722,2026-03-09 07:19:06.620361,8.1,8.1,8.1,9.17,1030,57,1.03,0,0,0.0,Clear,clear sky,7
Monorierdő,47.308889,19.499167,2026-03-09 07:19:07.788330,8.01,6.21,8.01,8.01,1030,70,2.87,159,5,0.0,Clear,clear sky,7
Ceglédbercel,47.215833,19.658611,2026-03-09 07:19:08.959640,4.9,2.38,4.9,4.9,1030,71,3.01,164,3,0.0,Clear,clear sky,7
Budai út,47.208333,19.731389,2026-03-09 07:19:10.128372,4.87,2.51,4.87,4.87,1030,71,2.79,165,1,0.0,Clear,clear sky,7
Büdöskútpuszta,48.373056,20.726111,2026-03-09 07:19:11.305252,5.8,5.8,5.8,5.8,1031,67,0.99,83,1,0.0,Clear,clear sky,7
Bánrévei Vízmű,48.282778,20.368333,2026-03-09 07:19:12.483255,10.39,9.23,10.02,10.39,1031,67,0.47,77,0,0.0,Clear,clear sky,7
Rákoskert,47.456389,19.296111,2026-03-09 07:19:13.665355,7.95,7.95,7.89,8.95,1030,57,1.03,0,0,0.0,Clear,clear sky,7
Szirmabesenyő,48.146944,20.783056,2026-03-09 07:19:14.837426,8.38,8.38,8.33,10.17,1031,66,0.51,82,3,0.0,Clear,clear sky,7
Kitérőgyár,47.766944,19.935278,2026-03-09 07:19:16.007443,5.24,5.24,5.24,5.24,1031,71,0.69,31,2,0.0,Clear,clear sky,7
Tápiószentmárton,47.373333,19.797778,2026-03-09 07:19:17.182718,4.89,3.64,4.89,4.89,1031,73,1.64,155,0,0.0,Clear,clear sky,7
Zagyvarékas,47.244229,20.097435,2026-03-09 07:19:18.356119,7.78,7.78,4.01,7.78,1031,69,1.03,0,0,0.0,Clear,clear sky,7
Abonyi út,47.206401,20.125204,2026-03-09 07:19:19.526137,7.78,7.78,4.01,7.78,1031,69,1.03,0,0,0.0,Clear,clear sky,7
Jászkisér felső,47.438056,20.202222,2026-03-09 07:19:20.697701,7.22,7.22,7.22,7.22,1031,71,0.49,178,5,0.0,Clear,clear sky,7
Szellőhát,47.425556,20.188889,2026-03-09 07:19:21.868083,5.54,5.54,5.54,5.54,1031,71,0.61,172,5,0.0,Clear,clear sky,7
Szilvásvárad-Szalajkavölgy,48.0956,20.38272,2026-03-09 07:19:23.038527,8.62,8.62,6.94,8.96,1030,48,0.58,187,3,0.0,Clear,clear sky,7
Vásárosnamény külső,48.084444,22.255556,2026-03-09 07:19:24.208877,5.36,2.21,5.36,5.36,1031,64,4.16,135,0,0.0,Clear,clear sky,7
Újváros,46.660556,20.536111,2026-03-09 07:19:25.390105,8.88,6.97,8.88,8.88,1030,47,3.34,172,7,0.0,Clear,clear sky,7
Városi park,46.697778,19.864722,2026-03-09 07:19:26.563685,6.1,2.63,5.1,6.1,1030,77,5.18,169,6,0.0,Clear,clear sky,7
Belsőkamaráspuszta,46.341944,20.848889,2026-03-09 07:19:27.735313,8.36,6.9,8.36,8.36,1030,77,2.48,144,4,0.0,Clear,clear sky,7
Sajószöged,47.945278,20.981667,2026-03-09 07:19:28.911021,8.52,8.14,8.52,8.72,1031,71,1.35,59,7,0.0,Clear,clear sky,7
Kazincbarcika alsó,48.255278,20.649167,2026-03-09 07:19:30.079994,8.48,8.48,8.29,10.5,1031,68,0.55,86,1,0.0,Clear,clear sky,7
Nyárjas,46.857778,19.923611,2026-03-09 07:19:31.256011,5.05,3.95,5.05,6.06,1030,70,1.54,90,0,0.0,Clear,clear sky,7
Pogonyipuszta,48.296389,20.381667,2026-03-09 07:19:32.436450,10.36,9.2,9.98,10.36,1031,67,0.47,77,0,0.0,Clear,clear sky,7
Sióvölgy,46.911103,18.076964,2026-03-09 07:19:33.607558,6.64,4.14,6.64,6.64,1029,56,3.52,127,44,0.0,Clouds,scattered clouds,7
Répáspuszta,46.430278,17.847222,2026-03-09 07:19:34.781837,4.04,0.93,4.04,4.04,1029,73,3.6,117,93,0.0,Clouds,overcast clouds,7
Virányos,48.066667,21.527222,2026-03-09 07:19:35.961486,5.95,4.75,5.95,5.95,1031,69,1.74,51,5,0.0,Clear,clear sky,7
Füzesbokor,47.988611,21.6475,2026-03-09 07:19:37.140160,5.87,5.87,5.87,5.87,1031,68,0.81,108,4,0.0,Clear,clear sky,7
Kunfehértó,46.355833,19.417222,2026-03-09 07:19:38.310067,5.31,0.97,5.31,5.31,1030,65,6.83,150,23,0.0,Clouds,few clouds,7
Erdőszél,46.329444,19.395,2026-03-09 07:19:39.481251,5.19,0.77,5.19,5.19,1030,65,6.96,148,35,0.0,Clouds,scattered clouds,7
Jánoshalma,46.293056,19.330278,2026-03-09 07:19:40.661758,5.31,0.9,5.31,5.31,1030,65,7.02,146,50,0.0,Clouds,scattered clouds,7
Mélykút,46.213056,19.370556,2026-03-09 07:19:41.835616,5.37,0.98,5.37,5.37,1030,65,7.03,144,50,0.0,Clouds,scattered clouds,7
Bácsalmás,46.118056,19.346389,2026-03-09 07:19:43.008363,5.39,0.97,5.39,5.39,1030,64,7.13,141,60,0.0,Clouds,broken clouds,7
Almás,46.116216,19.328803,2026-03-09 07:19:44.178506,5.39,0.97,5.39,5.39,1030,64,7.13,141,60,0.0,Clouds,broken clouds,7
Bácsbokod-Bácsborsód,46.115833,19.16,2026-03-09 07:19:45.349749,5.24,0.79,5.24,5.24,1029,65,7.09,139,97,0.0,Clouds,overcast clouds,7
Baja,46.187014,18.957602,2026-03-09 07:19:46.519736,5.28,1.01,5.28,5.28,1029,65,6.63,140,100,0.0,Clouds,overcast clouds,7
Harkakötöny,46.458333,19.601944,2026-03-09 07:19:47.702802,5.42,1.35,5.42,5.42,1030,67,6.21,157,16,0.0,Clouds,few clouds,7
Tajó,46.473056,19.650556,2026-03-09 07:19:48.875357,5.46,1.43,5.46,5.46,1030,67,6.13,157,15,0.0,Clouds,few clouds,7
Kiskunmajsa,46.501667,19.728056,2026-03-09 07:19:50.043138,6.05,2.24,6.05,6.05,1030,67,5.98,160,12,0.0,Clouds,few clouds,7
Jászszentlászló,46.565833,19.753611,2026-03-09 07:19:51.223358,6.07,2.34,6.07,6.07,1030,77,5.79,163,9,0.0,Clear,clear sky,7
Galambos,46.625,19.801111,2026-03-09 07:19:52.396947,6.1,2.45,6.1,9.91,1030,77,5.61,165,8,0.0,Clear,clear sky,7
Pestszentimre,47.402222,19.188611,2026-03-09 07:19:53.568556,8.55,8.55,8.18,9.25,1030,58,1.03,0,0,0.0,Clear,clear sky,7
Gyál felső,47.390278,19.204722,2026-03-09 07:19:54.743463,8.53,8.53,8.19,9.25,1030,57,1.03,0,0,0.0,Clear,clear sky,7
Gyál,47.376667,19.219444,2026-03-09 07:19:55.908721,8.4,8.4,7.73,9.27,1030,57,1.03,0,0,0.0,Clear,clear sky,7
Ócsa,47.301389,19.232222,2026-03-09 07:19:57.071146,8.49,8.49,8.22,9.29,1030,57,1.03,0,0,0.0,Clear,clear sky,7
Inárcs-Kakucs,47.247222,19.317778,2026-03-09 07:19:58.243861,8.23,6.24,8.23,8.23,1030,69,3.24,154,10,0.0,Clear,clear sky,7
Dabas,47.194722,19.328889,2026-03-09 07:19:59.416183,8.24,6.14,8.24,8.24,1030,70,3.43,156,9,0.0,Clear,clear sky,7
Gyón,47.178333,19.355556,2026-03-09 07:20:00.604830,8.21,6.03,8.21,8.21,1030,70,3.56,157,9,0.0,Clear,clear sky,7
Hernád,47.161389,19.4025,2026-03-09 07:20:01.790241,4.9,1.93,4.9,4.9,1030,70,3.67,161,6,0.0,Clear,clear sky,7
Bakonygyirót,47.416389,17.811944,2026-03-09 07:20:02.962313,4.59,1.12,4.59,7.71,1028,71,4.42,138,88,0.0,Clouds,overcast clouds,7
Vinye,47.360317,17.819635,2026-03-09 07:20:04.134055,7.03,4.36,3.91,7.03,1029,71,3.99,139,83,0.0,Clouds,broken clouds,7
Nemesgörzsöny,47.402924,17.376385,2026-03-09 07:20:05.304078,8.16,7.51,8.16,8.16,1028,61,1.54,170,0,0.0,Clear,clear sky,7
Rábahíd,47.438618,17.337525,2026-03-09 07:20:06.478799,8.15,7.49,8.15,8.15,1028,61,1.54,170,0,0.0,Clear,clear sky,7
Öskü,47.162222,18.076389,2026-03-09 07:20:07.649366,4.27,1.99,4.27,4.27,1029,72,2.55,125,78,0.0,Clouds,broken clouds,7
Márkó,47.1275,17.813889,2026-03-09 07:20:08.826701,5.42,3.41,5.42,5.42,1029,73,2.48,109,32,0.0,Clouds,scattered clouds,7
Nemeskocs,47.203333,17.188889,2026-03-09 07:20:10.003011,8.11,6.24,8.11,8.11,1028,71,3.01,157,46,0.0,Clouds,scattered clouds,7
Zalagyömörő,47.011111,17.220833,2026-03-09 07:20:11.180174,4.41,1.8,4.41,4.41,1028,73,2.99,137,18,0.0,Clouds,few clouds,7
Rigács,47.061667,17.199167,2026-03-09 07:20:12.354133,4.41,1.75,4.41,4.41,1028,72,3.06,140,22,0.0,Clouds,few clouds,7
Kemenespálfa,47.139722,17.183056,2026-03-09 07:20:13.528127,4.62,2.04,4.62,4.62,1028,72,3.01,150,33,0.0,Clouds,scattered clouds,7
Lentiszombathely,46.611389,16.5725,2026-03-09 07:20:14.702453,10.69,9.75,8.28,10.69,1027,74,2.44,118,66,0.0,Clouds,broken clouds,7
Ortaháza,46.626667,16.685833,2026-03-09 07:20:15.873429,3.9,1.62,3.9,3.9,1027,74,2.47,118,72,0.0,Clouds,broken clouds,7
Rádiháza,46.654722,16.765833,2026-03-09 07:20:17.049440,3.8,1.4,3.8,3.8,1028,75,2.59,119,71,0.0,Clouds,broken clouds,7
Baktüttös,46.690833,16.826389,2026-03-09 07:20:18.220932,6.6,4.48,6.6,6.6,1028,75,2.93,121,65,0.0,Clouds,broken clouds,7
Budafa,46.851667,16.624722,2026-03-09 07:20:19.401713,4.17,1.98,4.17,4.17,1028,76,2.43,139,69,0.0,Clouds,broken clouds,7
Zalapatakalja,46.845556,16.603889,2026-03-09 07:20:20.573896,4.18,2.18,4.18,4.18,1028,77,2.23,139,72,0.0,Clouds,broken clouds,7
Tormásliget,47.430556,16.781667,2026-03-09 07:20:21.740759,8.63,7.01,8.63,8.63,1028,72,2.78,185,26,0.0,Clouds,scattered clouds,7
Belecska,46.64,18.411389,2026-03-09 07:20:22.911591,4.9,1.02,4.9,4.9,1029,67,5.42,139,100,0.0,Clouds,overcast clouds,7
Almár,47.956111,20.356944,2026-03-09 07:20:24.086055,9.79,9.79,8.15,9.79,1030,48,0.51,178,8,0.0,Clear,clear sky,7
Vasútmúzeum,47.543889,19.099444,2026-03-09 07:20:25.258577,8.57,7.0,8.23,9.29,1030,58,2.68,202,0,0.0,Clear,clear sky,7
Abda,47.690833,17.540556,2026-03-09 07:20:26.430780,5.09,2.61,5.09,5.09,1028,72,3.01,134,99,0.0,Clouds,overcast clouds,7
Vadaspark,47.526111,18.949167,2026-03-09 07:20:27.600991,6.95,5.07,6.42,7.49,1030,58,2.68,202,15,0.0,Clouds,few clouds,7
Barosstelep,47.398889,18.989167,2026-03-09 07:20:28.768855,9.05,9.05,8.29,9.35,1030,57,0.89,140,6,0.0,Clear,clear sky,7
Fegyvernek-Örményes,47.194444,20.5575,2026-03-09 07:20:29.954276,4.02,4.02,4.02,4.02,1031,72,1.13,194,10,0.0,Clear,clear sky,7
Zagyvapálfalva,48.068889,19.785,2026-03-09 07:20:31.128455,4.73,4.73,4.73,4.73,1031,71,0.72,156,0,0.0,Clear,clear sky,7
Salgótarján,48.105556,19.807222,2026-03-09 07:20:32.301490,4.05,4.05,4.05,4.05,1031,71,0.62,146,0,0.0,Clear,clear sky,7
Szabadisóstó,46.933889,18.118056,2026-03-09 07:20:33.473652,6.62,4.09,6.62,6.62,1029,56,3.57,131,61,0.0,Clouds,broken clouds,7
Siófok,46.907778,18.053889,2026-03-09 07:20:34.644868,6.62,4.12,6.62,6.62,1029,56,3.52,127,44,0.0,Clouds,scattered clouds,7
Balatonszéplak felső,46.898056,18.018056,2026-03-09 07:20:35.819312,6.62,4.08,6.62,6.62,1029,56,3.59,127,37,0.0,Clouds,scattered clouds,7
Balatonszéplak alsó,46.891944,17.993333,2026-03-09 07:20:36.995648,6.62,3.61,6.62,6.62,1029,56,4.47,45,32,0.0,Clouds,scattered clouds,7
Zamárdi felső,46.886111,17.969444,2026-03-09 07:20:38.169746,6.63,3.62,6.63,6.63,1029,56,4.47,45,28,0.0,Clouds,scattered clouds,7
Zamárdi,46.88,17.944722,2026-03-09 07:20:39.344151,6.57,3.55,6.57,6.57,1029,56,4.47,45,28,0.0,Clouds,scattered clouds,7
Szántód,46.861944,17.899167,2026-03-09 07:20:40.520983,6.64,3.63,6.64,6.64,1029,56,4.47,45,29,0.0,Clouds,scattered clouds,7
Szőny-Déli,47.735278,18.141944,2026-03-09 07:20:41.695856,5.12,1.71,5.12,9.5,1029,70,4.54,134,100,0.0,Clouds,overcast clouds,7
Várpalota,47.194444,18.149167,2026-03-09 07:20:42.875654,4.06,1.63,4.06,4.06,1029,72,2.68,130,89,0.0,Clouds,overcast clouds,7
Pétfürdő,47.1675,18.121389,2026-03-09 07:20:44.044453,4.47,2.17,4.47,4.47,1029,72,2.62,128,86,0.0,Clouds,overcast clouds,7
Hajmáskér,47.141111,18.009444,2026-03-09 07:20:45.213340,6.22,4.33,6.22,6.22,1029,72,2.52,125,74,0.0,Clouds,broken clouds,7
Veszprém,47.118889,17.91,2026-03-09 07:20:46.382531,6.01,4.2,6.01,6.01,1029,73,2.38,112,44,0.0,Clouds,scattered clouds,7
Herend,47.136944,17.760278,2026-03-09 07:20:47.552969,5.2,3.06,5.2,5.2,1029,73,2.59,110,32,0.0,Clouds,scattered clouds,7
Városlőd,47.144167,17.652778,2026-03-09 07:20:48.728901,6.98,4.61,6.98,6.98,1029,72,3.43,122,55,0.0,Clouds,broken clouds,7
Városlőd-Kislőd,47.133889,17.631111,2026-03-09 07:20:49.903331,7.09,4.81,7.09,7.09,1029,73,3.33,119,53,0.0,Clouds,broken clouds,7
Ajka,47.105902,17.572938,2026-03-09 07:20:51.073818,7.39,4.91,7.39,7.39,1028,72,3.79,124,72,0.0,Clouds,broken clouds,7
Ajka-Gyártelep,47.096806,17.555219,2026-03-09 07:20:52.243263,7.44,4.97,7.44,7.44,1028,72,3.79,124,72,0.0,Clouds,broken clouds,7
Devecser,47.1125,17.435278,2026-03-09 07:20:53.413404,7.84,5.28,7.84,7.84,1028,72,4.13,131,77,0.0,Clouds,broken clouds,7
Somlóvásárhely,47.124444,17.369167,2026-03-09 07:20:54.593099,7.95,5.38,7.95,7.95,1028,71,4.2,138,68,0.0,Clouds,broken clouds,7
Tüskevár,47.128611,17.331389,2026-03-09 07:20:55.767913,7.99,5.5,7.99,7.99,1028,71,4.06,140,61,0.0,Clouds,broken clouds,7
Karakószörcsök,47.133611,17.287778,2026-03-09 07:20:56.935419,4.52,1.33,4.52,4.52,1028,71,3.9,142,54,0.0,Clouds,broken clouds,7
Kerta,47.151944,17.237222,2026-03-09 07:20:58.105712,4.67,1.91,4.67,4.67,1028,71,3.28,150,42,0.0,Clouds,scattered clouds,7
Boba,47.183333,17.191389,2026-03-09 07:20:59.275669,4.68,2.1,4.68,4.68,1028,72,3.03,154,42,0.0,Clouds,scattered clouds,7
Börgönd,47.140278,18.515,2026-03-09 07:21:00.448536,4.73,1.4,4.73,4.73,1030,66,4.23,144,100,0.0,Clouds,overcast clouds,7
Belsőbáránd,47.102778,18.499722,2026-03-09 07:21:01.619861,4.68,1.31,4.68,4.68,1030,67,4.27,145,100,0.0,Clouds,overcast clouds,7
Zichyújfalu,47.124444,18.6725,2026-03-09 07:21:02.793859,4.75,1.3,4.75,4.75,1030,66,4.46,147,80,0.0,Clouds,broken clouds,7
Seregélyes,47.121111,18.580556,2026-03-09 07:21:03.965717,4.88,1.53,4.88,4.88,1030,66,4.32,145,97,0.0,Clouds,overcast clouds,7
Polgárdi-Ipartelepek,47.079167,18.314444,2026-03-09 07:21:05.135854,4.37,1.41,4.37,4.37,1029,68,3.48,138,94,0.0,Clouds,overcast clouds,7
Polgárdi,47.07,18.284167,2026-03-09 07:21:06.310460,4.37,1.41,4.37,4.37,1029,68,3.48,138,94,0.0,Clouds,overcast clouds,7
Füle,47.05,18.255278,2026-03-09 07:21:07.486247,4.33,1.35,4.33,4.33,1029,69,3.5,137,92,0.0,Clouds,overcast clouds,7
Zánka-Erzsébettábor,46.8775,17.709167,2026-03-09 07:21:08.654881,6.57,4.38,6.57,6.57,1029,56,3.01,102,47,0.0,Clouds,scattered clouds,7
Csajág,47.033889,18.186389,2026-03-09 07:21:09.830335,6.46,4.08,6.46,6.46,1029,69,3.27,132,79,0.0,Clouds,broken clouds,7
Balatonakarattya,47.017222,18.167778,2026-03-09 07:21:11.007018,6.31,3.9,6.31,6.31,1029,69,3.27,132,79,0.0,Clouds,broken clouds,7
Csittényhegy,47.025278,18.1375,2026-03-09 07:21:12.179940,6.53,4.24,6.53,6.53,1029,70,3.15,129,73,0.0,Clouds,broken clouds,7
Balatonkenese,47.0325,18.105556,2026-03-09 07:21:13.350998,6.61,4.41,6.61,6.61,1029,70,3.05,126,66,0.0,Clouds,broken clouds,7
Balatonfűzfő,47.060278,18.0425,2026-03-09 07:21:14.521914,6.64,4.69,6.64,6.64,1029,56,2.7,115,52,0.0,Clouds,broken clouds,7
Balatonalmádi,47.028333,18.015,2026-03-09 07:21:15.694930,6.61,4.57,6.61,6.61,1029,56,2.81,115,47,0.0,Clouds,scattered clouds,7
Káptalanfüred,47.008889,18.003889,2026-03-09 07:21:16.871476,6.64,4.56,6.64,6.64,1029,56,2.88,113,37,0.0,Clouds,scattered clouds,7
Alsóörs,46.985278,17.974722,2026-03-09 07:21:18.054723,6.65,3.65,6.65,6.65,1029,56,4.47,45,37,0.0,Clouds,scattered clouds,7
Csopak,46.974722,17.931111,2026-03-09 07:21:19.235391,6.52,3.49,6.52,6.52,1029,56,4.47,45,21,0.0,Clouds,few clouds,7
Balatonarács,46.9625,17.8975,2026-03-09 07:21:20.404802,6.42,3.36,6.42,6.42,1029,56,4.47,45,21,0.0,Clouds,few clouds,7
Balatonfüred,46.955833,17.883056,2026-03-09 07:21:21.577657,6.49,3.45,6.49,6.49,1029,56,4.47,45,20,0.0,Clouds,few clouds,7
Aszófő,46.925556,17.8325,2026-03-09 07:21:22.757182,6.59,3.57,6.59,6.59,1029,56,4.47,45,24,0.0,Clouds,few clouds,7
Örvényes,46.9125,17.818056,2026-03-09 07:21:23.926459,6.61,3.6,6.61,6.61,1029,56,4.47,45,24,0.0,Clouds,few clouds,7
Balatonudvari,46.904722,17.808056,2026-03-09 07:21:25.100417,6.64,3.63,6.64,6.64,1029,56,4.47,45,26,0.0,Clouds,scattered clouds,7
Fövenyes,46.893611,17.789444,2026-03-09 07:21:26.269364,6.66,3.66,6.66,6.66,1029,56,4.47,45,31,0.0,Clouds,scattered clouds,7
Balatonakali-Dörgicse,46.88,17.747778,2026-03-09 07:21:27.440172,6.65,4.52,6.65,6.65,1029,56,2.96,103,34,0.0,Clouds,scattered clouds,7
Zánka-Köveskál,46.872778,17.687778,2026-03-09 07:21:28.612727,6.64,4.45,6.64,6.64,1029,56,3.04,100,50,0.0,Clouds,scattered clouds,7
Balatonszepezd,46.851111,17.663056,2026-03-09 07:21:29.787940,6.64,4.44,6.64,6.64,1029,56,3.05,102,53,0.0,Clouds,broken clouds,7
Szepezdfürdő,46.839722,17.649444,2026-03-09 07:21:31.026635,6.61,4.39,6.61,6.61,1029,72,3.08,99,55,0.0,Clouds,broken clouds,7
Révfülöp,46.829167,17.632222,2026-03-09 07:21:32.196672,6.62,4.4,6.62,6.62,1029,72,3.08,99,55,0.0,Clouds,broken clouds,7
Balatonrendes,46.824722,17.582778,2026-03-09 07:21:33.365074,6.62,4.36,6.62,6.62,1029,72,3.13,95,53,0.0,Clouds,broken clouds,7
Ábrahámhegy,46.815,17.572222,2026-03-09 07:21:34.543463,6.59,4.33,6.59,6.59,1029,72,3.13,95,53,0.0,Clouds,broken clouds,7
Badacsonyörs,46.805556,17.531667,2026-03-09 07:21:35.715500,4.23,1.48,4.23,4.23,1028,72,3.13,94,51,0.0,Clouds,broken clouds,7
Kisújszállás,47.223889,20.751111,2026-03-09 07:21:36.885353,5.89,5.89,5.89,5.89,1031,71,1.15,224,12,0.0,Clouds,few clouds,7
Karcag,47.303333,20.928056,2026-03-09 07:21:38.055443,5.96,5.13,5.96,5.96,1031,70,1.43,258,14,0.0,Clouds,few clouds,7
Püspökladány,47.3275,21.128889,2026-03-09 07:21:39.224854,5.95,4.83,5.95,5.95,1031,70,1.67,277,15,0.0,Clouds,few clouds,7
Kaba,47.368889,21.259444,2026-03-09 07:21:40.395620,6.1,4.75,6.1,6.1,1031,69,1.9,288,14,0.0,Clouds,few clouds,7
Hajdúszoboszló,47.429444,21.406944,2026-03-09 07:21:41.565950,6.09,5.14,6.09,6.09,1031,65,1.54,90,0,0.0,Clear,clear sky,7
Ebes,47.462778,21.488889,2026-03-09 07:21:42.742911,6.04,5.08,6.04,6.04,1031,65,1.54,90,0,0.0,Clear,clear sky,7
Debrecen,47.520278,21.628611,2026-03-09 07:21:43.916122,5.92,4.95,5.92,5.92,1031,65,1.54,90,0,0.0,Clear,clear sky,7
Debrecen-Csapókert,47.540556,21.648056,2026-03-09 07:21:45.087502,5.87,4.89,5.87,5.87,1031,65,1.54,90,0,0.0,Clear,clear sky,7
Apafa,47.584045,21.655858,2026-03-09 07:21:46.259597,5.83,4.84,5.83,5.83,1031,65,1.54,90,0,0.0,Clear,clear sky,7
Bocskaikert,47.6425,21.666389,2026-03-09 07:21:47.430532,5.76,4.76,5.76,5.76,1031,65,1.54,90,0,0.0,Clear,clear sky,7
Hajdúhadház,47.686944,21.679167,2026-03-09 07:21:48.601478,5.73,5.73,5.73,5.73,1031,67,1.26,244,2,0.0,Clear,clear sky,7
Téglás,47.714722,21.684722,2026-03-09 07:21:49.777077,5.8,5.8,5.8,5.8,1031,67,1.2,236,3,0.0,Clear,clear sky,7
Újfehértó,47.814444,21.706389,2026-03-09 07:21:50.955714,5.68,5.68,5.68,5.68,1031,67,1.04,203,4,0.0,Clear,clear sky,7
Nyíregyháza,47.946667,21.705556,2026-03-09 07:21:52.128007,5.79,5.79,5.79,5.79,1031,67,0.9,151,4,0.0,Clear,clear sky,7
Sóstó,47.998051,21.729047,2026-03-09 07:21:53.298580,5.76,4.9,5.76,5.76,1031,67,1.43,142,3,0.0,Clear,clear sky,7
Sóstóhegy,48.012222,21.742778,2026-03-09 07:21:54.470907,5.85,4.97,5.85,5.85,1031,67,1.46,134,3,0.0,Clear,clear sky,7
Kemecse,48.065556,21.801667,2026-03-09 07:21:55.641173,5.82,4.32,5.82,5.82,1031,67,2.0,131,2,0.0,Clear,clear sky,7
Nyírbogdány,48.082222,21.855278,2026-03-09 07:21:56.809697,5.77,4.0,5.77,5.77,1031,67,2.28,129,2,0.0,Clear,clear sky,7
Kék,48.093333,21.883889,2026-03-09 07:21:57.984883,5.79,3.62,5.79,5.79,1031,66,2.78,134,1,0.0,Clear,clear sky,7
Demecser,48.111667,21.926667,2026-03-09 07:21:59.154809,5.78,3.44,5.78,5.78,1031,66,3.01,132,1,0.0,Clear,clear sky,7
Gégény,48.128333,21.951944,2026-03-09 07:22:00.325531,5.74,3.25,5.74,5.74,1031,66,3.21,130,1,0.0,Clear,clear sky,7
Pátroha,48.158611,21.996667,2026-03-09 07:22:01.506740,5.74,3.14,5.74,5.74,1031,66,3.37,128,1,0.0,Clear,clear sky,7
Ajak,48.1865,22.048972,2026-03-09 07:22:02.675475,5.72,3.04,5.72,5.72,1031,66,3.49,127,0,0.0,Clear,clear sky,7
Kisvárda,48.208333,22.078333,2026-03-09 07:22:03.845373,5.7,2.89,5.7,5.7,1032,66,3.7,127,0,0.0,Clear,clear sky,7
Kisvárda-Hármasút,48.228333,22.091944,2026-03-09 07:22:05.017766,5.7,2.89,5.7,5.7,1032,66,3.7,127,0,0.0,Clear,clear sky,7
Fényeslitke,48.267222,22.107222,2026-03-09 07:22:06.190157,5.62,2.84,5.62,5.62,1032,67,3.63,124,0,0.0,Clear,clear sky,7
Komoró,48.305278,22.118056,2026-03-09 07:22:07.363987,5.64,2.91,5.64,5.64,1032,68,3.55,123,0,0.0,Clear,clear sky,7
Tuzsér,48.342222,22.131667,2026-03-09 07:22:08.536144,5.57,2.94,5.57,5.57,1032,69,3.37,120,0,0.0,Clear,clear sky,7
Tiszabezdéd,48.371389,22.145,2026-03-09 07:22:09.706300,5.56,3.0,5.56,5.56,1032,69,3.26,119,0,0.0,Clear,clear sky,7
Záhony,48.402222,22.183611,2026-03-09 07:22:10.879698,5.53,3.08,5.53,5.53,1032,69,3.09,119,0,0.0,Clear,clear sky,7
Karcag-Vásártér,47.3225,20.9075,2026-03-09 07:22:12.057447,7.22,6.56,7.22,7.22,1031,70,1.43,258,14,0.0,Clouds,few clouds,7
Berekfürdő,47.374722,20.827222,2026-03-09 07:22:13.233132,7.21,6.46,7.21,7.21,1031,70,1.51,257,14,0.0,Clouds,few clouds,7
Kunmadaras,47.415278,20.793056,2026-03-09 07:22:14.410754,7.2,6.37,7.2,7.2,1031,70,1.57,263,13,0.0,Clouds,few clouds,7
Tiszaszentimre,47.490833,20.733056,2026-03-09 07:22:15.589237,7.21,6.48,7.21,7.21,1031,70,1.49,274,13,0.0,Clouds,few clouds,7
Tiszaszőlős,47.555556,20.728056,2026-03-09 07:22:16.767632,7.21,6.63,7.21,7.21,1031,70,1.37,284,14,0.0,Clouds,few clouds,7
Hosszúhát,47.235556,21.101944,2026-03-09 07:22:17.937768,5.94,5.94,5.94,5.94,1031,69,1.25,268,14,0.0,Clouds,few clouds,7
Szerep,47.234444,21.145833,2026-03-09 07:22:19.107782,5.94,5.94,5.94,5.94,1031,69,1.27,272,13,0.0,Clouds,few clouds,7
Sárrétudvari,47.231667,21.180833,2026-03-09 07:22:20.282375,5.91,5.91,5.91,5.91,1031,69,1.3,276,13,0.0,Clouds,few clouds,7
Biharnagybajom,47.208889,21.221944,2026-03-09 07:22:21.460873,5.9,5.9,5.9,5.9,1031,69,1.21,279,12,0.0,Clouds,few clouds,7
Füzesgyarmat,47.113056,21.194444,2026-03-09 07:22:22.632782,5.97,5.97,5.97,5.97,1031,69,0.84,244,14,0.0,Clouds,few clouds,7
Füzesgyarmatfürdő,47.093787,21.201582,2026-03-09 07:22:23.815974,5.97,5.97,5.97,5.97,1031,69,0.84,244,14,0.0,Clouds,few clouds,7
Báránd,47.299722,21.235278,2026-03-09 07:22:25.004177,5.9,4.78,5.9,5.9,1031,69,1.66,286,13,0.0,Clouds,few clouds,7
Sáp,47.259722,21.360556,2026-03-09 07:22:26.201412,5.83,4.89,5.83,5.83,1031,68,1.5,290,11,0.0,Clouds,few clouds,7
Berettyóújfalu,47.211944,21.535556,2026-03-09 07:22:27.374973,5.71,5.71,5.71,5.71,1031,66,1.28,299,9,0.0,Clear,clear sky,7
Mezőpeterd,47.176111,21.625278,2026-03-09 07:22:28.544808,8.06,8.06,8.06,8.28,1031,66,1.18,311,9,0.0,Clear,clear sky,7
Biharkeresztes,47.135556,21.721389,2026-03-09 07:22:29.717936,8.03,6.09,8.03,8.25,1031,53,3.09,80,0,0.0,Clear,clear sky,7
Tócóvölgy,47.529444,21.588889,2026-03-09 07:22:30.889092,5.97,5.0,5.97,5.97,1031,65,1.54,90,0,0.0,Clear,clear sky,7
Sáregres,46.7825,18.588889,2026-03-09 07:22:32.055358,5.04,1.07,5.04,5.04,1029,65,5.7,148,100,0.0,Clouds,overcast clouds,7
Simontornya,46.756582,18.540674,2026-03-09 07:22:33.230453,4.92,0.92,4.92,4.92,1029,66,5.69,145,100,0.0,Clouds,overcast clouds,7
Tolnanémedi,46.727778,18.475833,2026-03-09 07:22:34.401811,4.96,0.98,4.96,4.96,1029,66,5.68,144,100,0.0,Clouds,overcast clouds,7
Pincehely,46.681389,18.43,2026-03-09 07:22:35.570277,4.77,0.8,4.77,4.77,1029,67,5.53,141,100,0.0,Clouds,overcast clouds,7
Keszőhidegkút-Gyönk,46.597778,18.426111,2026-03-09 07:22:36.741246,4.81,0.94,4.81,4.81,1029,67,5.35,138,100,0.0,Clouds,overcast clouds,7
Szárazd,46.575556,18.420833,2026-03-09 07:22:37.910590,4.85,1.01,4.85,4.85,1029,67,5.29,137,100,0.0,Clouds,overcast clouds,7
Regöly,46.568889,18.396111,2026-03-09 07:22:39.085845,4.85,1.01,4.85,4.85,1029,67,5.29,137,100,0.0,Clouds,overcast clouds,7
Szakály-Hőgyész,46.523611,18.389444,2026-03-09 07:22:40.270730,4.73,0.94,4.73,4.73,1029,68,5.13,135,100,0.0,Clouds,overcast clouds,7
Dúzs,46.493889,18.377222,2026-03-09 07:22:41.433939,4.76,0.99,4.76,4.76,1029,68,5.1,135,100,0.0,Clouds,overcast clouds,7
Csibrák,46.466667,18.336389,2026-03-09 07:22:42.604111,4.79,1.06,4.79,4.79,1029,69,5.02,134,100,0.0,Clouds,overcast clouds,7
Kurd,46.449167,18.319167,2026-03-09 07:22:43.777076,4.44,0.63,4.44,4.44,1029,69,5.02,134,100,0.0,Clouds,overcast clouds,7
Döbrököz,46.418889,18.255,2026-03-09 07:22:44.951426,4.67,1.0,4.67,4.67,1029,69,4.85,133,100,0.0,Clouds,overcast clouds,7
Dombóvár,46.37,18.149722,2026-03-09 07:22:46.122566,4.58,1.19,4.58,4.58,1029,70,4.27,131,100,0.0,Clouds,overcast clouds,7
Dombóvár alsó,46.363889,18.134167,2026-03-09 07:22:47.291654,4.58,1.19,4.58,4.58,1029,70,4.27,131,100,0.0,Clouds,overcast clouds,7
Somoskőújfalu,48.154722,19.815556,2026-03-09 07:22:48.462404,2.91,2.91,2.91,2.91,1031,70,0.54,123,1,0.0,Clear,clear sky,7
Jászfényszaru,47.593056,19.754444,2026-03-09 07:22:49.636338,5.19,5.19,5.19,5.19,1031,72,0.78,106,0,0.0,Clear,clear sky,7
Pusztamonostor,47.564444,19.794167,2026-03-09 07:22:50.811286,5.2,5.2,5.2,5.2,1031,72,0.75,114,0,0.0,Clear,clear sky,7
Jászberény,47.494444,19.893333,2026-03-09 07:22:51.993987,5.24,5.24,5.24,5.24,1031,72,0.91,139,0,0.0,Clear,clear sky,7
Meggyespele,47.441944,19.938889,2026-03-09 07:22:53.171705,5.28,5.28,5.28,5.28,1031,72,1.0,150,0,0.0,Clear,clear sky,7
Portelek,47.418056,19.958889,2026-03-09 07:22:54.347029,5.24,5.24,5.24,5.24,1031,72,1.11,152,0,0.0,Clear,clear sky,7
Jászboldogháza-Jánoshida,47.366944,20.001389,2026-03-09 07:22:55.515760,5.21,5.21,5.21,5.21,1031,72,1.27,154,0,0.0,Clear,clear sky,7
Jászárokszállás,47.635556,19.971111,2026-03-09 07:22:56.684850,5.5,5.5,5.5,5.5,1031,71,0.5,52,1,0.0,Clear,clear sky,7
Jászdózsa,47.563056,20.028056,2026-03-09 07:22:57.861361,5.55,5.55,5.55,5.55,1031,71,0.27,96,1,0.0,Clear,clear sky,7
Jászapáti,47.513611,20.155,2026-03-09 07:22:59.031103,5.61,5.61,5.61,5.61,1031,70,0.19,180,4,0.0,Clear,clear sky,7
Jászkisér,47.456111,20.203333,2026-03-09 07:23:00.207373,7.23,7.23,7.23,7.23,1031,70,0.38,185,5,0.0,Clear,clear sky,7
Jászladány,47.373333,20.159167,2026-03-09 07:23:01.387467,4.01,4.01,4.01,4.01,1031,71,0.92,160,4,0.0,Clear,clear sky,7
Szászberek,47.320556,20.090833,2026-03-09 07:23:02.558423,4.01,4.01,4.01,7.77,1031,72,1.23,157,2,0.0,Clear,clear sky,7
Gyöngyöshalász,47.743056,19.932222,2026-03-09 07:23:03.719795,5.4,5.4,5.4,5.4,1031,71,0.78,31,2,0.0,Clear,clear sky,7
Gyöngyös,47.783056,19.937222,2026-03-09 07:23:04.892919,5.12,5.12,5.12,5.12,1031,71,0.69,25,3,0.0,Clear,clear sky,7
Erdőtelek,47.683333,20.3025,2026-03-09 07:23:06.070819,5.86,5.86,5.86,5.86,1031,71,0.64,6,9,0.0,Clear,clear sky,7
Heves,47.609444,20.306111,2026-03-09 07:23:07.246407,7.16,7.16,7.16,7.16,1031,71,0.46,328,10,0.0,Clear,clear sky,7
Hevesvezekény,47.562222,20.365833,2026-03-09 07:23:08.417042,7.2,7.2,7.2,7.2,1031,70,0.55,304,11,0.0,Clouds,few clouds,7
Tarnaszentmiklós,47.546944,20.390833,2026-03-09 07:23:09.609887,7.21,7.21,7.21,7.21,1031,70,0.59,290,11,0.0,Clouds,few clouds,7
Kisköre,47.495556,20.481667,2026-03-09 07:23:10.779911,7.23,7.23,7.23,7.23,1031,70,0.99,273,12,0.0,Clouds,few clouds,7
Abádszalók,47.455278,20.553056,2026-03-09 07:23:11.967287,7.21,7.21,7.21,7.21,1031,70,1.08,268,12,0.0,Clouds,few clouds,7
Kunhegyes,47.376667,20.641111,2026-03-09 07:23:13.140270,7.21,7.21,7.21,7.21,1031,70,1.28,255,13,0.0,Clouds,few clouds,7
Kenderes,47.254444,20.686111,2026-03-09 07:23:14.315712,7.24,7.24,7.24,7.24,1031,71,1.09,221,12,0.0,Clouds,few clouds,7
Maklár,47.808056,20.404722,2026-03-09 07:23:15.495128,10.13,9.05,10.13,10.13,1031,71,0.47,42,11,0.0,Clouds,few clouds,7
Andornaktálya,47.852203,20.402295,2026-03-09 07:23:16.673998,10.07,8.96,4.98,10.07,1031,70,0.22,72,9,0.0,Clear,clear sky,7
Eger,47.891667,20.381667,2026-03-09 07:23:17.851624,9.98,9.98,8.34,9.98,1030,70,0.21,119,9,0.0,Clear,clear sky,7
Egervár,47.908056,20.380556,2026-03-09 07:23:19.024147,9.8,9.8,8.15,9.8,1030,48,0.27,156,8,0.0,Clear,clear sky,7
Eger-Felnémet,47.936667,20.370556,2026-03-09 07:23:20.195989,9.85,9.85,8.21,9.85,1030,48,0.39,176,7,0.0,Clear,clear sky,7
Szarvaskő,47.988611,20.3325,2026-03-09 07:23:21.366806,9.4,9.4,7.8,10.37,1030,48,0.6,182,7,0.0,Clear,clear sky,7
Mónosbél,48.031944,20.33,2026-03-09 07:23:22.528426,9.14,9.14,7.49,9.51,1030,48,0.67,184,5,0.0,Clear,clear sky,7
Bélapátfalva,48.055556,20.340556,2026-03-09 07:23:23.699389,9.03,9.03,7.32,9.9,1030,48,0.66,183,5,0.0,Clear,clear sky,7
Bélapátfalvi Cementgyár,48.058056,20.355,2026-03-09 07:23:24.870322,8.95,8.95,7.28,9.85,1030,48,0.66,183,5,0.0,Clear,clear sky,7
Szilvásvárad,48.11345,20.37919,2026-03-09 07:23:26.040964,9.02,9.02,7.15,9.72,1030,48,0.51,182,2,0.0,Clear,clear sky,7
Hejőkeresztúr,47.960278,20.869444,2026-03-09 07:23:27.212638,8.49,8.49,8.49,8.69,1031,46,1.16,51,7,0.0,Clear,clear sky,7
Tiszaújváros,47.926111,21.030556,2026-03-09 07:23:28.385919,5.29,4.42,5.29,8.54,1031,71,1.39,60,7,0.0,Clear,clear sky,7
Miskolc-Gömöri,48.106667,20.800278,2026-03-09 07:23:29.569075,8.43,8.43,8.39,10.22,1031,65,0.63,77,4,0.0,Clear,clear sky,7
Sajókeresztúr,48.168008,20.774014,2026-03-09 07:23:30.737823,8.39,8.39,8.34,10.17,1031,66,0.51,89,3,0.0,Clear,clear sky,7
Sajóecseg,48.186111,20.766667,2026-03-09 07:23:31.911492,8.42,8.42,8.38,10.21,1031,66,0.52,94,3,0.0,Clear,clear sky,7
Sajószentpéter,48.222222,20.708056,2026-03-09 07:23:33.082771,8.33,8.33,8.28,10.11,1031,67,0.54,94,2,0.0,Clear,clear sky,7
Kazincbarcika,48.264444,20.6275,2026-03-09 07:23:34.253246,8.37,8.37,8.28,11.05,1031,67,0.63,82,1,0.0,Clear,clear sky,7
Sajókaza,48.272778,20.581944,2026-03-09 07:23:35.420799,10.32,9.16,8.27,10.47,1031,67,0.6,79,1,0.0,Clear,clear sky,7
Vadna,48.276389,20.555278,2026-03-09 07:23:36.589816,10.84,9.73,8.26,11.03,1031,67,0.6,79,1,0.0,Clear,clear sky,7
Dubicsány,48.280833,20.504722,2026-03-09 07:23:37.753291,10.19,9.01,8.08,10.29,1031,67,0.61,74,0,0.0,Clear,clear sky,7
Raposka,46.851389,17.412778,2026-03-09 07:23:38.926801,7.06,5.01,7.06,7.06,1028,73,2.95,96,36,0.0,Clouds,scattered clouds,7
Ivacs,47.641944,19.273889,2026-03-09 07:23:40.099424,8.0,7.25,7.85,8.9,1030,62,1.61,141,1,0.0,Clear,clear sky,7
Kisköre-Tiszahíd,47.480835,20.507698,2026-03-09 07:23:41.272243,7.21,7.21,7.21,7.21,1031,70,1.0,268,11,0.0,Clouds,few clouds,7
Rozsály,47.912778,22.7825,2026-03-09 07:23:42.445268,8.92,7.02,8.92,9.03,1032,60,3.34,130,0,0.0,Clear,clear sky,7
Pusztakettős,47.453611,20.749722,2026-03-09 07:23:43.618165,7.21,6.41,7.21,7.21,1031,70,1.55,266,13,0.0,Clouds,few clouds,7
Kisvác,47.795278,19.113611,2026-03-09 07:23:44.809005,8.27,7.4,8.27,9.23,1030,73,1.76,113,3,0.0,Clear,clear sky,7
Tiszafüred-Gyártelep,47.6075,20.736111,2026-03-09 07:23:45.981017,7.18,7.18,7.18,7.18,1031,70,1.21,299,14,0.0,Clouds,few clouds,7
Újkenéz,48.251111,22.221667,2026-03-09 07:23:47.162823,5.52,2.67,5.52,5.52,1032,66,3.71,128,0,0.0,Clear,clear sky,7
Püspökladány-Vásártér,47.319167,21.096111,2026-03-09 07:23:48.333295,5.95,4.94,5.95,5.95,1031,70,1.57,275,14,0.0,Clouds,few clouds,7
Végegyháza alsó,46.3675,20.866944,2026-03-09 07:23:49.505082,8.38,6.94,8.38,8.38,1030,77,2.45,140,3,0.0,Clear,clear sky,7
Orosháza felső,46.553611,20.655278,2026-03-09 07:23:50.676500,6.08,3.78,6.08,6.08,1030,73,3.04,162,6,0.0,Clear,clear sky,7
Ambrózfalva,46.353056,20.740556,2026-03-09 07:23:51.851506,6.1,4.04,6.1,6.1,1030,75,2.71,154,6,0.0,Clear,clear sky,7
Alsónyék,46.199444,18.738056,2026-03-09 07:23:53.026798,9.15,6.27,9.15,9.15,1029,67,5.68,139,98,0.0,Clouds,overcast clouds,7
Tompapuszta,46.321389,20.966389,2026-03-09 07:23:54.198639,8.37,7.04,8.37,9.06,1030,100,2.31,133,0,0.0,Clear,clear sky,7
Halászlak,46.911879,20.56228,2026-03-09 07:23:55.369371,5.77,3.97,5.77,5.77,1030,71,2.32,172,6,0.0,Clear,clear sky,7
Sirató,46.840556,20.61,2026-03-09 07:23:56.541788,5.89,3.87,5.89,5.89,1030,72,2.6,169,7,0.0,Clear,clear sky,7
Csabacsűd felső,46.829167,20.649167,2026-03-09 07:23:57.704108,5.91,3.96,5.91,5.91,1030,72,2.52,168,6,0.0,Clear,clear sky,7
Orosháza-Üveggyár,46.579979,20.683644,2026-03-09 07:23:58.880321,6.07,3.83,6.07,6.07,1030,73,2.94,159,6,0.0,Clear,clear sky,7
Gyulai városerdő,46.69482,21.32281,2026-03-09 07:24:00.054782,6.39,5.14,6.39,6.39,1031,73,1.85,114,5,0.0,Clear,clear sky,7
Kórógyszentgyörgy,46.564377,20.224998,2026-03-09 07:24:01.235925,8.9,6.28,8.9,10.02,1030,47,4.84,174,6,0.0,Clear,clear sky,7
Kunszállás,46.784444,19.767222,2026-03-09 07:24:02.411247,6.61,5.73,5.04,6.61,1030,77,1.54,90,0,0.0,Clear,clear sky,7
Selymes,46.655321,19.8534,2026-03-09 07:24:03.594323,6.67,3.23,6.67,9.92,1030,77,5.46,167,7,0.0,Clear,clear sky,7
Petőfiszállási tanyák,46.587805,19.874509,2026-03-09 07:24:04.767954,6.71,3.23,6.71,9.96,1030,77,5.59,167,8,0.0,Clear,clear sky,7
Kisteleki szőlők,46.514199,19.92868,2026-03-09 07:24:05.947279,6.7,3.19,6.7,9.95,1030,67,5.66,167,8,0.0,Clear,clear sky,7
Kapitányság,46.435336,19.987564,2026-03-09 07:24:07.119837,5.82,2.07,5.82,5.82,1030,67,5.68,165,7,0.0,Clear,clear sky,7
Őszeszék,46.39025,20.016017,2026-03-09 07:24:08.301315,5.88,2.13,5.88,5.88,1030,67,5.71,164,7,0.0,Clear,clear sky,7
Vilmaszállás,46.366389,20.030833,2026-03-09 07:24:09.480046,5.89,2.13,5.89,5.89,1030,67,5.74,162,6,0.0,Clear,clear sky,7
Jánosszállás,46.334359,20.051199,2026-03-09 07:24:10.651295,5.91,2.14,5.91,5.91,1030,66,5.77,161,6,0.0,Clear,clear sky,7
Felsőpakony,47.343056,19.230556,2026-03-09 07:24:11.820931,8.51,8.51,8.25,9.31,1030,57,1.03,0,0,0.0,Clear,clear sky,7
Felsőméntelek,46.987074,19.557745,2026-03-09 07:24:12.992564,4.88,3.76,4.88,4.88,1030,70,1.54,90,0,0.0,Clear,clear sky,7
Alsóméntelek,46.961558,19.579121,2026-03-09 07:24:14.172096,4.91,3.79,4.91,4.91,1030,70,1.54,90,0,0.0,Clear,clear sky,7
Nagynyír,46.943319,19.585447,2026-03-09 07:24:15.344274,4.9,3.78,4.9,4.9,1030,70,1.54,90,0,0.0,Clear,clear sky,7
Úrihegy,46.917778,19.621389,2026-03-09 07:24:16.515894,4.93,3.82,4.93,6.49,1030,70,1.54,90,0,0.0,Clear,clear sky,7
Miklóstelep,46.913412,19.630913,2026-03-09 07:24:17.691556,4.94,3.83,4.94,6.51,1030,70,1.54,90,0,0.0,Clear,clear sky,7
Tiszajenő alsó,47.016944,20.134444,2026-03-09 07:24:18.869477,7.79,7.79,4.02,7.79,1030,68,1.03,0,0,0.0,Clear,clear sky,7
Óbög,46.987222,20.111111,2026-03-09 07:24:20.046555,6.61,6.61,4.01,7.77,1030,71,1.03,0,0,0.0,Clear,clear sky,7
Árpádszállás,46.866456,19.989163,2026-03-09 07:24:21.216506,5.8,4.81,5.1,7.7,1030,73,1.54,90,0,0.0,Clear,clear sky,7
Tőserdő,46.851111,19.980278,2026-03-09 07:24:22.386748,5.96,4.99,5.12,7.72,1030,74,1.54,90,0,0.0,Clear,clear sky,7
Tiszaalpár felső,46.836256,19.976753,2026-03-09 07:24:23.567108,8.23,5.73,6.71,9.96,1030,65,4.21,175,4,0.0,Clear,clear sky,7
Borsihalom,46.773056,19.92,2026-03-09 07:24:24.740265,7.55,4.67,6.7,9.95,1030,68,4.66,172,5,0.0,Clear,clear sky,7
Petőfiváros,46.725556,19.848611,2026-03-09 07:24:25.916398,6.66,3.35,5.1,6.66,1030,77,5.14,169,6,0.0,Clear,clear sky,7
Csorna,47.601944,17.248889,2026-03-09 07:24:27.084515,7.22,5.97,7.22,7.22,1028,71,1.98,165,51,0.0,Clouds,broken clouds,7
Szorgalmatos,47.986667,21.366389,2026-03-09 07:24:28.258437,6.07,4.96,6.07,6.07,1031,70,1.67,48,5,0.0,Clear,clear sky,7
Fótfürdő,47.6225,19.200556,2026-03-09 07:24:29.425289,7.71,6.74,7.44,8.97,1030,62,1.78,146,3,0.0,Clear,clear sky,7
Fenyveshegy,47.818333,19.068056,2026-03-09 07:24:30.599933,8.34,7.4,8.34,8.34,1030,73,1.85,114,5,0.0,Clear,clear sky,7
Hűvösvölgy,47.541202,18.96351,2026-03-09 07:24:31.773579,8.01,5.78,7.39,9.02,1030,58,3.58,192,15,0.0,Clouds,few clouds,7
Hárshegy,47.535318,18.961433,2026-03-09 07:24:32.935781,8.01,5.78,7.39,9.02,1030,58,3.58,192,15,0.0,Clouds,few clouds,7
Szépjuhászné,47.528277,18.955246,2026-03-09 07:24:34.108690,7.14,4.72,6.5,8.13,1030,58,3.58,192,15,0.0,Clouds,few clouds,7
Jánoshegy,47.51433,18.95047,2026-03-09 07:24:35.279272,7.07,4.63,6.41,8.04,1030,58,3.58,192,15,0.0,Clouds,few clouds,7
Virágvölgy,47.505965,18.95876,2026-03-09 07:24:36.449639,6.73,4.22,6.1,7.73,1030,58,3.58,192,14,0.0,Clouds,few clouds,7
Csillebérc,47.498196,18.961694,2026-03-09 07:24:37.619462,6.5,3.94,5.86,7.49,1030,58,3.58,192,14,0.0,Clouds,few clouds,7
Normafa,47.5,18.970558,2026-03-09 07:24:38.789657,6.51,3.95,5.92,7.54,1030,58,3.58,192,14,0.0,Clouds,few clouds,7
Széchenyihegy,47.49413,18.977049,2026-03-09 07:24:39.962156,6.52,3.96,5.94,7.56,1030,58,3.58,192,11,0.0,Clouds,few clouds,7
Balatonfőkajár felső,47.031389,18.215278,2026-03-09 07:24:41.134169,6.84,4.47,6.84,6.84,1029,69,3.39,134,84,0.0,Clouds,broken clouds,7
Piroska,47.148333,20.129722,2026-03-09 07:24:42.308080,7.79,7.79,4.02,7.79,1030,68,1.03,0,0,0.0,Clear,clear sky,7
Somodor,46.4725,17.836667,2026-03-09 07:24:43.469963,4.13,0.99,4.13,4.13,1029,73,3.68,116,90,0.0,Clouds,overcast clouds,7
Középmező,45.995833,18.668889,2026-03-09 07:24:44.640148,9.14,6.35,6.17,9.14,1029,56,5.43,124,67,0.0,Clouds,broken clouds,7
Jobbágyi,47.828889,19.6875,2026-03-09 07:24:45.812609,5.13,5.13,5.13,5.13,1031,72,0.96,92,0,0.0,Clear,clear sky,7
Ferihegy,47.437222,19.223889,2026-03-09 07:24:46.982957,8.35,8.35,8.08,9.15,1030,58,1.03,0,0,0.0,Clear,clear sky,7
Máriapócs,47.852778,22.019167,2026-03-09 07:24:48.168254,5.32,3.03,5.32,5.32,1031,64,2.81,142,0,0.0,Clear,clear sky,7
Máriaudvar,47.751944,19.165,2026-03-09 07:24:49.343662,8.3,7.61,8.3,9.26,1030,72,1.59,118,2,0.0,Clear,clear sky,7
Nagyberki,46.353333,18.004167,2026-03-09 07:24:50.514373,4.32,1.28,4.32,4.32,1029,71,3.58,126,100,0.0,Clouds,overcast clouds,7
Badacsonytomaj,46.804722,17.518056,2026-03-09 07:24:51.685820,4.23,1.48,4.23,4.23,1028,72,3.13,94,51,0.0,Clouds,broken clouds,7
Badacsony,46.788611,17.506389,2026-03-09 07:24:52.854773,7.11,4.98,7.11,7.11,1028,72,3.09,92,47,0.0,Clouds,scattered clouds,7
Badacsonylábdihegy,46.793889,17.470833,2026-03-09 07:24:54.024279,7.08,4.94,7.08,7.08,1028,72,3.09,92,47,0.0,Clouds,scattered clouds,7
Badacsonytördemic-Szigliget,46.809722,17.469167,2026-03-09 07:24:55.186311,7.0,4.84,7.0,7.0,1028,72,3.11,93,47,0.0,Clouds,scattered clouds,7
Nemesgulács-Kisapáti,46.836944,17.476389,2026-03-09 07:24:56.356311,7.07,4.92,7.07,7.07,1028,72,3.11,95,49,0.0,Clouds,scattered clouds,7
Tapolca,46.877778,17.428611,2026-03-09 07:24:57.542568,6.99,4.93,6.99,6.99,1028,73,2.95,100,38,0.0,Clouds,scattered clouds,7
Uzsabánya alsó,46.898333,17.345278,2026-03-09 07:24:58.720471,6.79,4.75,6.79,6.79,1028,73,2.86,107,29,0.0,Clouds,scattered clouds,7
Uzsa,46.920278,17.331667,2026-03-09 07:24:59.891517,6.75,4.66,6.75,6.75,1028,73,2.92,113,30,0.0,Clouds,scattered clouds,7
Sümegi Bazaltbánya,46.9525,17.2925,2026-03-09 07:25:01.060840,4.08,1.44,4.08,4.08,1028,73,2.95,119,26,0.0,Clouds,scattered clouds,7
Sümeg,46.981111,17.270833,2026-03-09 07:25:02.243750,4.31,1.74,4.31,4.31,1028,73,2.92,128,17,0.0,Clouds,few clouds,7
Gógánfa,47.021111,17.207778,2026-03-09 07:25:03.412641,4.41,1.8,4.41,4.41,1028,73,2.99,137,18,0.0,Clouds,few clouds,7
Ukk,47.041944,17.195833,2026-03-09 07:25:04.581967,4.51,1.99,4.51,4.51,1028,72,2.9,142,19,0.0,Clouds,few clouds,7
Nemeskeresztúr,47.093611,17.183611,2026-03-09 07:25:05.750052,4.52,1.95,4.52,4.52,1028,72,2.97,147,28,0.0,Clouds,scattered clouds,7
Jánosháza,47.115833,17.171667,2026-03-09 07:25:06.918513,4.62,2.04,4.62,4.62,1028,72,3.01,150,33,0.0,Clouds,scattered clouds,7
Keszthely,46.758333,17.248056,2026-03-09 07:25:08.088854,7.08,4.94,7.08,7.08,1028,76,3.09,90,0,0.0,Clear,clear sky,7
Alsógyenes,46.765844,17.276435,2026-03-09 07:25:09.258996,7.08,4.94,7.08,7.08,1028,76,3.09,90,0,0.0,Clear,clear sky,7
Gyenesdiás,46.763333,17.292778,2026-03-09 07:25:10.430265,7.08,4.94,7.08,7.08,1028,76,3.09,90,0,0.0,Clear,clear sky,7
Vonyarcvashegy,46.755278,17.318333,2026-03-09 07:25:11.608013,7.09,4.96,7.09,7.09,1028,76,3.09,90,0,0.0,Clear,clear sky,7
Balatongyörök,46.751944,17.354444,2026-03-09 07:25:12.781782,7.11,4.98,7.11,7.11,1028,76,3.09,90,0,0.0,Clear,clear sky,7
Becehegy,46.776111,17.372778,2026-03-09 07:25:13.959945,7.08,4.94,7.08,7.08,1028,76,3.09,90,0,0.0,Clear,clear sky,7
Balatonederics,46.8025,17.385,2026-03-09 07:25:15.137383,7.03,5.04,7.03,7.03,1028,73,2.86,94,31,0.0,Clouds,scattered clouds,7
Dabronc,47.025766,17.167006,2026-03-09 07:25:16.298595,4.45,1.95,4.45,4.45,1028,73,2.86,139,16,0.0,Clouds,few clouds,7
Türje,46.994444,17.093611,2026-03-09 07:25:17.468231,4.4,2.09,4.4,4.4,1028,73,2.62,140,14,0.0,Clouds,few clouds,7
Zalabér-Batyk,46.983056,17.040833,2026-03-09 07:25:18.652580,4.48,2.25,4.48,4.48,1028,74,2.54,143,23,0.0,Clouds,few clouds,7
Pakod,46.959167,16.996667,2026-03-09 07:25:19.824440,4.39,2.16,4.39,4.39,1028,74,2.52,145,26,0.0,Clouds,scattered clouds,7
Pókaszepetk,46.924444,16.972222,2026-03-09 07:25:21.000115,4.37,1.89,4.37,4.37,1028,74,2.82,138,30,0.0,Clouds,scattered clouds,7
Kemendollár,46.905833,16.946667,2026-03-09 07:25:22.175268,6.91,4.92,6.91,6.91,1028,75,2.83,140,33,0.0,Clouds,scattered clouds,7
Zalaegerszeg,46.833056,16.848333,2026-03-09 07:25:23.345803,6.73,4.57,6.73,6.73,1028,76,3.02,136,54,0.0,Clouds,broken clouds,7
Bocfölde,46.780278,16.853611,2026-03-09 07:25:24.523390,6.79,4.52,6.79,6.79,1028,76,3.2,130,55,0.0,Clouds,broken clouds,7
Sárhida,46.755833,16.851389,2026-03-09 07:25:25.695901,6.75,4.55,6.75,6.75,1028,76,3.09,128,59,0.0,Clouds,broken clouds,7
Bak,46.7325,16.849167,2026-03-09 07:25:26.857705,6.71,4.52,6.71,6.71,1028,76,3.06,126,61,0.0,Clouds,broken clouds,7
Tófej,46.670833,16.801944,2026-03-09 07:25:28.018977,6.56,4.51,6.56,6.56,1028,75,2.82,121,67,0.0,Clouds,broken clouds,7
Gutorfölde,46.646944,16.739722,2026-03-09 07:25:29.187784,3.8,1.4,3.8,3.8,1028,75,2.59,119,71,0.0,Clouds,broken clouds,7
Csömödér-Páka,46.608056,16.641111,2026-03-09 07:25:30.350419,10.74,9.8,8.33,10.74,1027,74,2.46,117,71,0.0,Clouds,broken clouds,7
Iklódbördőce,46.603056,16.604722,2026-03-09 07:25:31.523633,10.74,9.8,8.33,10.74,1027,74,2.44,118,68,0.0,Clouds,broken clouds,7
Lenti,46.621389,16.528611,2026-03-09 07:25:32.695973,10.68,9.76,8.28,10.68,1027,75,2.38,120,66,0.0,Clouds,broken clouds,7
Rédics,46.618056,16.471111,2026-03-09 07:25:33.870718,10.68,9.79,8.27,10.68,1027,76,2.37,120,64,0.0,Clouds,broken clouds,7
Zalalövő,46.845556,16.576389,2026-03-09 07:25:35.043811,4.14,2.23,4.14,4.14,1028,77,2.13,139,74,0.0,Clouds,broken clouds,7
Zalaegerszeg-Ola,46.849167,16.844722,2026-03-09 07:25:36.225015,4.12,1.43,4.12,4.12,1028,76,3.02,136,54,0.0,Clouds,broken clouds,7
Andráshida,46.863116,16.7792,2026-03-09 07:25:37.410764,4.16,1.6,4.16,4.16,1028,76,2.87,140,55,0.0,Clouds,broken clouds,7
Bagod,46.875,16.746111,2026-03-09 07:25:38.587008,4.29,1.89,4.29,4.29,1028,76,2.7,142,60,0.0,Clouds,broken clouds,7
Zalaszentgyörgy,46.872222,16.7125,2026-03-09 07:25:39.757451,4.26,1.92,4.26,4.26,1028,76,2.62,142,63,0.0,Clouds,broken clouds,7
Zalacséb-Salomvár,46.858056,16.662222,2026-03-09 07:25:40.922608,3.8,1.54,3.8,3.8,1028,76,2.43,143,68,0.0,Clouds,broken clouds,7
Kópháza,47.631389,16.6375,2026-03-09 07:25:42.099829,6.77,4.54,6.77,8.54,1027,72,3.14,166,45,0.0,Clouds,scattered clouds,7
Nagycenk,47.601111,16.690278,2026-03-09 07:25:43.277516,6.88,4.63,6.88,8.65,1027,72,3.21,169,42,0.0,Clouds,scattered clouds,7
Sopronkövesd,47.548333,16.748056,2026-03-09 07:25:44.454011,8.48,6.55,6.71,8.48,1027,72,3.23,173,34,0.0,Clouds,scattered clouds,7
Lövő,47.509444,16.7775,2026-03-09 07:25:45.634693,8.52,6.58,6.75,8.52,1027,72,3.25,174,30,0.0,Clouds,scattered clouds,7
Újkér,47.457778,16.786667,2026-03-09 07:25:46.807617,8.54,6.8,8.54,8.54,1028,72,2.93,181,27,0.0,Clouds,scattered clouds,7
Bük,47.388611,16.752222,2026-03-09 07:25:47.977231,8.6,7.17,8.6,8.6,1028,72,2.49,194,28,0.0,Clouds,scattered clouds,7
Acsád,47.308333,16.734722,2026-03-09 07:25:49.150993,8.35,7.09,8.35,8.35,1028,72,2.21,199,35,0.0,Clouds,scattered clouds,7
Salköveskút-Vassurány,47.291389,16.704167,2026-03-09 07:25:50.323904,8.36,7.15,8.36,8.36,1028,72,2.16,199,36,0.0,Clouds,scattered clouds,7
Zalaszentiván,46.8875,16.909444,2026-03-09 07:25:51.495132,6.89,4.81,6.89,6.89,1028,75,2.95,140,43,0.0,Clouds,scattered clouds,7
Alsónemesapáti,46.854167,16.936389,2026-03-09 07:25:52.657615,6.86,4.65,6.86,6.86,1028,75,3.13,134,38,0.0,Clouds,scattered clouds,7
Józsa,47.600833,21.584444,2026-03-09 07:25:53.832334,5.86,4.88,5.86,5.86,1031,65,1.54,90,0,0.0,Clear,clear sky,7
Hajdúszentgyörgy,47.608056,21.578333,2026-03-09 07:25:55.008238,5.83,4.84,5.83,5.83,1031,65,1.54,90,0,0.0,Clear,clear sky,7
Zelemér,47.627778,21.578333,2026-03-09 07:25:56.180009,5.78,4.79,5.78,5.78,1031,65,1.54,90,0,0.0,Clear,clear sky,7
Hajdúböszörmény,47.668056,21.524167,2026-03-09 07:25:57.342050,5.85,4.68,5.85,5.85,1031,68,1.7,263,5,0.0,Clear,clear sky,7
Hajdúvid,47.749444,21.508056,2026-03-09 07:25:58.515422,5.82,5.82,5.82,5.82,1031,68,1.22,253,5,0.0,Clear,clear sky,7
Hajdúdorog,47.805556,21.493056,2026-03-09 07:25:59.685901,5.86,5.86,5.86,5.86,1031,68,0.76,251,5,0.0,Clear,clear sky,7
Hajdúnánás,47.831944,21.426667,2026-03-09 07:26:00.854832,6.03,6.03,6.03,6.03,1031,68,0.43,288,4,0.0,Clear,clear sky,7
Hajdúnánás-Vásártér,47.843056,21.407222,2026-03-09 07:26:02.030092,6.03,6.03,6.03,6.03,1031,68,0.43,288,4,0.0,Clear,clear sky,7
Tedej,47.903611,21.404444,2026-03-09 07:26:03.198728,6.05,6.05,6.05,6.05,1031,69,0.77,36,5,0.0,Clear,clear sky,7
Tiszavasvári,47.945278,21.374722,2026-03-09 07:26:04.369817,6.07,6.07,6.07,6.07,1031,69,1.17,42,5,0.0,Clear,clear sky,7
Egyházerdő,47.9725,21.365,2026-03-09 07:26:05.541466,6.09,5.27,6.09,6.09,1031,69,1.44,46,5,0.0,Clear,clear sky,7
Tiszalök,48.013056,21.369167,2026-03-09 07:26:06.713968,6.05,4.74,6.05,6.05,1031,70,1.85,49,5,0.0,Clear,clear sky,7
Hajnalos,47.998889,21.414167,2026-03-09 07:26:07.886925,6.06,5.06,6.06,6.06,1031,69,1.58,47,5,0.0,Clear,clear sky,7
Kisfástanya,47.989167,21.47,2026-03-09 07:26:09.057826,6.0,5.13,6.0,6.0,1031,69,1.47,47,5,0.0,Clear,clear sky,7
Tiszaeszlár,48.010556,21.491944,2026-03-09 07:26:10.236060,6.0,5.03,6.0,6.0,1031,69,1.55,49,5,0.0,Clear,clear sky,7
Bashalom,48.026111,21.514722,2026-03-09 07:26:11.410983,6.02,4.85,6.02,6.02,1031,69,1.72,49,5,0.0,Clear,clear sky,7
Sáránd,47.415556,21.625,2026-03-09 07:26:12.580711,6.01,5.05,6.01,6.01,1031,65,1.54,90,0,0.0,Clear,clear sky,7
Derecske,47.365,21.584167,2026-03-09 07:26:13.758832,6.08,5.13,6.08,6.08,1031,65,1.54,90,0,0.0,Clear,clear sky,7
Derecske-Vásártér,47.352222,21.58,2026-03-09 07:26:14.938725,6.08,5.13,6.08,6.08,1031,65,1.54,90,0,0.0,Clear,clear sky,7
Konyár,47.323611,21.666111,2026-03-09 07:26:16.114030,6.05,5.09,6.05,6.05,1031,65,1.54,90,0,0.0,Clear,clear sky,7
Konyári Sóstófürdő,47.324167,21.744444,2026-03-09 07:26:17.286840,6.06,5.01,6.06,6.06,1031,66,1.62,303,6,0.0,Clear,clear sky,7
Pocsaj-Esztár,47.288333,21.793056,2026-03-09 07:26:18.463181,6.05,5.16,6.05,8.02,1031,66,1.49,303,5,0.0,Clear,clear sky,7
Kismarja,47.243889,21.813889,2026-03-09 07:26:19.637043,8.02,7.52,8.02,8.24,1031,65,1.39,310,6,0.0,Clear,clear sky,7
Nagykereki,47.191667,21.8,2026-03-09 07:26:20.809527,8.01,8.01,8.01,8.23,1031,53,1.26,320,6,0.0,Clear,clear sky,7
Debrecen-Szabadságtelep,47.527778,21.658611,2026-03-09 07:26:21.981140,5.89,4.91,5.89,5.89,1031,65,1.54,90,0,0.0,Clear,clear sky,7
Kondoroskert,47.525556,21.713889,2026-03-09 07:26:23.159472,5.92,4.95,5.92,5.92,1031,65,1.54,90,0,0.0,Clear,clear sky,7
Nagycsere,47.523889,21.763056,2026-03-09 07:26:24.333606,5.9,4.92,5.9,5.9,1031,65,1.54,90,0,0.0,Clear,clear sky,7
Haláp,47.521667,21.818333,2026-03-09 07:26:25.510229,5.9,4.92,5.9,5.9,1031,65,1.54,90,0,0.0,Clear,clear sky,7
Vámospércs,47.518056,21.893889,2026-03-09 07:26:26.680573,5.84,5.84,5.84,5.84,1031,67,0.83,247,0,0.0,Clear,clear sky,7
Szentannapuszta,47.52,21.965833,2026-03-09 07:26:27.854968,5.79,5.79,5.79,5.79,1031,66,0.74,225,0,0.0,Clear,clear sky,7
Nyírábrány,47.523889,22.016944,2026-03-09 07:26:29.026862,5.29,5.29,5.29,5.29,1031,66,0.71,216,0,0.0,Clear,clear sky,7
Dombostanya,47.602778,21.706389,2026-03-09 07:26:30.205831,5.82,4.83,5.82,5.82,1031,65,1.54,90,0,0.0,Clear,clear sky,7
Hajdúsámson,47.608056,21.755278,2026-03-09 07:26:31.393097,5.82,4.83,5.82,5.82,1031,65,1.54,90,0,0.0,Clear,clear sky,7
Tamásipuszta,47.632778,21.796111,2026-03-09 07:26:32.565000,5.77,5.77,5.77,5.77,1031,67,0.9,241,0,0.0,Clear,clear sky,7
Aradványpuszta,47.662778,21.8425,2026-03-09 07:26:33.746281,5.72,5.72,5.72,5.72,1031,67,0.8,219,0,0.0,Clear,clear sky,7
Nyíradony,47.699444,21.903333,2026-03-09 07:26:34.918271,5.26,5.26,5.26,5.26,1031,66,1.1,161,0,0.0,Clear,clear sky,7
Nyírmihálydi,47.7375,21.958889,2026-03-09 07:26:36.082060,5.24,4.33,5.24,5.24,1031,66,1.42,150,0,0.0,Clear,clear sky,7
Nyírgelse,47.750833,21.987778,2026-03-09 07:26:37.261525,5.18,3.81,5.18,5.18,1031,65,1.78,144,0,0.0,Clear,clear sky,7
Nyírbogát,47.793056,22.066389,2026-03-09 07:26:38.435313,5.23,2.85,5.23,5.23,1031,64,2.91,137,0,0.0,Clear,clear sky,7
Nagykálló,47.871111,21.825833,2026-03-09 07:26:39.608798,5.6,4.23,5.6,5.6,1031,65,1.84,159,2,0.0,Clear,clear sky,7
Kállósemjén,47.854722,21.935,2026-03-09 07:26:40.791853,5.49,3.75,5.49,5.49,1031,65,2.2,150,1,0.0,Clear,clear sky,7
Nyírbátor,47.8425,22.131111,2026-03-09 07:26:41.961615,5.18,2.47,5.18,5.18,1031,64,3.36,136,0,0.0,Clear,clear sky,7
Nyírcsászári,47.865556,22.179167,2026-03-09 07:26:43.125521,5.18,2.11,5.18,5.18,1031,63,3.95,136,0,0.0,Clear,clear sky,7
Hodász,47.896111,22.213611,2026-03-09 07:26:44.301547,5.13,1.83,5.13,5.13,1031,63,4.35,135,0,0.0,Clear,clear sky,7
Nyírmeggyes,47.9225,22.256667,2026-03-09 07:26:45.471479,5.2,1.86,5.2,5.2,1031,63,4.45,136,0,0.0,Clear,clear sky,7
Mátészalka,47.951389,22.313333,2026-03-09 07:26:46.651806,5.24,1.9,5.24,5.24,1031,63,4.47,136,0,0.0,Clear,clear sky,7
Kocsord,47.941944,22.375833,2026-03-09 07:26:47.813920,5.27,1.85,5.27,5.27,1032,62,4.64,135,0,0.0,Clear,clear sky,7
Kocsord alsó,47.946389,22.400556,2026-03-09 07:26:48.989883,5.27,1.85,5.27,5.27,1032,62,4.64,135,0,0.0,Clear,clear sky,7
Győrtelek,47.936667,22.424722,2026-03-09 07:26:50.162834,5.24,1.82,5.24,5.24,1032,62,4.62,135,0,0.0,Clear,clear sky,7
Győrtelek alsó,47.921111,22.443333,2026-03-09 07:26:51.333892,5.18,1.74,5.18,5.18,1032,61,4.64,135,0,0.0,Clear,clear sky,7
Ököritófülpös,47.911389,22.495,2026-03-09 07:26:52.510787,5.14,1.72,5.14,5.14,1032,61,4.57,135,0,0.0,Clear,clear sky,7
Porcsalma-Tyukod,47.868056,22.568333,2026-03-09 07:26:53.682860,8.95,6.55,8.95,9.05,1032,59,4.36,135,0,0.0,Clear,clear sky,7
Csenger,47.826111,22.666389,2026-03-09 07:26:54.860394,8.94,6.61,8.94,9.04,1032,59,4.18,135,0,0.0,Clear,clear sky,7
Kisfái,46.888303,19.807366,2026-03-09 07:26:56.030669,5.02,3.92,5.02,6.59,1030,70,1.54,90,0,0.0,Clear,clear sky,7
Nyárlőrinci szőlők,46.8775,19.828333,2026-03-09 07:26:57.202111,5.03,3.93,5.03,6.59,1030,70,1.54,90,0,0.0,Clear,clear sky,7
Nyárlőrinc alsó,46.863889,19.878889,2026-03-09 07:26:58.366381,5.05,3.95,5.05,6.62,1030,70,1.54,90,0,0.0,Clear,clear sky,7
Tiszaug-Tiszahídfő,46.866106,20.052098,2026-03-09 07:26:59.543232,6.86,4.16,6.77,8.9,1030,69,3.97,176,3,0.0,Clear,clear sky,7
Csongrádi úti tanyák,46.690278,19.921667,2026-03-09 07:27:00.719700,7.37,4.24,6.72,9.97,1030,69,5.14,170,7,0.0,Clear,clear sky,7
Kettőshalom,46.689167,20.0225,2026-03-09 07:27:01.894731,9.01,6.38,6.75,10.01,1030,62,4.93,173,6,0.0,Clear,clear sky,7
Csongrád alsó,46.711389,20.126389,2026-03-09 07:27:03.072526,9.86,7.61,6.75,10.01,1030,51,4.51,176,5,0.0,Clear,clear sky,7
Dónát,46.66988,20.368168,2026-03-09 07:27:04.250300,8.91,8.59,8.91,10.03,1030,47,1.34,82,5,0.0,Clear,clear sky,7
Pusztatemplom,46.676667,20.407222,2026-03-09 07:27:05.427428,8.9,8.58,8.9,10.01,1030,47,1.34,82,6,0.0,Clear,clear sky,7
Előhát,47.364722,20.653611,2026-03-09 07:27:06.603988,7.78,7.78,7.78,7.78,1031,69,1.21,248,12,0.0,Clouds,few clouds,7
Polgárdi-Tekerespuszta,47.017778,18.297778,2026-03-09 07:27:07.783895,4.62,1.49,4.62,4.62,1029,68,3.84,141,96,0.0,Clouds,overcast clouds,7
Szatina-Kishajmás,46.202778,18.083611,2026-03-09 07:27:08.963146,5.25,2.37,5.25,5.25,1028,72,3.65,124,96,0.0,Clouds,overcast clouds,7
Márok,45.886944,18.499167,2026-03-09 07:27:10.132686,5.94,5.94,5.47,5.94,1029,74,0.45,345,24,0.0,Clouds,few clouds,7
Nagynyárád,45.953333,18.564722,2026-03-09 07:27:11.309469,6.01,2.69,5.53,6.01,1029,74,4.81,117,48,0.0,Clouds,scattered clouds,7
Szászvár,46.2875,18.369722222222222,2026-03-09 07:27:12.485379,8.57,5.79,8.57,8.57,1029,71,5.02,135,100,0.0,Clouds,overcast clouds,7
Cikó,46.263514,18.557605,2026-03-09 07:27:13.646715,8.8,5.96,8.8,8.8,1029,69,5.32,138,100,0.0,Clouds,overcast clouds,7
Gyöngyfa-Magyarmecske,45.983889,17.958889,2026-03-09 07:27:14.819896,5.57,2.27,5.57,5.57,1028,74,4.55,103,62,0.0,Clouds,broken clouds,7
Nagyhát,47.581389,21.445,2026-03-09 07:27:15.996582,5.92,4.95,5.92,5.92,1031,65,1.54,90,0,0.0,Clear,clear sky,7
Balmazújváros,47.613889,21.348056,2026-03-09 07:27:17.177046,6.1,4.62,6.1,6.1,1031,69,2.03,279,10,0.0,Clear,clear sky,7
Kónya,47.600833,21.2375,2026-03-09 07:27:18.355666,5.98,4.46,5.98,5.98,1031,69,2.05,284,13,0.0,Clouds,few clouds,7
Hortobágy,47.586111,21.154722,2026-03-09 07:27:19.532039,6.05,4.62,6.05,6.05,1031,69,1.97,287,14,0.0,Clouds,few clouds,7
Hortobágyi Halastó,47.604167,21.074167,2026-03-09 07:27:20.703791,6.09,4.75,6.09,6.09,1031,70,1.89,289,14,0.0,Clouds,few clouds,7
Ohat-Pusztakócs,47.623333,20.951111,2026-03-09 07:27:21.872677,6.15,5.11,6.15,6.15,1031,70,1.62,297,14,0.0,Clouds,few clouds,7
Egyek,47.616944,20.883611,2026-03-09 07:27:23.151887,7.75,7.18,7.75,7.75,1031,71,1.42,302,14,0.0,Clouds,few clouds,7
Tiszafüred,47.627778,20.756111,2026-03-09 07:27:24.327589,7.75,7.75,7.75,7.75,1031,71,1.21,307,14,0.0,Clouds,few clouds,7
Poroszló,47.657778,20.654444,2026-03-09 07:27:25.496673,7.76,7.76,7.76,7.76,1031,71,0.88,327,15,0.0,Clouds,few clouds,7
Kétútköz,47.694167,20.565,2026-03-09 07:27:26.669692,7.73,7.73,7.73,7.73,1031,71,0.77,360,16,0.0,Clouds,few clouds,7
Egerfarmos,47.711667,20.5225,2026-03-09 07:27:27.841584,7.71,7.71,7.71,7.71,1031,71,0.69,6,15,0.0,Clouds,few clouds,7
Piliscsaba,47.638056,18.829722,2026-03-09 07:27:29.017330,8.4,8.4,7.56,9.1,1030,57,0.89,222,21,0.0,Clouds,few clouds,7
Pilisjászfalu,47.656111,18.797778,2026-03-09 07:27:30.196060,8.73,7.48,7.81,9.36,1030,54,2.28,125,23,0.0,Clouds,few clouds,7
Leányvár,47.687594,18.772553,2026-03-09 07:27:31.364754,8.96,7.76,7.98,9.52,1030,54,2.27,123,22,0.0,Clouds,few clouds,7
Dorog,47.723333,18.732778,2026-03-09 07:27:32.527752,9.03,7.78,8.51,9.03,1030,70,2.36,123,20,0.0,Clouds,few clouds,7
Esztergom-Kertváros,47.743333,18.719167,2026-03-09 07:27:33.701284,9.23,8.0,9.23,9.23,1030,70,2.37,123,17,0.0,Clouds,few clouds,7
Esztergom,47.7775,18.743611,2026-03-09 07:27:34.880050,9.29,8.16,9.29,9.29,1030,71,2.26,121,11,0.0,Clouds,few clouds,7
Dunaalmás,47.733056,18.326389,2026-03-09 07:27:36.051921,4.98,2.13,4.98,4.98,1029,69,3.52,130,89,0.0,Clouds,overcast clouds,7
Neszmély,47.734444,18.345278,2026-03-09 07:27:37.231781,4.98,2.13,4.98,4.98,1029,69,3.52,130,89,0.0,Clouds,overcast clouds,7
Süttő,47.761111,18.455,2026-03-09 07:27:38.394102,4.99,2.43,4.99,4.99,1029,70,3.09,128,58,0.0,Clouds,broken clouds,7
Piszke,47.75307,18.478017,2026-03-09 07:27:39.569543,5.03,2.53,5.03,5.03,1029,70,3.01,128,51,0.0,Clouds,broken clouds,7
Lábatlan,47.751944,18.513333,2026-03-09 07:27:40.741144,5.02,2.58,5.02,5.02,1030,70,2.93,127,44,0.0,Clouds,scattered clouds,7
Eternitgyár,47.755544,18.530014,2026-03-09 07:27:41.924637,5.02,2.58,5.02,5.02,1030,70,2.93,127,44,0.0,Clouds,scattered clouds,7
Nyergesújfalu felső,47.762222,18.540556,2026-03-09 07:27:43.096362,5.02,2.58,5.02,5.02,1030,70,2.93,127,44,0.0,Clouds,scattered clouds,7
Nyergesújfalu,47.761111,18.561667,2026-03-09 07:27:44.258540,4.97,2.59,4.97,4.97,1030,70,2.84,127,38,0.0,Clouds,scattered clouds,7
Tokod,47.735,18.675,2026-03-09 07:27:45.456973,9.25,7.98,9.25,9.25,1030,70,2.44,124,22,0.0,Clouds,few clouds,7
Környe,47.541667,18.330278,2026-03-09 07:27:46.625937,4.54,1.44,4.54,4.54,1029,68,3.75,134,90,0.0,Clouds,overcast clouds,7
Kecskéd alsó,47.519722,18.316667,2026-03-09 07:27:47.809633,4.52,1.31,4.52,4.52,1029,69,3.93,135,94,0.0,Clouds,overcast clouds,7
Oroszlány,47.486944,18.308611,2026-03-09 07:27:48.971803,4.42,1.22,4.42,4.42,1029,69,3.88,134,94,0.0,Clouds,overcast clouds,7
Győrszabadhegy,47.663056,17.648056,2026-03-09 07:27:50.151041,5.08,3.4,5.08,5.08,1028,75,2.06,110,0,0.0,Clear,clear sky,7
Ménfőcsanak felső,47.638333,17.615,2026-03-09 07:27:51.327998,5.08,3.4,5.08,5.08,1028,75,2.06,110,0,0.0,Clear,clear sky,7
Gyömöre-Tét,47.501672,17.559596,2026-03-09 07:27:52.507878,8.03,7.36,4.91,8.03,1028,61,1.54,170,0,0.0,Clear,clear sky,7
Szerecseny,47.469167,17.5475,2026-03-09 07:27:53.673127,8.02,7.35,4.9,8.02,1028,61,1.54,170,0,0.0,Clear,clear sky,7
Gecse-Gyarmat,47.456111,17.515,2026-03-09 07:27:54.850365,8.05,7.38,4.94,8.05,1028,61,1.54,170,0,0.0,Clear,clear sky,7
Vaszar,47.4025,17.496389,2026-03-09 07:27:56.022074,8.08,7.41,8.08,8.08,1028,61,1.54,170,0,0.0,Clear,clear sky,7
Pápa,47.340556,17.458889,2026-03-09 07:27:57.194146,8.03,7.36,8.03,8.03,1028,61,1.54,170,0,0.0,Clear,clear sky,7
Mezőlak,47.324722,17.371389,2026-03-09 07:27:58.363741,8.11,7.45,8.11,8.11,1028,61,1.54,170,0,0.0,Clear,clear sky,7
Mihályháza,47.318889,17.331667,2026-03-09 07:27:59.536392,8.14,7.48,8.14,8.14,1028,61,1.54,170,0,0.0,Clear,clear sky,7
Vinár,47.306667,17.284722,2026-03-09 07:28:00.712156,8.1,7.44,8.1,8.1,1028,61,1.54,170,0,0.0,Clear,clear sky,7
Külsővat,47.279167,17.219722,2026-03-09 07:28:01.895469,8.12,6.2,8.12,8.12,1028,71,3.08,161,51,0.0,Clouds,broken clouds,7
Celldömölk,47.261389,17.151944,2026-03-09 07:28:03.055887,8.05,6.36,8.05,8.05,1028,72,2.72,164,44,0.0,Clouds,scattered clouds,7
Kemenesmihályfa,47.278056,17.111111,2026-03-09 07:28:04.228376,4.54,2.36,4.54,4.54,1028,72,2.5,169,40,0.0,Clouds,scattered clouds,7
Nagysimonyi,47.265556,17.058889,2026-03-09 07:28:05.405086,4.61,2.76,4.61,4.61,1028,72,2.15,174,34,0.0,Clouds,scattered clouds,7
Ostffyasszonyfa,47.283889,17.023889,2026-03-09 07:28:06.577892,4.74,2.97,4.74,4.74,1028,73,2.09,179,31,0.0,Clouds,scattered clouds,7
Sárvár,47.259167,16.928889,2026-03-09 07:28:07.746959,4.82,3.25,4.82,4.82,1028,74,1.91,194,21,0.0,Clouds,few clouds,7
Porpác,47.238611,16.8325,2026-03-09 07:28:08.921128,8.62,7.64,8.62,8.62,1028,74,1.94,197,22,0.0,Clouds,few clouds,7
Balatonföldvár,46.853889,17.881389,2026-03-09 07:28:10.084997,6.65,3.65,6.65,6.65,1029,56,4.47,45,30,0.0,Clouds,scattered clouds,7
Balatonszárszó,46.832222,17.830278,2026-03-09 07:28:11.255333,7.21,5.04,7.21,7.21,1029,56,3.19,116,38,0.0,Clouds,scattered clouds,7
Balatonszemes,46.811944,17.776389,2026-03-09 07:28:12.417918,6.54,4.22,6.54,6.54,1029,56,3.21,116,48,0.0,Clouds,scattered clouds,7
Balatonlelle felső,46.793889,17.7175,2026-03-09 07:28:13.602086,7.21,5.08,7.21,7.21,1029,56,3.12,108,60,0.0,Clouds,broken clouds,7
Balatonlelle,46.7875,17.694167,2026-03-09 07:28:14.778340,7.17,5.04,7.17,7.17,1029,71,3.11,105,61,0.0,Clouds,broken clouds,7
Fonyódliget,46.759167,17.592222,2026-03-09 07:28:15.951128,7.19,5.06,7.19,7.19,1028,71,3.12,100,61,0.0,Clouds,broken clouds,7
