station_name,station_lat,station_lon,observation_time,temp,feels_like,temp_min,temp_max,pressure,humidity,wind_speed,wind_deg,clouds,precipitation_1h,weather_main,weather_description,collection_hour
Búcsúszentlászló,46.793056,16.932778,2026-03-18 21:42:00.504220,7.9,4.81,7.9,7.9,1023,56,5.38,68,99,0.0,Clouds,overcast clouds,21
Angyalföld,47.549722,19.09,2026-03-18 21:42:01.796380,8.46,5.48,8.46,8.46,1023,47,5.46,50,8,0.0,Clear,clear sky,21
Felsőjánosfa,46.841389,16.544167,2026-03-18 21:42:03.065582,7.58,5.29,7.58,7.58,1023,63,3.52,46,96,0.0,Clouds,overcast clouds,21
Pankasz,46.835833,16.496111,2026-03-18 21:42:04.337638,7.31,4.89,7.31,7.31,1023,64,3.65,43,97,0.0,Clouds,overcast clouds,21
Nagyrákos,46.827222,16.455556,2026-03-18 21:42:05.609232,7.28,4.81,7.28,7.28,1023,64,3.72,42,97,0.0,Clouds,overcast clouds,21
Őriszentpéter,46.828889,16.415278,2026-03-18 21:42:06.879661,7.4,4.91,7.4,7.4,1023,65,3.8,39,97,0.0,Clouds,overcast clouds,21
Törökbálint,47.45,18.908611,2026-03-18 21:42:08.146778,8.03,4.66,8.03,8.03,1023,47,6.23,52,7,0.0,Clear,clear sky,21
Bicske alsó,47.486389,18.642778,2026-03-18 21:42:09.427381,7.92,4.46,7.92,7.92,1024,51,6.41,53,11,0.0,Clouds,few clouds,21
Bajánsenye,46.818056,16.358056,2026-03-18 21:42:10.699032,7.54,5.05,7.54,7.54,1023,65,3.87,39,98,0.0,Clouds,overcast clouds,21
Aquincum,47.566218,19.048273,2026-03-18 21:42:11.975986,8.06,4.94,8.06,8.06,1023,48,5.57,51,7,0.0,Clear,clear sky,21
Piliscsév,47.673889,18.791389,2026-03-18 21:42:13.243883,7.79,4.73,7.79,7.79,1024,51,5.23,55,5,0.0,Clear,clear sky,21
Tát,47.741201,18.64783,2026-03-18 21:42:14.509530,8.23,5.31,8.23,8.23,1024,51,5.16,65,2,0.0,Clear,clear sky,21
Süttő felső,47.756667,18.437222,2026-03-18 21:42:15.775553,8.16,4.92,8.16,8.16,1024,51,5.97,73,2,0.0,Clear,clear sky,21
Budatétény,47.405,19.016389,2026-03-18 21:42:17.040298,8.23,5.05,8.23,8.23,1023,46,5.84,51,4,0.0,Clear,clear sky,21
Seregélyes-Szőlőhegy,47.119444,18.612222,2026-03-18 21:42:18.314381,8.24,5.03,8.24,8.24,1023,49,5.94,54,46,0.0,Clouds,scattered clouds,21
Gödöllő-Állami telepek,47.564444,19.375556,2026-03-18 21:42:19.587294,7.68,4.5,7.68,7.68,1023,49,5.46,45,8,0.0,Clear,clear sky,21
Dunakeszi alsó,47.607778,19.128889,2026-03-18 21:42:20.851429,8.38,5.41,8.38,8.38,1024,48,5.38,49,7,0.0,Clear,clear sky,21
Vác-Alsóváros,47.773056,19.149722,2026-03-18 21:42:22.128368,8.16,5.15,8.16,8.16,1024,53,5.35,52,1,0.0,Clear,clear sky,21
Szob alsó,47.816667,18.8725,2026-03-18 21:42:23.394042,8.25,5.44,8.25,8.25,1024,53,4.9,60,1,0.0,Clear,clear sky,21
Zalaszentmihály-Pacsa,46.7225,16.951944,2026-03-18 21:42:24.665541,7.96,4.77,7.96,7.96,1023,56,5.68,69,100,0.0,Clouds,overcast clouds,21
Pötréte,46.682778,16.9575,2026-03-18 21:42:25.937013,8.02,4.78,8.02,8.02,1022,56,5.85,69,100,0.0,Clouds,overcast clouds,21
Felsőrajk,46.667222,16.982778,2026-03-18 21:42:27.208059,8.0,4.68,8.0,8.0,1022,56,6.07,69,100,0.0,Clouds,overcast clouds,21
Gelse,46.600556,16.982778,2026-03-18 21:42:28.481948,8.02,4.69,8.02,8.02,1022,57,6.12,65,100,0.0,Clouds,overcast clouds,21
Őrtilos,46.297778,16.887778,2026-03-18 21:42:29.752751,8.24,4.98,8.24,8.24,1022,57,6.09,54,100,0.0,Clouds,overcast clouds,21
Zákány,46.251944,16.9425,2026-03-18 21:42:31.025837,8.0,4.58,8.0,8.0,1022,56,6.35,54,100,0.0,Clouds,overcast clouds,21
Berzence,46.201389,17.143611,2026-03-18 21:42:32.295923,8.23,4.89,8.23,8.23,1022,53,6.31,55,100,0.0,Clouds,overcast clouds,21
Somogyudvarhely,46.163333,17.179722,2026-03-18 21:42:33.567802,8.18,4.88,8.18,8.18,1021,53,6.16,55,100,0.0,Clouds,overcast clouds,21
Bélavár,46.122778,17.207778,2026-03-18 21:42:34.836833,8.17,4.99,8.17,8.17,1021,53,5.8,54,100,0.0,Clouds,overcast clouds,21
Vízvár,46.101389,17.239444,2026-03-18 21:42:36.109836,8.03,4.9,8.03,8.03,1021,54,5.57,53,100,0.0,Clouds,overcast clouds,21
Babócsa,46.028359,17.342276,2026-03-18 21:42:37.380731,7.93,4.96,7.93,7.93,1021,55,5.09,52,100,0.0,Clouds,overcast clouds,21
Péterhida-Komlósd,46.006667,17.358056,2026-03-18 21:42:38.654277,7.93,5.08,7.93,7.93,1021,56,4.81,51,100,0.0,Clouds,overcast clouds,21
Barcs,45.951944,17.446944,2026-03-18 21:42:39.929945,7.82,5.23,7.82,7.82,1021,58,4.18,51,100,0.0,Clouds,overcast clouds,21
Barcs felső,45.958333,17.486389,2026-03-18 21:42:41.203652,7.72,5.09,7.72,7.72,1021,58,4.22,51,100,0.0,Clouds,overcast clouds,21
Középrigóc,45.970556,17.525,2026-03-18 21:42:42.474114,7.61,4.93,7.61,7.61,1021,58,4.28,50,100,0.0,Clouds,overcast clouds,21
Darány,45.992222,17.598611,2026-03-18 21:42:43.739366,7.63,4.67,7.63,7.63,1021,57,4.9,49,100,0.0,Clouds,overcast clouds,21
Kisdobsza,46.012222,17.668056,2026-03-18 21:42:45.005876,7.7,4.57,7.7,7.7,1021,56,5.36,48,100,0.0,Clouds,overcast clouds,21
Nemeske,46.023333,17.705278,2026-03-18 21:42:46.288002,7.72,4.58,7.72,7.72,1021,56,5.39,48,100,0.0,Clouds,overcast clouds,21
Molvány,46.035278,17.748611,2026-03-18 21:42:47.563575,7.73,4.5,7.73,7.73,1021,56,5.62,48,100,0.0,Clouds,overcast clouds,21
Szigetvár,46.043333,17.801944,2026-03-18 21:42:48.828867,7.72,4.51,7.72,7.72,1021,55,5.57,48,100,0.0,Clouds,overcast clouds,21
Nagypeterd,46.039444,17.871667,2026-03-18 21:42:50.099784,7.73,4.58,7.73,7.73,1021,55,5.42,49,100,0.0,Clouds,overcast clouds,21
Szentdénes,46.036667,17.926944,2026-03-18 21:42:51.368401,7.68,4.55,7.68,7.68,1021,54,5.33,50,100,0.0,Clouds,overcast clouds,21
Háros,47.412222,19.035,2026-03-18 21:42:52.637443,8.23,5.05,8.23,8.23,1023,46,5.84,51,4,0.0,Clear,clear sky,21
Nagytétény-Diósd,47.398333,18.974444,2026-03-18 21:42:53.911002,8.52,5.38,8.52,8.52,1023,46,5.95,52,4,0.0,Clear,clear sky,21
Érdliget,47.390278,18.937778,2026-03-18 21:42:55.181071,8.42,5.22,8.42,8.42,1023,47,6.06,52,5,0.0,Clear,clear sky,21
Érd felső,47.381111,18.922222,2026-03-18 21:42:56.453339,8.06,4.72,8.06,8.06,1023,47,6.17,52,6,0.0,Clear,clear sky,21
Érd,47.369722,18.900833,2026-03-18 21:42:57.726733,8.22,4.94,8.22,8.22,1023,47,6.12,52,6,0.0,Clear,clear sky,21
Százhalombatta,47.322222,18.899167,2026-03-18 21:42:58.991020,8.25,5.01,8.25,8.25,1023,48,6.04,52,7,0.0,Clear,clear sky,21
Dunai Finomító,47.294444,18.878889,2026-03-18 21:43:00.265692,8.13,4.85,8.13,8.13,1023,48,6.05,52,13,0.0,Clouds,few clouds,21
Ercsi,47.247222,18.875278,2026-03-18 21:43:01.535372,8.25,5.01,8.25,8.25,1023,48,6.02,52,15,0.0,Clouds,few clouds,21
Iváncsa,47.177778,18.811944,2026-03-18 21:43:02.799316,8.21,4.97,8.21,8.21,1023,48,6.01,53,28,0.0,Clouds,scattered clouds,21
Pusztaszabolcs,47.139722,18.761667,2026-03-18 21:43:04.070032,8.27,5.01,8.27,8.27,1023,49,6.11,54,36,0.0,Clouds,scattered clouds,21
Szabadegyháza,47.082778,18.704167,2026-03-18 21:43:05.344819,8.24,4.94,8.24,8.24,1023,49,6.19,54,44,0.0,Clouds,scattered clouds,21
Sárosd,47.039722,18.660278,2026-03-18 21:43:06.615400,8.27,4.98,8.27,8.27,1023,49,6.18,55,49,0.0,Clouds,scattered clouds,21
Nagylók,46.979444,18.635833,2026-03-18 21:43:07.881437,8.12,4.72,8.12,8.12,1023,49,6.4,56,52,0.0,Clouds,broken clouds,21
Sárbogárd,46.896944,18.611944,2026-03-18 21:43:09.153014,8.31,4.9,8.31,8.31,1023,50,6.58,56,56,0.0,Clouds,broken clouds,21
Rétszilas,46.814167,18.601389,2026-03-18 21:43:10.431473,8.36,4.92,8.36,8.36,1023,50,6.72,55,60,0.0,Clouds,broken clouds,21
Nagyatád,46.228611,17.354167,2026-03-18 21:43:11.699997,8.09,4.8,8.09,8.09,1022,50,6.05,55,100,0.0,Clouds,overcast clouds,21
Budapest-Keleti,47.500278,19.084167,2026-03-18 21:43:12.962586,8.48,5.43,8.48,8.48,1023,46,5.67,51,6,0.0,Clear,clear sky,21
Ferencváros,47.468611,19.088056,2026-03-18 21:43:14.227856,8.55,5.51,8.55,8.55,1023,46,5.7,51,6,0.0,Clear,clear sky,21
Budapest-Nyugati,47.510833,19.0575,2026-03-18 21:43:15.508111,8.49,5.46,8.49,8.49,1023,46,5.63,51,7,0.0,Clear,clear sky,21
Kőbánya felső,47.491944,19.133889,2026-03-18 21:43:16.773774,8.37,5.36,8.37,8.37,1023,45,5.49,49,8,0.0,Clear,clear sky,21
Rákos,47.488889,19.174722,2026-03-18 21:43:18.044825,8.27,5.24,8.27,8.27,1023,45,5.46,48,9,0.0,Clear,clear sky,21
Rákosrendező,47.525556,19.089444,2026-03-18 21:43:19.328017,8.46,5.47,8.46,8.46,1023,46,5.5,50,8,0.0,Clear,clear sky,21
Zugló,47.511389,19.101389,2026-03-18 21:43:20.598442,8.46,5.47,8.46,8.46,1023,46,5.5,50,8,0.0,Clear,clear sky,21
Mezőtárkány,47.725,20.480278,2026-03-18 21:43:21.866406,7.71,3.76,7.71,7.71,1023,59,7.79,44,0,0.0,Clear,clear sky,21
Istvántelek,47.550278,19.106389,2026-03-18 21:43:23.139850,8.46,5.48,8.46,8.46,1023,47,5.46,50,8,0.0,Clear,clear sky,21
Rákospalota-Újpest,47.565833,19.111944,2026-03-18 21:43:24.415869,8.44,5.47,8.44,8.44,1023,47,5.43,50,7,0.0,Clear,clear sky,21
Kőbánya alsó,47.483056,19.127222,2026-03-18 21:43:25.693648,8.37,5.36,8.37,8.37,1023,45,5.49,49,8,0.0,Clear,clear sky,21
Kőbánya-Kispest,47.463889,19.149444,2026-03-18 21:43:26.964720,8.36,5.34,8.36,8.36,1023,45,5.51,49,7,0.0,Clear,clear sky,21
Pestszentlőrinc,47.454722,19.182778,2026-03-18 21:43:28.235667,8.23,5.17,8.23,8.23,1023,45,5.52,48,8,0.0,Clear,clear sky,21
Kispest,47.448135,19.157552,2026-03-18 21:43:29.503777,8.38,5.35,8.38,8.38,1023,45,5.54,49,7,0.0,Clear,clear sky,21
Újpest,47.558889,19.079722,2026-03-18 21:43:30.778876,8.51,5.51,8.51,8.51,1023,47,5.57,51,7,0.0,Clear,clear sky,21
Pestszentimre felső,47.413611,19.173333,2026-03-18 21:43:32.042367,8.24,5.17,8.24,8.24,1023,45,5.55,49,8,0.0,Clear,clear sky,21
Dunakeszi,47.626111,19.136111,2026-03-18 21:43:33.311288,8.3,5.32,8.3,8.3,1024,49,5.35,49,6,0.0,Clear,clear sky,21
Dunakeszi-Gyártelep,47.643611,19.135,2026-03-18 21:43:34.577916,8.32,5.36,8.32,8.32,1024,49,5.33,49,5,0.0,Clear,clear sky,21
Alsógöd,47.676944,19.134444,2026-03-18 21:43:35.842465,8.31,5.35,8.31,8.31,1024,50,5.31,50,4,0.0,Clear,clear sky,21
Göd,47.687778,19.1375,2026-03-18 21:43:37.113405,8.31,5.35,8.31,8.31,1024,50,5.31,50,4,0.0,Clear,clear sky,21
Felsőgöd,47.705556,19.143333,2026-03-18 21:43:38.393086,8.34,5.39,8.34,8.34,1024,51,5.31,50,3,0.0,Clear,clear sky,21
Sződ-Sződliget,47.728056,19.154722,2026-03-18 21:43:39.666171,8.34,5.39,8.34,8.34,1024,52,5.31,51,2,0.0,Clear,clear sky,21
Vác,47.782778,19.133056,2026-03-18 21:43:40.942696,8.16,5.15,8.16,8.16,1024,53,5.35,52,1,0.0,Clear,clear sky,21
Verőce,47.823889,19.029444,2026-03-18 21:43:42.212296,7.43,4.33,7.43,7.43,1024,54,5.1,55,1,0.0,Clear,clear sky,21
Kismaros,47.8275,19.010278,2026-03-18 21:43:43.475609,6.66,3.39,6.66,6.66,1024,54,5.05,56,1,0.0,Clear,clear sky,21
Nagymaros-Visegrád,47.791389,18.959167,2026-03-18 21:43:44.744554,7.11,4.01,7.11,7.11,1024,53,4.93,55,1,0.0,Clear,clear sky,21
Nagymaros,47.780278,18.952222,2026-03-18 21:43:46.010515,7.11,4.01,7.11,7.11,1024,53,4.93,55,1,0.0,Clear,clear sky,21
Zebegény,47.801389,18.908889,2026-03-18 21:43:47.279517,7.8,4.87,7.8,7.8,1024,53,4.92,57,1,0.0,Clear,clear sky,21
Szob,47.821111,18.861944,2026-03-18 21:43:48.557356,7.66,4.66,7.66,7.66,1024,53,5.0,61,1,0.0,Clear,clear sky,21
Alagimajor,47.601944,19.153889,2026-03-18 21:43:49.823519,8.38,5.41,8.38,8.38,1024,48,5.38,49,7,0.0,Clear,clear sky,21
Fót,47.611389,19.181667,2026-03-18 21:43:51.095131,8.11,5.08,8.11,8.11,1024,49,5.36,49,6,0.0,Clear,clear sky,21
Fótújfalu,47.615,19.192778,2026-03-18 21:43:52.363722,8.11,5.08,8.11,8.11,1024,49,5.36,49,6,0.0,Clear,clear sky,21
Csomád,47.635556,19.222778,2026-03-18 21:43:53.632824,7.34,4.1,7.34,7.34,1024,48,5.38,48,6,0.0,Clear,clear sky,21
Veresegyház,47.649167,19.288611,2026-03-18 21:43:54.902052,7.92,4.8,7.92,7.92,1024,50,5.46,47,5,0.0,Clear,clear sky,21
Erdőkertes,47.662222,19.295833,2026-03-18 21:43:56.171590,7.92,4.8,7.92,7.92,1024,50,5.46,47,5,0.0,Clear,clear sky,21
Őrbottyán,47.685833,19.283611,2026-03-18 21:43:57.436945,7.73,4.56,7.73,7.73,1024,50,5.48,48,4,0.0,Clear,clear sky,21
Váchartyán,47.725833,19.248889,2026-03-18 21:43:58.712981,7.79,4.62,7.79,7.79,1024,51,5.51,50,2,0.0,Clear,clear sky,21
Magyarkút-Verőce,47.826111,19.044444,2026-03-18 21:43:59.985599,7.43,4.33,7.43,7.43,1024,54,5.1,55,1,0.0,Clear,clear sky,21
Szokolya,47.871111,19.030556,2026-03-18 21:44:01.278562,6.69,3.36,6.69,6.69,1024,54,5.2,58,0,0.0,Clear,clear sky,21
Berkenye,47.885278,19.071944,2026-03-18 21:44:02.545199,7.41,4.25,7.41,7.41,1024,54,5.23,57,0,0.0,Clear,clear sky,21
Nógrád,47.901944,19.0475,2026-03-18 21:44:03.812448,7.02,3.75,7.02,7.02,1024,54,5.26,59,0,0.0,Clear,clear sky,21
Diósjenő,47.94,19.049444,2026-03-18 21:44:05.091693,6.62,3.22,6.62,6.62,1024,54,5.33,60,0,0.0,Clear,clear sky,21
Borsosberény,47.971389,19.093056,2026-03-18 21:44:06.365507,7.32,4.06,7.32,7.32,1024,54,5.42,59,0,0.0,Clear,clear sky,21
Nagyoroszi,47.993611,19.101111,2026-03-18 21:44:07.630382,7.14,3.81,7.14,7.14,1024,54,5.48,60,0,0.0,Clear,clear sky,21
Drégelyvár,48.001944,19.079444,2026-03-18 21:44:08.900828,7.37,4.07,7.37,7.37,1024,54,5.57,63,0,0.0,Clear,clear sky,21
Drégely,48.042222,19.056111,2026-03-18 21:44:10.170384,7.72,4.47,7.72,7.72,1024,54,5.66,63,0,0.0,Clear,clear sky,21
Drégelypalánk,48.055,19.046111,2026-03-18 21:44:11.439920,7.84,4.58,7.84,7.84,1024,53,5.78,66,0,0.0,Clear,clear sky,21
Ipolyvece,48.056944,19.106389,2026-03-18 21:44:12.710395,7.81,4.57,7.81,7.81,1024,54,5.7,61,0,0.0,Clear,clear sky,21
Dejtár,48.045556,19.196389,2026-03-18 21:44:13.982447,7.76,4.53,7.76,7.76,1024,54,5.65,59,0,0.0,Clear,clear sky,21
Ipolyszög,48.054444,19.221944,2026-03-18 21:44:15.254561,7.76,4.5,7.76,7.76,1024,54,5.72,58,0,0.0,Clear,clear sky,21
Iklad-Domony,47.658056,19.444444,2026-03-18 21:44:16.519922,8.13,5.04,8.13,8.13,1024,51,5.52,45,4,0.0,Clear,clear sky,21
Iklad-Domony felső,47.667778,19.428056,2026-03-18 21:44:17.792440,8.09,4.99,8.09,8.09,1024,51,5.54,46,3,0.0,Clear,clear sky,21
Galgamácsa,47.693889,19.3925,2026-03-18 21:44:19.063061,7.81,4.63,7.81,7.81,1024,51,5.54,48,3,0.0,Clear,clear sky,21
Vácrátót,47.732778,19.217778,2026-03-18 21:44:20.330591,8.04,4.97,8.04,8.04,1024,51,5.43,50,2,0.0,Clear,clear sky,21
Csörög,47.735833,19.196389,2026-03-18 21:44:21.604402,8.28,5.29,8.28,8.28,1024,51,5.38,50,2,0.0,Clear,clear sky,21
Galgagyörk,47.735278,19.372222,2026-03-18 21:44:22.873238,7.87,4.69,7.87,7.87,1024,51,5.58,48,2,0.0,Clear,clear sky,21
Püspökhatvan,47.768611,19.366944,2026-03-18 21:44:24.144083,7.85,4.65,7.85,7.85,1024,52,5.64,50,1,0.0,Clear,clear sky,21
Acsa-Erdőkürt,47.801111,19.386111,2026-03-18 21:44:25.410808,7.67,4.41,7.67,7.67,1024,52,5.65,50,1,0.0,Clear,clear sky,21
Galgaguta,47.848611,19.385556,2026-03-18 21:44:26.678907,7.33,4.0,7.33,7.33,1024,53,5.61,51,0,0.0,Clear,clear sky,21
Nógrádkövesd,47.879444,19.371111,2026-03-18 21:44:27.947838,7.48,4.2,7.48,7.48,1024,53,5.59,52,0,0.0,Clear,clear sky,21
Magyarnándor,47.970833,19.356667,2026-03-18 21:44:29.222568,7.28,3.97,7.28,7.28,1024,54,5.53,54,0,0.0,Clear,clear sky,21
Mohora,47.995556,19.347778,2026-03-18 21:44:30.497721,7.37,4.08,7.37,7.37,1024,54,5.53,54,0,0.0,Clear,clear sky,21
Szügy,48.036389,19.333056,2026-03-18 21:44:31.770641,7.56,4.29,7.56,7.56,1024,55,5.6,55,0,0.0,Clear,clear sky,21
Balassagyarmat,48.071111,19.293611,2026-03-18 21:44:33.039356,7.64,4.37,7.64,7.64,1024,55,5.68,55,0,0.0,Clear,clear sky,21
Őrhalom,48.078773,19.403936,2026-03-18 21:44:34.302826,7.33,4.06,7.33,7.33,1024,56,5.45,53,0,0.0,Clear,clear sky,21
Hugyag,48.083056,19.421111,2026-03-18 21:44:35.568686,7.33,4.06,7.33,7.33,1024,56,5.45,53,0,0.0,Clear,clear sky,21
Szécsény,48.093056,19.521111,2026-03-18 21:44:36.834718,7.52,4.39,7.52,7.52,1024,57,5.23,53,0,0.0,Clear,clear sky,21
Ludányhalászi,48.1325,19.529444,2026-03-18 21:44:38.107060,7.46,4.34,7.46,7.46,1025,57,5.18,54,0,0.0,Clear,clear sky,21
Nógrádszakál,48.178333,19.521667,2026-03-18 21:44:39.381111,7.39,4.27,7.39,7.39,1025,57,5.13,55,0,0.0,Clear,clear sky,21
Ráróspuszta,48.207222,19.541389,2026-03-18 21:44:40.652000,6.79,3.61,6.79,6.79,1025,58,4.93,56,0,0.0,Clear,clear sky,21
Litke,48.215833,19.598611,2026-03-18 21:44:41.922534,7.28,4.24,7.28,7.28,1025,58,4.88,57,1,0.0,Clear,clear sky,21
Nyíregyháza külső,47.943056,21.740278,2026-03-18 21:44:43.193229,6.56,2.7,6.56,6.56,1024,64,6.48,34,0,0.0,Clear,clear sky,21
Oros,47.945833,21.806389,2026-03-18 21:44:44.468578,6.52,2.68,6.52,6.52,1024,63,6.38,33,0,0.0,Clear,clear sky,21
Napkor,47.948889,21.873056,2026-03-18 21:44:45.737507,6.44,2.67,6.44,6.44,1024,63,6.13,32,0,0.0,Clear,clear sky,21
Apagy,47.953775,21.939044,2026-03-18 21:44:47.004286,6.42,2.71,6.42,6.42,1024,63,5.96,32,0,0.0,Clear,clear sky,21
Levelek-Magy,47.948056,21.993611,2026-03-18 21:44:48.294596,6.35,2.78,6.35,6.35,1024,62,5.58,32,0,0.0,Clear,clear sky,21
Ófehértó,47.940556,22.041389,2026-03-18 21:44:49.561798,6.27,2.83,6.27,6.27,1024,62,5.22,33,0,0.0,Clear,clear sky,21
Ligettanya,47.951667,22.071389,2026-03-18 21:44:50.834677,6.2,2.85,6.2,6.2,1024,62,4.97,31,0,0.0,Clear,clear sky,21
Baktalórántháza,47.988611,22.083333,2026-03-18 21:44:52.103247,6.19,2.76,6.19,6.19,1024,62,5.14,31,0,0.0,Clear,clear sky,21
Vaja-Rohod,48.006389,22.164167,2026-03-18 21:44:53.377455,6.17,2.85,6.17,6.17,1024,62,4.9,29,0,0.0,Clear,clear sky,21
Rákóczitanya,48.022222,22.178333,2026-03-18 21:44:54.644983,6.14,2.9,6.14,6.14,1024,62,4.7,29,0,0.0,Clear,clear sky,21
Nyírmada,48.059167,22.203056,2026-03-18 21:44:55.915871,6.12,2.7,6.12,6.12,1024,62,5.08,29,0,0.0,Clear,clear sky,21
Tunyogmatolcs,47.960244,22.442247,2026-03-18 21:44:57.188732,6.29,3.74,6.29,6.29,1024,60,3.49,30,0,0.0,Clear,clear sky,21
Tunyogmatolcs alsó,47.966025,22.464713,2026-03-18 21:44:58.458493,6.27,3.73,6.27,6.27,1024,60,3.47,30,0,0.0,Clear,clear sky,21
Fehérgyarmat,47.979167,22.524444,2026-03-18 21:44:59.736678,6.24,3.69,6.24,6.24,1024,60,3.46,31,0,0.0,Clear,clear sky,21
Penyige,47.995278,22.566944,2026-03-18 21:45:01.011255,6.26,3.71,6.26,6.26,1024,60,3.47,32,0,0.0,Clear,clear sky,21
Nagyszekeres,47.976111,22.6125,2026-03-18 21:45:02.275901,6.26,3.72,6.26,6.26,1024,59,3.46,33,0,0.0,Clear,clear sky,21
Kisszekeres,47.965833,22.629444,2026-03-18 21:45:03.553315,6.27,3.72,6.27,6.27,1024,59,3.48,32,0,0.0,Clear,clear sky,21
Jánkmajtis,47.941944,22.657222,2026-03-18 21:45:04.833281,6.29,3.76,6.29,6.29,1024,59,3.45,32,0,0.0,Clear,clear sky,21
Gacsály,47.926111,22.745,2026-03-18 21:45:06.111109,6.33,3.89,6.33,6.33,1024,58,3.32,35,0,0.0,Clear,clear sky,21
Zajta,47.9025,22.796111,2026-03-18 21:45:07.380162,6.37,4.16,6.37,6.37,1024,57,2.99,37,0,0.0,Clear,clear sky,21
Eperjeske alsó,48.360556,22.19,2026-03-18 21:45:08.649312,6.02,2.41,6.02,6.02,1024,66,5.46,26,0,0.0,Clear,clear sky,21
Mándok,48.326944,22.196389,2026-03-18 21:45:09.935647,6.01,2.27,6.01,6.01,1024,66,5.77,27,0,0.0,Clear,clear sky,21
Tornyospálca,48.268333,22.201944,2026-03-18 21:45:11.200916,6.07,2.29,6.07,6.07,1024,65,5.92,28,0,0.0,Clear,clear sky,21
Aranyosapáti,48.211303,22.253534,2026-03-18 21:45:12.475568,6.13,2.54,6.13,6.13,1024,64,5.47,28,0,0.0,Clear,clear sky,21
Gyüre,48.171389,22.269167,2026-03-18 21:45:13.745854,6.16,2.68,6.16,6.16,1024,63,5.23,28,0,0.0,Clear,clear sky,21
Varsány,48.151722,22.290047,2026-03-18 21:45:15.020286,6.17,2.86,6.17,6.17,1024,63,4.86,27,0,0.0,Clear,clear sky,21
Vásárosnamény,48.126667,22.306111,2026-03-18 21:45:16.290904,6.19,2.97,6.19,6.19,1024,62,4.68,27,0,0.0,Clear,clear sky,21
Vitka,48.095556,22.308056,2026-03-18 21:45:17.554755,6.21,3.09,6.21,6.21,1024,62,4.5,27,0,0.0,Clear,clear sky,21
Nagydobos,48.054167,22.311111,2026-03-18 21:45:18.829197,6.16,3.11,6.16,6.16,1024,62,4.33,27,0,0.0,Clear,clear sky,21
Ópályi,47.997778,22.318333,2026-03-18 21:45:20.093116,6.21,3.41,6.21,6.21,1024,61,3.89,29,0,0.0,Clear,clear sky,21
Nyírcsaholy,47.908056,22.348333,2026-03-18 21:45:21.359039,6.31,3.73,6.31,6.31,1024,60,3.55,32,1,0.0,Clear,clear sky,21
Nagyecsed,47.864722,22.385556,2026-03-18 21:45:22.628710,6.36,3.83,6.36,6.36,1024,59,3.48,34,2,0.0,Clear,clear sky,21
Tiborszállás,47.815278,22.402778,2026-03-18 21:45:23.892527,6.4,3.82,6.4,6.4,1024,58,3.57,37,2,0.0,Clear,clear sky,21
Kiskunhalas,46.434444,19.493611,2026-03-18 21:45:25.161105,7.87,4.63,7.87,7.87,1022,47,5.75,45,100,0.0,Clouds,overcast clouds,21
Kecskemét alsó,46.895833,19.692222,2026-03-18 21:45:26.425334,8.04,4.27,8.04,8.04,1022,46,7.51,43,67,0.0,Clouds,broken clouds,21
Putnok,48.286667,20.4375,2026-03-18 21:45:27.694724,7.2,4.34,7.2,7.2,1024,65,4.45,50,5,0.0,Clear,clear sky,21
Bánréve,48.299722,20.351944,2026-03-18 21:45:28.958247,7.33,4.53,7.33,7.33,1024,64,4.39,52,5,0.0,Clear,clear sky,21
Ipolytarnóc,48.236667,19.629167,2026-03-18 21:45:30.230381,7.2,4.2,7.2,7.2,1025,59,4.74,57,1,0.0,Clear,clear sky,21
Rákosliget,47.486111,19.257778,2026-03-18 21:45:31.506119,7.89,4.77,7.89,7.89,1023,46,5.45,46,10,0.0,Clear,clear sky,21
Ikrény,47.657778,17.524167,2026-03-18 21:45:32.773405,7.96,5.18,7.96,7.96,1024,55,4.68,79,22,0.0,Clouds,few clouds,21
Rábapatona,47.648889,17.461944,2026-03-18 21:45:34.038249,7.98,5.31,7.98,7.98,1024,55,4.44,77,23,0.0,Clouds,few clouds,21
Enese,47.644167,17.425278,2026-03-18 21:45:35.305603,7.98,5.45,7.98,7.98,1024,55,4.15,75,24,0.0,Clouds,few clouds,21
Kóny,47.632222,17.357222,2026-03-18 21:45:36.579543,7.95,5.46,7.95,7.95,1024,56,4.05,73,26,0.0,Clouds,scattered clouds,21
Farád,47.595278,17.195833,2026-03-18 21:45:37.869856,7.9,5.71,7.9,7.9,1024,57,3.46,60,28,0.0,Clouds,scattered clouds,21
Rábatamási,47.592778,17.161389,2026-03-18 21:45:39.141224,7.9,5.71,7.9,7.9,1024,57,3.46,60,28,0.0,Clouds,scattered clouds,21
Szárföld,47.589167,17.123889,2026-03-18 21:45:40.415745,7.89,5.73,7.89,7.89,1024,57,3.4,58,28,0.0,Clouds,scattered clouds,21
Veszkény,47.586944,17.101389,2026-03-18 21:45:41.691365,7.88,5.75,7.88,7.88,1024,57,3.35,55,28,0.0,Clouds,scattered clouds,21
Kapuvár,47.581944,17.046944,2026-03-18 21:45:42.958441,7.83,5.69,7.83,7.83,1024,57,3.35,49,32,0.0,Clouds,scattered clouds,21
Vitnyéd-Csermajor,47.5825,16.987222,2026-03-18 21:45:44.233613,7.8,5.64,7.8,7.8,1024,57,3.37,47,34,0.0,Clouds,scattered clouds,21
Petőháza,47.595278,16.893056,2026-03-18 21:45:45.504244,7.8,5.6,7.8,7.8,1024,57,3.45,48,38,0.0,Clouds,scattered clouds,21
Fertőszentmiklós,47.6,16.858889,2026-03-18 21:45:46.783838,7.76,5.55,7.76,7.76,1024,57,3.45,47,41,0.0,Clouds,scattered clouds,21
Pinnye,47.600278,16.768611,2026-03-18 21:45:48.066615,7.58,5.44,7.58,7.58,1024,58,3.26,44,52,0.0,Clouds,broken clouds,21
Fertőboz,47.625,16.691667,2026-03-18 21:45:49.334285,7.48,5.45,7.48,7.48,1024,58,3.06,47,58,0.0,Clouds,broken clouds,21
Sopron,47.677778,16.587222,2026-03-18 21:45:50.602027,7.13,5.53,7.13,7.13,1025,59,2.36,52,65,0.0,Clouds,broken clouds,21
Fertőszéplak-Fertőd,47.618889,16.850833,2026-03-18 21:45:51.874735,7.82,5.57,7.82,7.82,1024,57,3.53,51,43,0.0,Clouds,scattered clouds,21
Nyúl,47.587778,17.698056,2026-03-18 21:45:53.147570,7.87,4.82,7.87,7.87,1024,54,5.26,81,19,0.0,Clouds,few clouds,21
Pannonhalma,47.547778,17.740833,2026-03-18 21:45:54.418823,7.7,4.51,7.7,7.7,1024,54,5.49,82,20,0.0,Clouds,few clouds,21
Tarjánpuszta,47.504722,17.789167,2026-03-18 21:45:55.689330,7.68,4.49,7.68,7.68,1024,55,5.5,81,22,0.0,Clouds,few clouds,21
Győrasszonyfa,47.4925,17.799167,2026-03-18 21:45:56.958159,7.68,4.49,7.68,7.68,1024,55,5.5,81,22,0.0,Clouds,few clouds,21
Veszprémvarsány,47.443333,17.818333,2026-03-18 21:45:58.227423,7.63,4.45,7.63,7.63,1024,55,5.43,79,24,0.0,Clouds,few clouds,21
Bakonyszentlászló,47.395556,17.8175,2026-03-18 21:45:59.507051,7.29,4.05,7.29,7.29,1024,56,5.35,77,24,0.0,Clouds,few clouds,21
Porva-Csesznek,47.326944,17.841111,2026-03-18 21:46:00.783273,5.96,2.43,5.96,5.96,1024,57,5.25,74,26,0.0,Clouds,scattered clouds,21
Zirc,47.266667,17.878056,2026-03-18 21:46:02.052081,6.03,2.66,6.03,6.03,1024,57,4.93,67,29,0.0,Clouds,scattered clouds,21
Eplény,47.192778,17.921667,2026-03-18 21:46:03.316341,6.5,3.32,6.5,6.5,1024,56,4.76,58,38,0.0,Clouds,scattered clouds,21
Marcaltő,47.4275,17.348889,2026-03-18 21:46:04.599832,7.94,5.29,7.94,7.94,1024,58,4.37,66,38,0.0,Clouds,scattered clouds,21
Szany-Rábaszentandrás,47.460833,17.315278,2026-03-18 21:46:05.864897,7.93,5.36,7.93,7.93,1024,58,4.2,67,36,0.0,Clouds,scattered clouds,21
Egyed-Rábacsanak,47.521944,17.316389,2026-03-18 21:46:07.135723,7.91,5.39,7.91,7.91,1024,57,4.09,68,34,0.0,Clouds,scattered clouds,21
Rábapordány,47.557222,17.315,2026-03-18 21:46:08.416256,7.94,5.45,7.94,7.94,1024,57,4.04,69,32,0.0,Clouds,scattered clouds,21
Albertfalva,47.440784,19.033965,2026-03-18 21:46:09.684603,8.41,5.28,8.41,8.41,1023,46,5.83,51,5,0.0,Clear,clear sky,21
Budafok,47.425833,19.041389,2026-03-18 21:46:10.954163,8.23,5.05,8.23,8.23,1023,46,5.84,51,4,0.0,Clear,clear sky,21
Tétényliget,47.384722,18.955278,2026-03-18 21:46:12.221297,8.42,5.22,8.42,8.42,1023,47,6.06,52,5,0.0,Clear,clear sky,21
Érd alsó,47.379722,18.923056,2026-03-18 21:46:13.478983,8.06,4.72,8.06,8.06,1023,47,6.17,52,6,0.0,Clear,clear sky,21
Tárnok,47.365556,18.873889,2026-03-18 21:46:14.751376,8.35,5.05,8.35,8.35,1023,48,6.29,52,10,0.0,Clear,clear sky,21
Martonvásár,47.321389,18.781667,2026-03-18 21:46:16.030702,8.27,4.99,8.27,8.27,1023,48,6.17,52,17,0.0,Clouds,few clouds,21
Baracska,47.297222,18.753333,2026-03-18 21:46:17.300740,8.33,5.09,8.33,8.33,1023,49,6.08,52,21,0.0,Clouds,few clouds,21
Pettend,47.26,18.708889,2026-03-18 21:46:18.573158,8.19,4.94,8.19,8.19,1023,49,6.0,52,28,0.0,Clouds,scattered clouds,21
Kápolnásnyék,47.245556,18.692222,2026-03-18 21:46:19.841188,8.24,5.03,8.24,8.24,1023,49,5.93,53,32,0.0,Clouds,scattered clouds,21
Velence,47.226944,18.663889,2026-03-18 21:46:21.115345,8.3,5.12,8.3,8.3,1023,49,5.9,52,35,0.0,Clouds,scattered clouds,21
Velencefürdő,47.218611,18.648056,2026-03-18 21:46:22.385062,8.3,5.12,8.3,8.3,1023,49,5.89,53,37,0.0,Clouds,scattered clouds,21
Gárdony,47.205833,18.624722,2026-03-18 21:46:23.657161,8.32,5.16,8.32,8.32,1023,49,5.85,52,39,0.0,Clouds,scattered clouds,21
Agárd,47.197666,18.604907,2026-03-18 21:46:24.930767,8.32,5.16,8.32,8.32,1023,49,5.85,52,39,0.0,Clouds,scattered clouds,21
Dinnyés,47.179722,18.560833,2026-03-18 21:46:26.198777,8.3,5.17,8.3,8.3,1023,49,5.76,52,45,0.0,Clouds,scattered clouds,21
Székesfehérvár,47.183611,18.424722,2026-03-18 21:46:27.471406,8.22,5.24,8.22,8.22,1023,50,5.3,49,47,0.0,Clouds,scattered clouds,21
Szabadbattyán,47.105278,18.388333,2026-03-18 21:46:28.744257,8.17,5.13,8.17,8.17,1023,50,5.43,51,54,0.0,Clouds,broken clouds,21
Kiscséripuszta,47.048056,18.355,2026-03-18 21:46:30.018267,7.96,4.8,7.96,7.96,1023,50,5.61,53,57,0.0,Clouds,broken clouds,21
Lepsény,46.9875,18.248056,2026-03-18 21:46:31.287284,8.17,4.97,8.17,8.17,1023,51,5.87,53,59,0.0,Clouds,broken clouds,21
Balatonaliga,46.984444,18.171389,2026-03-18 21:46:32.560535,7.92,4.64,7.92,7.92,1023,51,5.9,51,60,0.0,Clouds,broken clouds,21
Balatonvilágos,46.964167,18.157222,2026-03-18 21:46:33.829569,8.24,4.98,8.24,8.24,1023,52,6.09,51,62,0.0,Clouds,broken clouds,21
Szabadifürdő,46.926111,18.103333,2026-03-18 21:46:35.107215,8.2,4.82,8.2,8.2,1023,52,6.4,52,65,0.0,Clouds,broken clouds,21
Ózd alsó,48.227778,20.306111,2026-03-18 21:46:36.377981,7.22,4.27,7.22,7.22,1024,65,4.65,49,5,0.0,Clear,clear sky,21
Ózd,48.2225,20.294722,2026-03-18 21:46:37.646128,7.22,4.27,7.22,7.22,1024,65,4.65,49,5,0.0,Clear,clear sky,21
Alsóboldva,48.212778,20.792222,2026-03-18 21:46:38.917594,7.15,3.54,7.15,7.15,1024,67,6.24,29,1,0.0,Clear,clear sky,21
Boldva,48.223333,20.790278,2026-03-18 21:46:40.187594,7.15,3.54,7.15,7.15,1024,67,6.24,29,1,0.0,Clear,clear sky,21
Borsodszirák,48.259167,20.770556,2026-03-18 21:46:41.453591,7.13,3.57,7.13,7.13,1024,66,6.08,32,2,0.0,Clear,clear sky,21
Edelény alsó,48.279167,20.760833,2026-03-18 21:46:42.731990,7.13,3.57,7.13,7.13,1024,66,6.08,32,2,0.0,Clear,clear sky,21
Edelény,48.299722,20.749444,2026-03-18 21:46:44.008126,7.07,3.49,7.07,7.07,1024,66,6.1,33,2,0.0,Clear,clear sky,21
Szendrőlád,48.334444,20.731944,2026-03-18 21:46:45.276629,6.01,2.22,6.01,6.01,1025,65,5.89,36,3,0.0,Clear,clear sky,21
Szendrő,48.400725,20.721346,2026-03-18 21:46:46.540853,6.89,3.36,6.89,6.89,1025,64,5.84,37,4,0.0,Clear,clear sky,21
Szendrő felső,48.409907,20.720148,2026-03-18 21:46:47.812913,6.89,3.36,6.89,6.89,1025,64,5.84,37,4,0.0,Clear,clear sky,21
Szalonna,48.449444,20.722222,2026-03-18 21:46:49.077206,6.91,3.43,6.91,6.91,1025,64,5.72,38,4,0.0,Clear,clear sky,21
Perkupa,48.471389,20.691111,2026-03-18 21:46:50.358618,6.19,2.92,6.19,6.19,1025,64,4.8,39,5,0.0,Clear,clear sky,21
Szemeretelep,47.443056,19.214167,2026-03-18 21:46:51.638454,8.11,5.02,8.11,8.11,1023,44,5.51,48,9,0.0,Clear,clear sky,21
Jósvafő-Aggtelek,48.489722,20.693889,2026-03-18 21:46:52.907179,6.49,3.34,6.49,6.49,1025,64,4.7,39,5,0.0,Clear,clear sky,21
Bódvaszilas,48.5375,20.738056,2026-03-18 21:46:54.194424,6.07,2.51,6.07,6.07,1025,64,5.37,37,5,0.0,Clear,clear sky,21
Komjáti,48.5475,20.759722,2026-03-18 21:46:55.469334,5.59,1.86,5.59,5.59,1025,65,5.49,36,5,0.0,Clear,clear sky,21
Tornanádaska,48.558333,20.787222,2026-03-18 21:46:56.738804,6.76,3.22,6.76,6.76,1025,65,5.77,35,5,0.0,Clear,clear sky,21
Onga,48.121111,20.906667,2026-03-18 21:46:58.012313,7.17,3.38,7.17,7.17,1024,66,6.75,31,0,0.0,Clear,clear sky,21
Szikszó-Vásártér,48.193056,20.934722,2026-03-18 21:46:59.292390,7.08,3.3,7.08,7.08,1024,66,6.67,31,0,0.0,Clear,clear sky,21
Szikszó,48.201667,20.941667,2026-03-18 21:47:00.561726,7.09,3.29,7.09,7.09,1024,66,6.73,32,0,0.0,Clear,clear sky,21
Aszaló,48.219867,20.961466,2026-03-18 21:47:01.826554,6.93,3.08,6.93,6.93,1024,66,6.75,31,0,0.0,Clear,clear sky,21
Halmaj,48.246667,20.991667,2026-03-18 21:47:03.094930,7.0,3.13,7.0,7.0,1024,65,6.86,32,0,0.0,Clear,clear sky,21
Csobád,48.277222,21.033889,2026-03-18 21:47:04.361703,6.96,3.05,6.96,6.96,1024,65,6.96,33,0,0.0,Clear,clear sky,21
Ináncs,48.291111,21.057778,2026-03-18 21:47:05.627173,6.85,2.89,6.85,6.85,1024,65,7.01,34,0,0.0,Clear,clear sky,21
Forró-Encs,48.3275,21.117778,2026-03-18 21:47:06.889740,6.74,2.75,6.74,6.74,1024,65,6.99,34,0,0.0,Clear,clear sky,21
Méra,48.363056,21.140278,2026-03-18 21:47:08.159111,6.48,2.45,6.48,6.48,1025,65,6.89,34,1,0.0,Clear,clear sky,21
Novajidrány,48.404444,21.170556,2026-03-18 21:47:09.430010,6.64,2.72,6.64,6.64,1025,66,6.71,34,1,0.0,Clear,clear sky,21
Hernádszurdok,48.487222,21.213889,2026-03-18 21:47:10.702077,6.61,2.92,6.61,6.61,1025,66,6.04,32,1,0.0,Clear,clear sky,21
Hidasnémeti,48.508333,21.229722,2026-03-18 21:47:11.965296,6.52,2.86,6.52,6.52,1025,66,5.91,31,1,0.0,Clear,clear sky,21
Mád,48.19,21.268889,2026-03-18 21:47:13.235521,6.35,2.17,6.35,6.35,1024,66,7.23,39,0,0.0,Clear,clear sky,21
Rátka,48.215,21.230278,2026-03-18 21:47:14.499504,6.74,2.71,6.74,6.74,1024,66,7.11,39,0,0.0,Clear,clear sky,21
Tállya,48.226944,21.225278,2026-03-18 21:47:15.776789,6.74,2.71,6.74,6.74,1024,66,7.11,39,0,0.0,Clear,clear sky,21
Golop,48.242778,21.204167,2026-03-18 21:47:17.054396,6.82,2.86,6.82,6.82,1024,66,6.98,37,0,0.0,Clear,clear sky,21
Abaújszántó,48.286944,21.181667,2026-03-18 21:47:18.317956,6.49,2.45,6.49,6.49,1024,66,6.92,36,0,0.0,Clear,clear sky,21
Abaújszántói fürdő,48.268333,21.179722,2026-03-18 21:47:19.596821,6.76,2.79,6.76,6.76,1024,66,6.94,37,0,0.0,Clear,clear sky,21
Abaújkér,48.309444,21.198333,2026-03-18 21:47:20.866086,6.49,2.47,6.49,6.49,1024,66,6.87,36,0,0.0,Clear,clear sky,21
Boldogkőváralja,48.345,21.208889,2026-03-18 21:47:22.135871,6.39,2.4,6.39,6.39,1024,66,6.71,37,0,0.0,Clear,clear sky,21
Korlát-Vizsoly,48.365,21.219167,2026-03-18 21:47:23.409055,6.5,2.58,6.5,6.5,1024,66,6.59,36,0,0.0,Clear,clear sky,21
Fony,48.411389,21.242778,2026-03-18 21:47:24.678792,6.59,2.79,6.59,6.59,1025,66,6.32,34,0,0.0,Clear,clear sky,21
Hejce-Vilmány,48.419444,21.245556,2026-03-18 21:47:25.948074,6.59,2.79,6.59,6.59,1025,66,6.32,34,0,0.0,Clear,clear sky,21
Göncruszka,48.445,21.246944,2026-03-18 21:47:27.218477,6.59,2.85,6.59,6.59,1025,66,6.17,33,0,0.0,Clear,clear sky,21
Gönc,48.470556,21.261389,2026-03-18 21:47:28.492611,6.54,2.91,6.54,6.54,1025,67,5.85,33,0,0.0,Clear,clear sky,21
Zsujta,48.4925,21.265,2026-03-18 21:47:29.776019,6.59,3.03,6.59,6.59,1025,66,5.7,31,1,0.0,Clear,clear sky,21
Bodrogkeresztúr,48.175556,21.354167,2026-03-18 21:47:31.054454,5.88,1.52,5.88,5.88,1024,67,7.37,39,0,0.0,Clear,clear sky,21
Szegi,48.201944,21.387778,2026-03-18 21:47:32.324934,6.28,1.99,6.28,6.28,1024,68,7.5,37,0,0.0,Clear,clear sky,21
Erdőbénye,48.218056,21.401944,2026-03-18 21:47:33.596268,6.52,2.28,6.52,6.52,1024,69,7.56,37,0,0.0,Clear,clear sky,21
Olaszliszka-Tolcsva,48.258333,21.448056,2026-03-18 21:47:34.871933,6.31,2.04,6.31,6.31,1024,71,7.47,35,0,0.0,Clear,clear sky,21
Bodrogolaszi,48.286944,21.512778,2026-03-18 21:47:36.142168,4.83,0.18,4.83,4.83,1024,72,7.33,34,0,0.0,Clear,clear sky,21
Sárospatak,48.325833,21.566111,2026-03-18 21:47:37.417361,5.83,1.61,5.83,5.83,1024,76,6.92,31,0,0.0,Clear,clear sky,21
Sátoraljaújhely,48.385833,21.657778,2026-03-18 21:47:38.682609,4.69,0.37,4.69,4.69,1024,83,6.32,28,0,0.0,Clear,clear sky,21
Vecsés,47.40855,19.25652,2026-03-18 21:47:39.955428,8.11,4.99,8.11,8.11,1023,45,5.59,47,10,0.0,Clear,clear sky,21
Vecsés-Kertekalja,47.403333,19.271389,2026-03-18 21:47:41.236108,8.11,4.99,8.11,8.11,1023,45,5.59,47,10,0.0,Clear,clear sky,21
Üllő,47.390833,19.348889,2026-03-18 21:47:42.507704,8.19,5.02,8.19,8.19,1023,47,5.78,47,9,0.0,Clear,clear sky,21
Monor,47.34545,19.43701,2026-03-18 21:47:43.772796,8.11,4.7,8.11,8.11,1023,48,6.42,48,6,0.0,Clear,clear sky,21
Pilis,47.279722,19.536389,2026-03-18 21:47:45.043939,8.04,4.46,8.04,8.04,1023,48,6.88,50,7,0.0,Clear,clear sky,21
Albertirsa,47.240278,19.606389,2026-03-18 21:47:46.318826,8.1,4.43,8.1,8.1,1023,49,7.23,49,12,0.0,Clouds,few clouds,21
Ceglédbercel-Cserő,47.210278,19.686944,2026-03-18 21:47:47.593068,8.15,4.47,8.15,8.15,1023,49,7.3,47,16,0.0,Clouds,few clouds,21
Cegléd,47.182778,19.806111,2026-03-18 21:47:48.857604,8.18,4.54,8.18,8.18,1023,50,7.18,44,22,0.0,Clouds,few clouds,21
Abony,47.173056,20.016389,2026-03-18 21:47:50.123652,8.11,4.54,8.11,8.11,1023,51,6.91,39,21,0.0,Clouds,few clouds,21
Szolnok,47.179167,20.175833,2026-03-18 21:47:51.392036,8.11,4.53,8.11,8.11,1022,51,6.94,37,18,0.0,Clouds,few clouds,21
Szajol,47.170556,20.295278,2026-03-18 21:47:52.662308,8.08,4.44,8.08,8.08,1022,52,7.1,36,17,0.0,Clouds,few clouds,21
Törökszentmiklós,47.170278,20.413611,2026-03-18 21:47:53.934573,8.07,4.37,8.07,8.07,1022,52,7.3,36,18,0.0,Clouds,few clouds,21
Rákoscsaba-Újtelep,47.4875,19.271944,2026-03-18 21:47:55.209069,7.89,4.77,7.89,7.89,1023,46,5.45,46,10,0.0,Clear,clear sky,21
Rákoscsaba,47.492222,19.284722,2026-03-18 21:47:56.482383,7.97,4.86,7.97,7.97,1023,46,5.47,46,10,0.0,Clear,clear sky,21
Pécel,47.493889,19.338889,2026-03-18 21:47:57.757945,7.85,4.7,7.85,7.85,1023,47,5.5,45,9,0.0,Clear,clear sky,21
Isaszeg,47.537719,19.388955,2026-03-18 21:47:59.025786,7.69,4.51,7.69,7.69,1023,48,5.47,45,9,0.0,Clear,clear sky,21
Gödöllő,47.592222,19.358611,2026-03-18 21:48:00.292205,7.55,4.34,7.55,7.55,1024,49,5.46,45,7,0.0,Clear,clear sky,21
Máriabesnyő,47.595556,19.389722,2026-03-18 21:48:01.564890,7.55,4.34,7.55,7.55,1024,49,5.46,45,7,0.0,Clear,clear sky,21
Bag,47.641111,19.471667,2026-03-18 21:48:02.844529,8.13,5.04,8.13,8.13,1024,51,5.52,45,4,0.0,Clear,clear sky,21
Aszód,47.647467,19.492882,2026-03-18 21:48:04.113959,7.99,4.87,7.99,7.99,1024,51,5.52,45,4,0.0,Clear,clear sky,21
Hévízgyörk,47.638611,19.526667,2026-03-18 21:48:05.384490,7.97,4.84,7.97,7.97,1024,51,5.52,45,4,0.0,Clear,clear sky,21
Galgahévíz,47.6325,19.558333,2026-03-18 21:48:06.655178,8.17,5.1,8.17,8.17,1024,51,5.52,45,4,0.0,Clear,clear sky,21
Tura,47.626389,19.5975,2026-03-18 21:48:07.930257,8.09,4.99,8.09,8.09,1024,51,5.53,45,3,0.0,Clear,clear sky,21
Hatvan,47.663611,19.671389,2026-03-18 21:48:09.199270,8.11,5.0,8.11,8.11,1024,52,5.57,45,1,0.0,Clear,clear sky,21
Vámosgyörk,47.686111,19.927778,2026-03-18 21:48:10.466682,7.99,4.81,7.99,7.99,1023,53,5.67,47,0,0.0,Clear,clear sky,21
Adács,47.696389,19.975278,2026-03-18 21:48:11.732811,7.95,4.75,7.95,7.95,1023,54,5.69,46,0,0.0,Clear,clear sky,21
Karácsond,47.718056,20.048611,2026-03-18 21:48:12.997340,7.78,4.54,7.78,7.78,1023,55,5.68,46,0,0.0,Clear,clear sky,21
Ludas,47.723889,20.095556,2026-03-18 21:48:14.269087,7.91,4.56,7.91,7.91,1023,55,6.08,47,0,0.0,Clear,clear sky,21
Nagyút,47.72666666666667,20.161388888888887,2026-03-18 21:48:15.538959,7.85,4.42,7.85,7.85,1023,56,6.26,47,0,0.0,Clear,clear sky,21
Kál-Kápolna,47.734167,20.254167,2026-03-18 21:48:16.811523,7.77,4.08,7.77,7.77,1023,57,6.98,47,0,0.0,Clear,clear sky,21
Füzesabony,47.751389,20.415278,2026-03-18 21:48:18.081337,7.66,3.76,7.66,7.66,1023,59,7.57,45,0,0.0,Clear,clear sky,21
Szihalom,47.766944,20.491944,2026-03-18 21:48:19.351947,7.52,3.58,7.52,7.52,1023,60,7.56,43,0,0.0,Clear,clear sky,21
Mezőkövesd,47.797222,20.5675,2026-03-18 21:48:20.625676,7.5,3.57,7.5,7.5,1024,61,7.5,41,0,0.0,Clear,clear sky,21
Mezőkövesd felső,47.807222,20.591389,2026-03-18 21:48:21.897361,7.5,3.57,7.5,7.5,1024,61,7.5,41,0,0.0,Clear,clear sky,21
Mezőkeresztes-Mezőnyárád,47.845556,20.670278,2026-03-18 21:48:23.162500,7.39,3.51,7.39,7.39,1024,63,7.25,36,1,0.0,Clear,clear sky,21
Csincse,47.890833,20.764167,2026-03-18 21:48:24.433617,7.39,3.5,7.39,7.39,1024,63,7.26,33,1,0.0,Clear,clear sky,21
Emőd,47.930556,20.822778,2026-03-18 21:48:25.704236,7.11,3.18,7.11,7.11,1024,64,7.13,30,1,0.0,Clear,clear sky,21
Nyékládháza,47.9925,20.840556,2026-03-18 21:48:26.975534,7.31,3.48,7.31,7.31,1024,65,7.0,29,0,0.0,Clear,clear sky,21
Miskolc-Tiszai,48.098611,20.811389,2026-03-18 21:48:28.245656,7.15,3.4,7.15,7.15,1024,68,6.64,26,0,0.0,Clear,clear sky,21
Felsőzsolca,48.083611,20.866111,2026-03-18 21:48:29.518032,7.17,3.38,7.17,7.17,1024,66,6.75,29,0,0.0,Clear,clear sky,21
Hernádnémeti-Bőcs,48.051389,20.985,2026-03-18 21:48:30.785401,7.05,3.18,7.05,7.05,1024,64,6.89,35,0,0.0,Clear,clear sky,21
Tiszalúc,48.039722,21.0575,2026-03-18 21:48:32.060761,7.01,3.07,7.01,7.01,1024,64,7.07,39,0,0.0,Clear,clear sky,21
Taktaharkány,48.091667,21.128611,2026-03-18 21:48:33.327561,7.0,3.04,7.0,7.0,1024,64,7.13,39,0,0.0,Clear,clear sky,21
Taktaszada,48.1125,21.149444,2026-03-18 21:48:34.595841,6.92,2.92,6.92,6.92,1024,64,7.17,39,0,0.0,Clear,clear sky,21
Szerencs,48.155556,21.214444,2026-03-18 21:48:35.864848,6.84,2.8,6.84,6.84,1024,66,7.23,39,0,0.0,Clear,clear sky,21
Mezőzombor,48.156944,21.267778,2026-03-18 21:48:37.138543,6.7,2.61,6.7,6.7,1024,66,7.27,39,0,0.0,Clear,clear sky,21
Tarcal,48.125,21.34,2026-03-18 21:48:38.406083,6.74,2.65,6.74,6.74,1024,66,7.3,39,0,0.0,Clear,clear sky,21
Tokaj,48.112778,21.406667,2026-03-18 21:48:39.672894,6.08,1.84,6.08,6.08,1024,68,7.18,37,0,0.0,Clear,clear sky,21
Rakamaz,48.12,21.475,2026-03-18 21:48:40.942691,6.54,2.46,6.54,6.54,1024,68,7.11,36,0,0.0,Clear,clear sky,21
Görögszállás,48.04,21.555,2026-03-18 21:48:42.217441,6.54,2.65,6.54,6.54,1024,67,6.53,35,0,0.0,Clear,clear sky,21
Nyírtelek,48.005,21.615556,2026-03-18 21:48:43.492462,6.49,2.61,6.49,6.49,1024,66,6.48,34,0,0.0,Clear,clear sky,21
Rákoshegy,47.468611,19.245556,2026-03-18 21:48:44.757297,7.88,4.74,7.88,7.88,1023,47,5.49,46,10,0.0,Clear,clear sky,21
Ecser,47.439444,19.318056,2026-03-18 21:48:46.019515,7.98,4.84,7.98,7.98,1023,48,5.57,46,10,0.0,Clear,clear sky,21
Maglód,47.438889,19.340833,2026-03-18 21:48:47.284754,7.82,4.62,7.82,7.82,1023,48,5.61,46,9,0.0,Clear,clear sky,21
Maglódi nyaraló,47.434167,19.363611,2026-03-18 21:48:48.555200,7.6,4.32,7.6,7.6,1023,49,5.66,46,9,0.0,Clear,clear sky,21
Gyömrő,47.429722,19.393333,2026-03-18 21:48:49.827891,7.6,4.32,7.6,7.6,1023,49,5.66,46,9,0.0,Clear,clear sky,21
Mende,47.426944,19.439722,2026-03-18 21:48:51.096773,7.58,4.18,7.58,7.58,1023,50,5.97,46,6,0.0,Clear,clear sky,21
Szőlősnyaraló,47.450278,19.561111,2026-03-18 21:48:52.367548,7.96,4.67,7.96,7.96,1023,51,5.96,47,4,0.0,Clear,clear sky,21
Sülysáp,47.451944,19.5275,2026-03-18 21:48:53.639358,7.86,4.55,7.86,7.86,1023,51,5.93,46,5,0.0,Clear,clear sky,21
Tápiószecső,47.443056,19.614722,2026-03-18 21:48:54.906626,8.03,4.75,8.03,8.03,1023,51,5.97,47,4,0.0,Clear,clear sky,21
Szentmártonkáta,47.431944,19.680556,2026-03-18 21:48:56.178265,8.01,4.71,8.01,8.01,1023,51,6.01,48,3,0.0,Clear,clear sky,21
Nagykáta,47.409722,19.737778,2026-03-18 21:48:57.445680,8.06,4.71,8.06,8.06,1023,51,6.2,49,3,0.0,Clear,clear sky,21
Farmos,47.355278,19.8375,2026-03-18 21:48:58.722793,8.14,4.63,8.14,8.14,1023,51,6.74,48,6,0.0,Clear,clear sky,21
Tápiószele,47.346313,19.873504,2026-03-18 21:48:59.988533,8.11,4.54,8.11,8.11,1023,51,6.89,47,7,0.0,Clear,clear sky,21
Tápiógyörgye,47.325,19.95,2026-03-18 21:49:01.260763,8.12,4.51,8.12,8.12,1023,51,7.04,46,8,0.0,Clear,clear sky,21
Újszász,47.285833,20.066944,2026-03-18 21:49:02.529704,8.1,4.49,8.1,8.1,1023,52,7.01,41,11,0.0,Clouds,few clouds,21
Szurdokpüspöki,47.851944,19.690278,2026-03-18 21:49:03.802297,7.69,4.56,7.69,7.69,1024,56,5.35,46,0,0.0,Clear,clear sky,21
Lőrinci,47.739444,19.673611,2026-03-18 21:49:05.091419,7.9,4.73,7.9,7.9,1024,53,5.59,45,0,0.0,Clear,clear sky,21
Selyp,47.759167,19.670833,2026-03-18 21:49:06.362948,7.87,4.69,7.87,7.87,1024,54,5.59,45,0,0.0,Clear,clear sky,21
Apc-Zagyvaszántó,47.791328,19.66822,2026-03-18 21:49:07.633478,7.85,4.67,7.85,7.85,1024,54,5.57,46,0,0.0,Clear,clear sky,21
Pásztó,47.918889,19.688889,2026-03-18 21:49:08.898641,7.49,4.39,7.49,7.49,1024,57,5.14,47,0,0.0,Clear,clear sky,21
Mátraszőlős-Hasznos,47.938506,19.706122,2026-03-18 21:49:10.171649,7.45,4.38,7.45,7.45,1024,58,5.05,47,0,0.0,Clear,clear sky,21
Tar,47.956111,19.746389,2026-03-18 21:49:11.436714,6.99,3.81,6.99,6.99,1024,59,5.04,47,0,0.0,Clear,clear sky,21
Mátraverebély,47.968333,19.778611,2026-03-18 21:49:12.707742,6.99,3.81,6.99,6.99,1024,59,5.04,47,0,0.0,Clear,clear sky,21
Nagybátony,47.981111,19.82,2026-03-18 21:49:13.977257,7.11,3.93,7.11,7.11,1024,60,5.1,47,0,0.0,Clear,clear sky,21
Kisterenye,48.009444,19.831944,2026-03-18 21:49:15.246076,7.15,3.94,7.15,7.15,1024,61,5.2,47,1,0.0,Clear,clear sky,21
Kisterenye-Bányatelep,48.021389,19.831944,2026-03-18 21:49:16.518658,7.15,3.94,7.15,7.15,1024,61,5.2,47,1,0.0,Clear,clear sky,21
Salgótarján külső,48.089444,19.790833,2026-03-18 21:49:17.782730,6.58,3.26,6.58,6.58,1024,61,5.11,52,1,0.0,Clear,clear sky,21
Balatonfenyves GV,46.7125,17.479167,2026-03-18 21:49:19.048548,8.18,4.27,8.18,8.18,1022,53,8.13,60,99,0.0,Clouds,overcast clouds,21
Várhegyalja,47.737778,18.366667,2026-03-18 21:49:20.318671,7.95,4.51,7.95,7.95,1024,52,6.36,76,2,0.0,Clear,clear sky,21
Imremajor,46.680556,17.499722,2026-03-18 21:49:21.587957,8.22,4.37,8.22,8.22,1022,53,7.97,61,99,0.0,Clouds,overcast clouds,21
Rákospalota-Kertváros,47.578333,19.122778,2026-03-18 21:49:22.860759,8.35,5.36,8.35,8.35,1024,49,5.43,50,7,0.0,Clear,clear sky,21
Vicziántelep,47.675833,19.286111,2026-03-18 21:49:24.124809,7.63,4.43,7.63,7.63,1024,51,5.48,48,4,0.0,Clear,clear sky,21
Pálmajor,46.662831,17.457526,2026-03-18 21:49:25.390623,8.2,4.44,8.2,8.2,1022,53,7.63,61,100,0.0,Clouds,overcast clouds,21
Somogyszentpál felső,46.649758,17.471404,2026-03-18 21:49:26.656859,8.2,4.41,8.2,8.2,1022,53,7.74,61,100,0.0,Clouds,overcast clouds,21
Somogyszentpál,46.638611,17.478611,2026-03-18 21:49:27.932331,8.12,4.38,8.12,8.12,1022,52,7.47,61,100,0.0,Clouds,overcast clouds,21
Rudnaykert,47.7175,19.257778,2026-03-18 21:49:29.198564,7.69,4.49,7.69,7.69,1024,52,5.51,50,2,0.0,Clear,clear sky,21
Maroshegy,47.158333,18.406667,2026-03-18 21:49:30.470332,8.13,5.11,8.13,8.13,1023,50,5.35,50,50,0.0,Clouds,scattered clouds,21
Bánhida,47.573703,18.371737,2026-03-18 21:49:31.745016,7.72,4.29,7.72,7.72,1024,52,6.16,67,4,0.0,Clear,clear sky,21
Magyarkút,47.850278,19.045,2026-03-18 21:49:33.014910,7.28,4.13,7.28,7.28,1024,54,5.14,57,1,0.0,Clear,clear sky,21
Becske alsó,47.897222,19.364722,2026-03-18 21:49:34.279984,6.82,3.38,6.82,6.82,1024,54,5.55,52,0,0.0,Clear,clear sky,21
Hosszúberek-Péteri,47.370556,19.389722,2026-03-18 21:49:35.542034,8.09,4.82,8.09,8.09,1023,49,5.98,47,9,0.0,Clear,clear sky,21
Monorierdő,47.308889,19.499167,2026-03-18 21:49:36.807948,7.98,4.45,7.98,7.98,1023,49,6.66,49,7,0.0,Clear,clear sky,21
Ceglédbercel,47.215833,19.658611,2026-03-18 21:49:38.078446,8.02,4.3,8.02,8.02,1023,50,7.31,48,16,0.0,Clouds,few clouds,21
Budai út,47.208333,19.731389,2026-03-18 21:49:39.349701,7.97,4.25,7.97,7.97,1023,50,7.27,46,17,0.0,Clouds,few clouds,21
Büdöskútpuszta,48.373056,20.726111,2026-03-18 21:49:40.614725,6.96,3.43,6.96,6.96,1025,65,5.87,36,3,0.0,Clear,clear sky,21
Bánrévei Vízmű,48.282778,20.368333,2026-03-18 21:49:41.886954,7.18,4.34,7.18,7.18,1024,65,4.4,51,5,0.0,Clear,clear sky,21
Rákoskert,47.456389,19.296111,2026-03-18 21:49:43.161223,7.83,4.67,7.83,7.83,1023,48,5.51,46,10,0.0,Clear,clear sky,21
Szirmabesenyő,48.146944,20.783056,2026-03-18 21:49:44.433228,6.52,2.7,6.52,6.52,1024,68,6.32,27,1,0.0,Clear,clear sky,21
Kitérőgyár,47.766944,19.935278,2026-03-18 21:49:45.703652,7.53,4.32,7.53,7.53,1024,56,5.43,44,0,0.0,Clear,clear sky,21
Tápiószentmárton,47.373333,19.797778,2026-03-18 21:49:46.968272,8.05,4.54,8.05,8.05,1023,51,6.67,48,5,0.0,Clear,clear sky,21
Zagyvarékas,47.244229,20.097435,2026-03-18 21:49:48.241076,8.07,4.47,8.07,8.07,1023,52,6.95,39,14,0.0,Clouds,few clouds,21
Abonyi út,47.206401,20.125204,2026-03-18 21:49:49.526190,8.06,4.47,8.06,8.06,1023,51,6.92,38,17,0.0,Clouds,few clouds,21
Jászkisér felső,47.438056,20.202222,2026-03-18 21:49:50.796715,8.06,4.4,8.06,8.06,1023,54,7.16,44,4,0.0,Clear,clear sky,21
Szellőhát,47.425556,20.188889,2026-03-18 21:49:52.072980,8.06,4.4,8.06,8.06,1023,53,7.15,43,4,0.0,Clear,clear sky,21
Szilvásvárad-Szalajkavölgy,48.0956,20.38272,2026-03-18 21:49:53.340205,5.58,2.02,5.58,5.58,1024,66,5.09,40,3,0.0,Clear,clear sky,21
Vásárosnamény külső,48.084444,22.255556,2026-03-18 21:49:54.616338,6.03,2.76,6.03,6.03,1024,63,4.71,28,0,0.0,Clear,clear sky,21
Újváros,46.660556,20.536111,2026-03-18 21:49:55.888487,7.71,4.15,7.71,7.71,1021,53,6.52,31,100,0.0,Clouds,overcast clouds,21
Városi park,46.697778,19.864722,2026-03-18 21:49:57.157484,7.96,4.4,7.96,7.96,1022,47,6.73,41,92,0.0,Clouds,overcast clouds,21
Belsőkamaráspuszta,46.341944,20.848889,2026-03-18 21:49:58.422702,7.03,4.25,7.03,7.03,1021,63,4.2,40,97,0.0,Clouds,overcast clouds,21
Sajószöged,47.945278,20.981667,2026-03-18 21:49:59.708514,7.24,3.4,7.24,7.24,1024,63,6.96,36,0,0.0,Clear,clear sky,21
Kazincbarcika alsó,48.255278,20.649167,2026-03-18 21:50:00.990727,6.9,3.53,6.9,6.9,1024,67,5.44,36,3,0.0,Clear,clear sky,21
Nyárjas,46.857778,19.923611,2026-03-18 21:50:02.266311,7.9,4.09,7.9,7.9,1022,48,7.49,37,78,0.0,Clouds,broken clouds,21
Pogonyipuszta,48.296389,20.381667,2026-03-18 21:50:03.532935,7.18,4.34,7.18,7.18,1024,65,4.4,51,5,0.0,Clear,clear sky,21
Sióvölgy,46.911103,18.076964,2026-03-18 21:50:04.807699,8.17,4.77,8.17,8.17,1023,51,6.44,51,68,0.0,Clouds,broken clouds,21
Répáspuszta,46.430278,17.847222,2026-03-18 21:50:06.077863,7.65,4.12,7.65,7.65,1022,51,6.39,56,98,0.0,Clouds,overcast clouds,21
Virányos,48.066667,21.527222,2026-03-18 21:50:07.360507,6.51,2.57,6.51,6.51,1024,68,6.66,35,0,0.0,Clear,clear sky,21
Füzesbokor,47.988611,21.6475,2026-03-18 21:50:08.634592,6.51,2.63,6.51,6.51,1024,65,6.5,34,0,0.0,Clear,clear sky,21
Kunfehértó,46.355833,19.417222,2026-03-18 21:50:09.908879,7.76,4.26,7.76,7.76,1022,48,6.39,44,100,0.0,Clouds,overcast clouds,21
Erdőszél,46.329444,19.395,2026-03-18 21:50:11.178553,7.65,4.04,7.65,7.65,1021,48,6.63,45,100,0.0,Clouds,overcast clouds,21
Jánoshalma,46.293056,19.330278,2026-03-18 21:50:12.450401,7.75,4.15,7.75,7.75,1021,50,6.68,46,100,0.0,Clouds,overcast clouds,21
Mélykút,46.213056,19.370556,2026-03-18 21:50:13.715737,7.68,4.27,7.68,7.68,1021,52,6.07,48,99,0.0,Clouds,overcast clouds,21
Bácsalmás,46.118056,19.346389,2026-03-18 21:50:14.984089,7.61,4.61,7.61,7.61,1021,54,4.98,55,100,0.0,Clouds,overcast clouds,21
Almás,46.116216,19.328803,2026-03-18 21:50:16.260028,7.61,4.61,7.61,7.61,1021,54,4.98,55,100,0.0,Clouds,overcast clouds,21
Bácsbokod-Bácsborsód,46.115833,19.16,2026-03-18 21:50:17.532255,7.63,4.49,7.63,7.63,1021,54,5.32,55,99,0.0,Clouds,overcast clouds,21
Baja,46.187014,18.957602,2026-03-18 21:50:18.806073,7.97,4.53,7.97,7.97,1021,51,6.4,50,99,0.0,Clouds,overcast clouds,21
Harkakötöny,46.458333,19.601944,2026-03-18 21:50:20.081291,7.81,4.82,7.81,7.81,1022,48,5.08,42,100,0.0,Clouds,overcast clouds,21
Tajó,46.473056,19.650556,2026-03-18 21:50:21.360292,7.81,4.87,7.81,7.81,1022,48,4.95,41,100,0.0,Clouds,overcast clouds,21
Kiskunmajsa,46.501667,19.728056,2026-03-18 21:50:22.633233,7.84,5.04,7.84,7.84,1022,48,4.66,41,100,0.0,Clouds,overcast clouds,21
Jászszentlászló,46.565833,19.753611,2026-03-18 21:50:23.903374,7.91,5.03,7.91,7.91,1022,48,4.88,42,98,0.0,Clouds,overcast clouds,21
Galambos,46.625,19.801111,2026-03-18 21:50:25.182162,7.92,4.78,7.92,7.92,1022,47,5.53,42,95,0.0,Clouds,overcast clouds,21
Pestszentimre,47.402222,19.188611,2026-03-18 21:50:26.447379,8.23,5.14,8.23,8.23,1023,47,5.59,49,8,0.0,Clear,clear sky,21
Gyál felső,47.390278,19.204722,2026-03-18 21:50:27.718419,8.15,5.04,8.15,8.15,1023,47,5.6,48,9,0.0,Clear,clear sky,21
Gyál,47.376667,19.219444,2026-03-18 21:50:28.989098,8.15,5.04,8.15,8.15,1023,47,5.6,48,9,0.0,Clear,clear sky,21
Ócsa,47.301389,19.232222,2026-03-18 21:50:30.258579,8.26,5.09,8.26,8.26,1023,49,5.84,48,10,0.0,Clear,clear sky,21
Inárcs-Kakucs,47.247222,19.317778,2026-03-18 21:50:31.524251,8.26,4.93,8.26,8.26,1023,50,6.31,49,15,0.0,Clouds,few clouds,21
Dabas,47.194722,19.328889,2026-03-18 21:50:32.792370,8.19,4.71,8.19,8.19,1023,50,6.69,49,19,0.0,Clouds,few clouds,21
Gyón,47.178333,19.355556,2026-03-18 21:50:34.062088,8.21,4.69,8.21,8.21,1023,50,6.83,49,23,0.0,Clouds,few clouds,21
Hernád,47.161389,19.4025,2026-03-18 21:50:35.327672,8.1,4.43,8.1,8.1,1023,49,7.21,49,25,0.0,Clouds,scattered clouds,21
Bakonygyirót,47.416389,17.811944,2026-03-18 21:50:36.598340,7.58,4.38,7.58,7.58,1024,54,5.44,78,23,0.0,Clouds,few clouds,21
Vinye,47.360317,17.819635,2026-03-18 21:50:37.873630,7.13,3.88,7.13,7.13,1024,54,5.29,75,25,0.0,Clouds,scattered clouds,21
Nemesgörzsöny,47.402924,17.376385,2026-03-18 21:50:39.152919,7.88,5.12,7.88,7.88,1024,54,4.58,68,36,0.0,Clouds,scattered clouds,21
Rábahíd,47.438618,17.337525,2026-03-18 21:50:40.417054,7.85,5.22,7.85,7.85,1024,54,4.28,66,37,0.0,Clouds,scattered clouds,21
Öskü,47.162222,18.076389,2026-03-18 21:50:41.689920,7.64,4.73,7.64,7.64,1024,53,4.79,48,38,0.0,Clouds,scattered clouds,21
Márkó,47.1275,17.813889,2026-03-18 21:50:42.961244,6.71,3.54,6.71,6.71,1024,54,4.86,59,52,0.0,Clouds,broken clouds,21
Nemeskocs,47.203333,17.188889,2026-03-18 21:50:44.231436,7.68,5.22,7.68,7.68,1024,55,3.86,50,55,0.0,Clouds,broken clouds,21
Zalagyömörő,47.011111,17.220833,2026-03-18 21:50:45.497343,7.69,4.85,7.69,7.69,1023,53,4.66,60,79,0.0,Clouds,broken clouds,21
Rigács,47.061667,17.199167,2026-03-18 21:50:46.770886,7.64,4.85,7.64,7.64,1023,53,4.51,59,76,0.0,Clouds,broken clouds,21
Kemenespálfa,47.139722,17.183056,2026-03-18 21:50:48.045002,7.66,5.11,7.66,7.66,1023,54,4.03,53,66,0.0,Clouds,broken clouds,21
Lentiszombathely,46.611389,16.5725,2026-03-18 21:50:49.317018,7.98,5.42,7.98,7.98,1022,62,4.21,63,100,0.0,Clouds,overcast clouds,21
Ortaháza,46.626667,16.685833,2026-03-18 21:50:50.581768,7.76,5.15,7.76,7.76,1022,60,4.21,67,100,0.0,Clouds,overcast clouds,21
Rádiháza,46.654722,16.765833,2026-03-18 21:50:51.851388,7.66,4.98,7.66,7.66,1022,59,4.3,69,100,0.0,Clouds,overcast clouds,21
Baktüttös,46.690833,16.826389,2026-03-18 21:50:53.119226,7.72,4.84,7.72,7.72,1023,58,4.77,70,100,0.0,Clouds,overcast clouds,21
Budafa,46.851667,16.624722,2026-03-18 21:50:54.395911,7.53,5.26,7.53,7.53,1023,62,3.46,52,95,0.0,Clouds,overcast clouds,21
Zalapatakalja,46.845556,16.603889,2026-03-18 21:50:55.662799,7.53,5.25,7.53,7.53,1023,63,3.48,48,96,0.0,Clouds,overcast clouds,21
Tormásliget,47.430556,16.781667,2026-03-18 21:50:56.929953,7.29,4.99,7.29,7.29,1024,60,3.42,18,49,0.0,Clouds,scattered clouds,21
Belecska,46.64,18.411389,2026-03-18 21:50:58.195572,8.2,4.65,8.2,8.2,1022,50,6.93,54,80,0.0,Clouds,broken clouds,21
Almár,47.956111,20.356944,2026-03-18 21:50:59.464254,6.26,2.54,6.26,6.26,1024,64,5.88,38,1,0.0,Clear,clear sky,21
Vasútmúzeum,47.543889,19.099444,2026-03-18 21:51:00.735666,8.37,5.37,8.37,8.37,1023,48,5.46,50,8,0.0,Clear,clear sky,21
Abda,47.690833,17.540556,2026-03-18 21:51:02.005799,7.89,5.13,7.89,7.89,1024,54,4.59,80,19,0.0,Clouds,few clouds,21
Vadaspark,47.526111,18.949167,2026-03-18 21:51:03.291819,6.73,3.1,6.73,6.73,1023,48,5.97,52,7,0.0,Clear,clear sky,21
Barosstelep,47.398889,18.989167,2026-03-18 21:51:04.563540,8.43,5.27,8.43,8.43,1023,47,5.95,52,4,0.0,Clear,clear sky,21
Fegyvernek-Örményes,47.194444,20.5575,2026-03-18 21:51:05.836808,7.92,4.09,7.92,7.92,1022,52,7.58,36,14,0.0,Clouds,few clouds,21
Zagyvapálfalva,48.068889,19.785,2026-03-18 21:51:07.109983,6.82,3.56,6.82,6.82,1024,61,5.11,51,1,0.0,Clear,clear sky,21
Salgótarján,48.105556,19.807222,2026-03-18 21:51:08.377316,6.11,2.68,6.11,6.11,1024,61,5.11,53,1,0.0,Clear,clear sky,21
Szabadisóstó,46.933889,18.118056,2026-03-18 21:51:09.648701,8.16,4.82,8.16,8.16,1023,51,6.26,51,64,0.0,Clouds,broken clouds,21
Siófok,46.907778,18.053889,2026-03-18 21:51:10.918804,8.17,4.77,8.17,8.17,1023,51,6.44,51,68,0.0,Clouds,broken clouds,21
Balatonszéplak felső,46.898056,18.018056,2026-03-18 21:51:12.198846,8.07,4.58,8.07,8.07,1023,52,6.61,52,70,0.0,Clouds,broken clouds,21
Balatonszéplak alsó,46.891944,17.993333,2026-03-18 21:51:13.470768,8.15,4.68,8.15,8.15,1023,52,6.64,52,72,0.0,Clouds,broken clouds,21
Zamárdi felső,46.886111,17.969444,2026-03-18 21:51:14.739003,8.15,4.67,8.15,8.15,1023,52,6.65,52,73,0.0,Clouds,broken clouds,21
Zamárdi,46.88,17.944722,2026-03-18 21:51:16.006321,8.15,4.67,8.15,8.15,1023,52,6.65,52,73,0.0,Clouds,broken clouds,21
Szántód,46.861944,17.899167,2026-03-18 21:51:17.275624,8.15,4.58,8.15,8.15,1023,52,6.93,53,78,0.0,Clouds,broken clouds,21
Szőny-Déli,47.735278,18.141944,2026-03-18 21:51:18.543574,7.98,4.43,7.98,7.98,1024,53,6.73,83,4,0.0,Clear,clear sky,21
Várpalota,47.194444,18.149167,2026-03-18 21:51:19.812760,7.41,4.55,7.41,7.41,1024,52,4.56,47,32,0.0,Clouds,scattered clouds,21
Pétfürdő,47.1675,18.121389,2026-03-18 21:51:21.088407,7.82,5.01,7.82,7.82,1024,53,4.66,47,34,0.0,Clouds,scattered clouds,21
Hajmáskér,47.141111,18.009444,2026-03-18 21:51:22.353357,7.38,4.4,7.38,7.38,1024,53,4.79,49,38,0.0,Clouds,scattered clouds,21
Veszprém,47.118889,17.91,2026-03-18 21:51:23.616103,7.27,4.24,7.27,7.27,1024,54,4.85,53,47,0.0,Clouds,scattered clouds,21
Herend,47.136944,17.760278,2026-03-18 21:51:24.883178,6.61,3.39,6.61,6.61,1023,53,4.9,62,53,0.0,Clouds,broken clouds,21
Városlőd,47.144167,17.652778,2026-03-18 21:51:26.156945,6.39,2.88,6.39,6.39,1023,53,5.44,70,50,0.0,Clouds,scattered clouds,21
Városlőd-Kislőd,47.133889,17.631111,2026-03-18 21:51:27.424594,6.83,3.49,6.83,6.83,1023,53,5.31,69,55,0.0,Clouds,broken clouds,21
Ajka,47.105902,17.572938,2026-03-18 21:51:28.715646,7.24,3.95,7.24,7.24,1023,52,5.45,70,59,0.0,Clouds,broken clouds,21
Ajka-Gyártelep,47.096806,17.555219,2026-03-18 21:51:29.979128,7.24,3.95,7.24,7.24,1023,52,5.45,70,59,0.0,Clouds,broken clouds,21
Devecser,47.1125,17.435278,2026-03-18 21:51:31.252513,7.56,4.35,7.56,7.56,1023,52,5.47,70,61,0.0,Clouds,broken clouds,21
Somlóvásárhely,47.124444,17.369167,2026-03-18 21:51:32.524659,7.59,4.52,7.59,7.59,1023,52,5.14,67,60,0.0,Clouds,broken clouds,21
Tüskevár,47.128611,17.331389,2026-03-18 21:51:33.798905,7.67,4.7,7.67,7.67,1023,52,4.95,66,61,0.0,Clouds,broken clouds,21
Karakószörcsök,47.133611,17.287778,2026-03-18 21:51:35.077576,7.69,4.8,7.69,7.69,1023,53,4.76,64,63,0.0,Clouds,broken clouds,21
Kerta,47.151944,17.237222,2026-03-18 21:51:36.349675,7.72,5.14,7.72,7.72,1023,54,4.13,55,61,0.0,Clouds,broken clouds,21
Boba,47.183333,17.191389,2026-03-18 21:51:37.620005,7.65,5.17,7.65,7.65,1023,55,3.9,51,58,0.0,Clouds,broken clouds,21
Börgönd,47.140278,18.515,2026-03-18 21:51:38.886234,8.08,4.88,8.08,8.08,1023,49,5.78,53,51,0.0,Clouds,broken clouds,21
Belsőbáránd,47.102778,18.499722,2026-03-18 21:51:40.162594,8.03,4.82,8.03,8.03,1023,49,5.77,53,54,0.0,Clouds,broken clouds,21
Zichyújfalu,47.124444,18.6725,2026-03-18 21:51:41.436200,8.11,4.84,8.11,8.11,1023,49,6.02,54,41,0.0,Clouds,scattered clouds,21
Seregélyes,47.121111,18.580556,2026-03-18 21:51:42.708435,8.23,5.05,8.23,8.23,1023,49,5.84,53,50,0.0,Clouds,scattered clouds,21
Polgárdi-Ipartelepek,47.079167,18.314444,2026-03-18 21:51:43.974231,7.73,4.58,7.73,7.73,1023,50,5.42,51,55,0.0,Clouds,broken clouds,21
Polgárdi,47.07,18.284167,2026-03-18 21:51:45.252774,7.73,4.58,7.73,7.73,1023,50,5.42,51,55,0.0,Clouds,broken clouds,21
Füle,47.05,18.255278,2026-03-18 21:51:46.526393,7.69,4.49,7.69,7.69,1023,50,5.53,51,57,0.0,Clouds,broken clouds,21
Zánka-Erzsébettábor,46.8775,17.709167,2026-03-18 21:51:47.795988,8.15,4.48,8.15,8.15,1023,53,7.25,57,88,0.0,Clouds,overcast clouds,21
Csajág,47.033889,18.186389,2026-03-18 21:51:49.073313,7.81,4.56,7.81,7.81,1023,51,5.73,50,58,0.0,Clouds,broken clouds,21
Balatonakarattya,47.017222,18.167778,2026-03-18 21:51:50.339013,7.81,4.56,7.81,7.81,1023,51,5.73,50,58,0.0,Clouds,broken clouds,21
Csittényhegy,47.025278,18.1375,2026-03-18 21:51:51.609543,8.04,4.85,8.04,8.04,1023,51,5.74,49,59,0.0,Clouds,broken clouds,21
Balatonkenese,47.0325,18.105556,2026-03-18 21:51:52.881896,8.15,4.98,8.15,8.15,1023,51,5.75,49,59,0.0,Clouds,broken clouds,21
Balatonfűzfő,47.060278,18.0425,2026-03-18 21:51:54.151768,7.87,4.71,7.87,7.87,1023,52,5.53,47,57,0.0,Clouds,broken clouds,21
Balatonalmádi,47.028333,18.015,2026-03-18 21:51:55.422336,8.08,4.9,8.08,8.08,1023,52,5.73,48,61,0.0,Clouds,broken clouds,21
Káptalanfüred,47.008889,18.003889,2026-03-18 21:51:56.690666,7.2,3.73,7.2,7.2,1023,52,5.9,48,65,0.0,Clouds,broken clouds,21
Alsóörs,46.985278,17.974722,2026-03-18 21:51:57.962514,7.2,3.73,7.2,7.2,1023,52,5.9,48,65,0.0,Clouds,broken clouds,21
Csopak,46.974722,17.931111,2026-03-18 21:51:59.235642,7.56,4.18,7.56,7.56,1023,52,5.9,50,71,0.0,Clouds,broken clouds,21
Balatonarács,46.9625,17.8975,2026-03-18 21:52:00.507254,7.56,4.18,7.56,7.56,1023,52,5.9,50,71,0.0,Clouds,broken clouds,21
Balatonfüred,46.955833,17.883056,2026-03-18 21:52:01.772217,7.96,4.62,7.96,7.96,1023,52,6.09,51,75,0.0,Clouds,broken clouds,21
Aszófő,46.925556,17.8325,2026-03-18 21:52:03.047443,7.94,4.5,7.94,7.94,1023,52,6.35,53,79,0.0,Clouds,broken clouds,21
Örvényes,46.9125,17.818056,2026-03-18 21:52:04.323214,7.94,4.5,7.94,7.94,1023,52,6.35,53,79,0.0,Clouds,broken clouds,21
Balatonudvari,46.904722,17.808056,2026-03-18 21:52:05.604752,7.41,3.84,7.41,7.41,1023,52,6.33,53,80,0.0,Clouds,broken clouds,21
Fövenyes,46.893611,17.789444,2026-03-18 21:52:06.876766,8.06,4.54,8.06,8.06,1023,52,6.69,54,82,0.0,Clouds,broken clouds,21
Balatonakali-Dörgicse,46.88,17.747778,2026-03-18 21:52:08.146208,7.69,4.06,7.69,7.69,1023,53,6.73,55,84,0.0,Clouds,broken clouds,21
Zánka-Köveskál,46.872778,17.687778,2026-03-18 21:52:09.414709,7.75,3.95,7.75,7.75,1023,53,7.32,58,89,0.0,Clouds,overcast clouds,21
Balatonszepezd,46.851111,17.663056,2026-03-18 21:52:10.681923,8.15,4.35,8.15,8.15,1023,53,7.71,57,91,0.0,Clouds,overcast clouds,21
Szepezdfürdő,46.839722,17.649444,2026-03-18 21:52:11.950714,7.12,3.0,7.12,7.12,1023,53,7.76,58,92,0.0,Clouds,overcast clouds,21
Révfülöp,46.829167,17.632222,2026-03-18 21:52:13.225074,7.12,3.0,7.12,7.12,1023,53,7.76,58,92,0.0,Clouds,overcast clouds,21
Balatonrendes,46.824722,17.582778,2026-03-18 21:52:14.502597,7.79,3.78,7.79,7.79,1023,53,8.07,60,95,0.0,Clouds,overcast clouds,21
Ábrahámhegy,46.815,17.572222,2026-03-18 21:52:15.829441,7.79,3.78,7.79,7.79,1023,53,8.07,60,95,0.0,Clouds,overcast clouds,21
Badacsonyörs,46.805556,17.531667,2026-03-18 21:52:17.098928,8.04,4.12,8.04,8.04,1023,53,8.0,60,96,0.0,Clouds,overcast clouds,21
Kisújszállás,47.223889,20.751111,2026-03-18 21:52:18.371419,7.83,3.92,7.83,7.83,1022,53,7.76,35,11,0.0,Clouds,few clouds,21
Karcag,47.303333,20.928056,2026-03-18 21:52:19.640632,7.68,3.76,7.68,7.68,1022,54,7.65,33,6,0.0,Clear,clear sky,21
Püspökladány,47.3275,21.128889,2026-03-18 21:52:20.910997,7.58,3.66,7.58,7.58,1022,53,7.56,32,5,0.0,Clear,clear sky,21
Kaba,47.368889,21.259444,2026-03-18 21:52:22.182433,7.47,3.52,7.47,7.47,1022,52,7.53,34,4,0.0,Clear,clear sky,21
Hajdúszoboszló,47.429444,21.406944,2026-03-18 21:52:23.455519,7.28,3.35,7.28,7.28,1023,52,7.3,35,4,0.0,Clear,clear sky,21
Ebes,47.462778,21.488889,2026-03-18 21:52:24.728559,7.18,3.26,7.18,7.18,1023,52,7.18,35,4,0.0,Clear,clear sky,21
Debrecen,47.520278,21.628611,2026-03-18 21:52:25.993435,6.98,3.06,6.98,6.98,1023,52,7.0,36,4,0.0,Clear,clear sky,21
Debrecen-Csapókert,47.540556,21.648056,2026-03-18 21:52:27.268953,6.82,2.88,6.82,6.82,1023,52,6.92,37,3,0.0,Clear,clear sky,21
Apafa,47.584045,21.655858,2026-03-18 21:52:28.538347,6.77,2.82,6.77,6.77,1023,53,6.89,37,3,0.0,Clear,clear sky,21
Bocskaikert,47.6425,21.666389,2026-03-18 21:52:29.809226,6.56,2.58,6.56,6.56,1023,55,6.83,37,1,0.0,Clear,clear sky,21
Hajdúhadház,47.686944,21.679167,2026-03-18 21:52:31.083238,6.58,2.67,6.58,6.58,1023,56,6.64,37,1,0.0,Clear,clear sky,21
Téglás,47.714722,21.684722,2026-03-18 21:52:32.347612,6.59,2.69,6.59,6.59,1023,57,6.62,37,1,0.0,Clear,clear sky,21
Újfehértó,47.814444,21.706389,2026-03-18 21:52:33.619162,6.63,2.78,6.63,6.63,1023,60,6.51,37,0,0.0,Clear,clear sky,21
Nyíregyháza,47.946667,21.705556,2026-03-18 21:52:34.890300,6.52,2.64,6.52,6.52,1024,63,6.49,34,0,0.0,Clear,clear sky,21
Sóstó,47.998051,21.729047,2026-03-18 21:52:36.160578,6.4,2.45,6.4,6.4,1024,64,6.59,33,0,0.0,Clear,clear sky,21
Sóstóhegy,48.012222,21.742778,2026-03-18 21:52:37.432677,6.44,2.49,6.44,6.44,1024,65,6.62,32,0,0.0,Clear,clear sky,21
Kemecse,48.065556,21.801667,2026-03-18 21:52:38.713397,6.33,2.37,6.33,6.33,1024,66,6.58,31,0,0.0,Clear,clear sky,21
Nyírbogdány,48.082222,21.855278,2026-03-18 21:52:39.990052,6.24,2.29,6.24,6.24,1024,67,6.47,30,0,0.0,Clear,clear sky,21
Kék,48.093333,21.883889,2026-03-18 21:52:41.260066,6.26,2.37,6.26,6.26,1024,66,6.34,29,0,0.0,Clear,clear sky,21
Demecser,48.111667,21.926667,2026-03-18 21:52:42.527660,6.22,2.36,6.22,6.22,1024,66,6.22,29,0,0.0,Clear,clear sky,21
Gégény,48.128333,21.951944,2026-03-18 21:52:43.798406,6.16,2.31,6.16,6.16,1024,67,6.14,28,0,0.0,Clear,clear sky,21
Pátroha,48.158611,21.996667,2026-03-18 21:52:45.087370,6.15,2.32,6.15,6.15,1024,67,6.09,28,0,0.0,Clear,clear sky,21
Ajak,48.1865,22.048972,2026-03-18 21:52:46.355954,6.12,2.28,6.12,6.12,1024,67,6.09,27,0,0.0,Clear,clear sky,21
Kisvárda,48.208333,22.078333,2026-03-18 21:52:47.628401,6.1,2.26,6.1,6.1,1024,66,6.09,28,0,0.0,Clear,clear sky,21
Kisvárda-Hármasút,48.228333,22.091944,2026-03-18 21:52:48.897312,6.1,2.26,6.1,6.1,1024,66,6.09,28,0,0.0,Clear,clear sky,21
Fényeslitke,48.267222,22.107222,2026-03-18 21:52:50.171113,6.01,2.17,6.01,6.01,1024,66,6.03,28,0,0.0,Clear,clear sky,21
Komoró,48.305278,22.118056,2026-03-18 21:52:51.442901,6.01,2.19,6.01,6.01,1024,67,5.96,27,0,0.0,Clear,clear sky,21
Tuzsér,48.342222,22.131667,2026-03-18 21:52:52.713083,5.93,2.18,5.93,5.93,1024,67,5.73,26,0,0.0,Clear,clear sky,21
Tiszabezdéd,48.371389,22.145,2026-03-18 21:52:53.990028,5.93,2.28,5.93,5.93,1024,67,5.51,26,0,0.0,Clear,clear sky,21
Záhony,48.402222,22.183611,2026-03-18 21:52:55.265853,5.91,2.35,5.91,5.91,1024,67,5.27,26,0,0.0,Clear,clear sky,21
Karcag-Vásártér,47.3225,20.9075,2026-03-18 21:52:56.537870,7.68,3.76,7.68,7.68,1022,54,7.65,33,6,0.0,Clear,clear sky,21
Berekfürdő,47.374722,20.827222,2026-03-18 21:52:57.810190,7.72,3.8,7.72,7.72,1023,55,7.69,34,3,0.0,Clear,clear sky,21
Kunmadaras,47.415278,20.793056,2026-03-18 21:52:59.082816,7.71,3.81,7.71,7.71,1023,56,7.59,34,1,0.0,Clear,clear sky,21
Tiszaszentimre,47.490833,20.733056,2026-03-18 21:53:00.349822,7.75,3.92,7.75,7.75,1023,58,7.42,34,1,0.0,Clear,clear sky,21
Tiszaszőlős,47.555556,20.728056,2026-03-18 21:53:01.623476,7.7,3.85,7.7,7.7,1023,58,7.42,35,2,0.0,Clear,clear sky,21
Hosszúhát,47.235556,21.101944,2026-03-18 21:53:02.902059,7.59,3.75,7.59,7.59,1022,52,7.3,29,10,0.0,Clear,clear sky,21
Szerep,47.234444,21.145833,2026-03-18 21:53:04.172780,7.57,3.73,7.57,7.57,1022,52,7.27,29,10,0.0,Clear,clear sky,21
Sárrétudvari,47.231667,21.180833,2026-03-18 21:53:05.442593,7.54,3.7,7.54,7.54,1022,52,7.23,29,10,0.0,Clear,clear sky,21
Biharnagybajom,47.208889,21.221944,2026-03-18 21:53:06.714279,7.51,3.7,7.51,7.51,1022,51,7.12,29,12,0.0,Clouds,few clouds,21
Füzesgyarmat,47.113056,21.194444,2026-03-18 21:53:07.986235,7.53,3.79,7.53,7.53,1022,51,6.92,26,25,0.0,Clouds,scattered clouds,21
Füzesgyarmatfürdő,47.093787,21.201582,2026-03-18 21:53:09.258301,7.53,3.79,7.53,7.53,1022,51,6.92,26,25,0.0,Clouds,scattered clouds,21
Báránd,47.299722,21.235278,2026-03-18 21:53:10.524988,7.53,3.64,7.53,7.53,1022,52,7.4,32,6,0.0,Clear,clear sky,21
Sáp,47.259722,21.360556,2026-03-18 21:53:11.793833,7.45,3.62,7.45,7.45,1022,50,7.14,31,8,0.0,Clear,clear sky,21
Berettyóújfalu,47.211944,21.535556,2026-03-18 21:53:13.067358,7.27,3.5,7.27,7.27,1022,49,6.79,32,11,0.0,Clouds,few clouds,21
Mezőpeterd,47.176111,21.625278,2026-03-18 21:53:14.350537,7.21,3.54,7.21,7.21,1021,48,6.46,33,14,0.0,Clouds,few clouds,21
Biharkeresztes,47.135556,21.721389,2026-03-18 21:53:15.623613,7.05,3.75,7.05,7.05,1021,48,5.36,36,18,0.0,Clouds,few clouds,21
Tócóvölgy,47.529444,21.588889,2026-03-18 21:53:16.895385,7.04,3.12,7.04,7.04,1023,52,7.04,36,4,0.0,Clear,clear sky,21
Sáregres,46.7825,18.588889,2026-03-18 21:53:18.171507,8.27,4.8,8.27,8.27,1023,50,6.74,55,62,0.0,Clouds,broken clouds,21
Simontornya,46.756582,18.540674,2026-03-18 21:53:19.442020,8.17,4.65,8.17,8.17,1023,50,6.81,55,64,0.0,Clouds,broken clouds,21
Tolnanémedi,46.727778,18.475833,2026-03-18 21:53:20.707891,8.23,4.71,8.23,8.23,1023,50,6.84,55,66,0.0,Clouds,broken clouds,21
Pincehely,46.681389,18.43,2026-03-18 21:53:21.977801,8.08,4.49,8.08,8.08,1022,50,6.94,55,72,0.0,Clouds,broken clouds,21
Keszőhidegkút-Gyönk,46.597778,18.426111,2026-03-18 21:53:23.248629,8.11,4.54,8.11,8.11,1022,50,6.89,54,84,0.0,Clouds,broken clouds,21
Szárazd,46.575556,18.420833,2026-03-18 21:53:24.521535,8.14,4.6,8.14,8.14,1022,50,6.83,54,88,0.0,Clouds,overcast clouds,21
Regöly,46.568889,18.396111,2026-03-18 21:53:25.798383,8.14,4.6,8.14,8.14,1022,50,6.83,54,88,0.0,Clouds,overcast clouds,21
Szakály-Hőgyész,46.523611,18.389444,2026-03-18 21:53:27.070313,8.04,4.52,8.04,8.04,1022,50,6.7,53,95,0.0,Clouds,overcast clouds,21
Dúzs,46.493889,18.377222,2026-03-18 21:53:28.340631,8.07,4.6,8.07,8.07,1022,50,6.57,53,97,0.0,Clouds,overcast clouds,21
Csibrák,46.466667,18.336389,2026-03-18 21:53:29.612286,8.12,4.7,8.12,8.12,1022,50,6.45,53,99,0.0,Clouds,overcast clouds,21
Kurd,46.449167,18.319167,2026-03-18 21:53:30.884401,7.77,4.31,7.77,7.77,1022,50,6.28,53,100,0.0,Clouds,overcast clouds,21
Döbrököz,46.418889,18.255,2026-03-18 21:53:32.156258,8.03,4.69,8.03,8.03,1022,51,6.14,53,100,0.0,Clouds,overcast clouds,21
Dombóvár,46.37,18.149722,2026-03-18 21:53:33.426938,7.97,4.73,7.97,7.97,1022,51,5.82,53,100,0.0,Clouds,overcast clouds,21
Dombóvár alsó,46.363889,18.134167,2026-03-18 21:53:34.691997,7.97,4.73,7.97,7.97,1022,51,5.82,53,100,0.0,Clouds,overcast clouds,21
Somoskőújfalu,48.154722,19.815556,2026-03-18 21:53:35.961776,4.96,1.26,4.96,4.96,1025,61,5.05,55,2,0.0,Clear,clear sky,21
Jászfényszaru,47.593056,19.754444,2026-03-18 21:53:37.227197,8.05,4.89,8.05,8.05,1023,52,5.66,47,2,0.0,Clear,clear sky,21
Pusztamonostor,47.564444,19.794167,2026-03-18 21:53:38.492232,8.05,4.84,8.05,8.05,1023,52,5.79,48,3,0.0,Clear,clear sky,21
Jászberény,47.494444,19.893333,2026-03-18 21:53:39.761407,8.12,4.75,8.12,8.12,1023,51,6.31,49,3,0.0,Clear,clear sky,21
Meggyespele,47.441944,19.938889,2026-03-18 21:53:41.026006,8.14,4.58,8.14,8.14,1023,52,6.9,48,4,0.0,Clear,clear sky,21
Portelek,47.418056,19.958889,2026-03-18 21:53:42.295295,8.14,4.56,8.14,8.14,1023,52,6.96,48,4,0.0,Clear,clear sky,21
Jászboldogháza-Jánoshida,47.366944,20.001389,2026-03-18 21:53:43.564521,8.11,4.49,8.11,8.11,1023,52,7.07,46,6,0.0,Clear,clear sky,21
Jászárokszállás,47.635556,19.971111,2026-03-18 21:53:44.835513,8.04,4.74,8.04,8.04,1023,53,6.04,48,1,0.0,Clear,clear sky,21
Jászdózsa,47.563056,20.028056,2026-03-18 21:53:46.104407,8.07,4.6,8.07,8.07,1023,53,6.57,48,3,0.0,Clear,clear sky,21
Jászapáti,47.513611,20.155,2026-03-18 21:53:47.375653,8.03,4.38,8.03,8.03,1023,54,7.08,47,3,0.0,Clear,clear sky,21
Jászkisér,47.456111,20.203333,2026-03-18 21:53:48.645174,8.04,4.37,8.04,8.04,1023,54,7.16,45,3,0.0,Clear,clear sky,21
Jászladány,47.373333,20.159167,2026-03-18 21:53:49.919632,8.09,4.44,8.09,8.09,1023,53,7.13,43,6,0.0,Clear,clear sky,21
Szászberek,47.320556,20.090833,2026-03-18 21:53:51.190243,8.08,4.45,8.08,8.08,1023,52,7.06,42,9,0.0,Clear,clear sky,21
Gyöngyöshalász,47.743056,19.932222,2026-03-18 21:53:52.462252,7.74,4.58,7.74,7.74,1024,55,5.46,44,0,0.0,Clear,clear sky,21
Gyöngyös,47.783056,19.937222,2026-03-18 21:53:53.727333,7.34,4.07,7.34,7.34,1024,56,5.47,44,0,0.0,Clear,clear sky,21
Erdőtelek,47.683333,20.3025,2026-03-18 21:53:54.994960,7.73,3.94,7.73,7.73,1023,56,7.25,47,1,0.0,Clear,clear sky,21
Heves,47.609444,20.306111,2026-03-18 21:53:56.264922,7.87,4.11,7.87,7.87,1023,55,7.29,46,2,0.0,Clear,clear sky,21
Hevesvezekény,47.562222,20.365833,2026-03-18 21:53:57.540850,7.89,4.1,7.89,7.89,1023,56,7.42,44,3,0.0,Clear,clear sky,21
Tarnaszentmiklós,47.546944,20.390833,2026-03-18 21:53:58.807218,7.91,4.14,7.91,7.91,1023,56,7.37,43,3,0.0,Clear,clear sky,21
Kisköre,47.495556,20.481667,2026-03-18 21:54:00.077598,7.89,4.12,7.89,7.89,1023,56,7.35,39,2,0.0,Clear,clear sky,21
Abádszalók,47.455278,20.553056,2026-03-18 21:54:01.347066,7.87,4.1,7.87,7.87,1023,56,7.32,38,1,0.0,Clear,clear sky,21
Kunhegyes,47.376667,20.641111,2026-03-18 21:54:02.621741,7.83,4.0,7.83,7.83,1023,56,7.49,35,0,0.0,Clear,clear sky,21
Kenderes,47.254444,20.686111,2026-03-18 21:54:03.889849,7.87,3.98,7.87,7.87,1022,53,7.74,36,8,0.0,Clear,clear sky,21
Maklár,47.808056,20.404722,2026-03-18 21:54:05.162754,7.42,3.54,7.42,7.42,1023,60,7.26,44,0,0.0,Clear,clear sky,21
Andornaktálya,47.852203,20.402295,2026-03-18 21:54:06.433212,7.16,3.37,7.16,7.16,1024,62,6.77,42,0,0.0,Clear,clear sky,21
Eger,47.891667,20.381667,2026-03-18 21:54:07.708397,7.03,3.31,7.03,7.03,1024,63,6.46,41,0,0.0,Clear,clear sky,21
Egervár,47.908056,20.380556,2026-03-18 21:54:08.981725,7.1,3.47,7.1,7.1,1024,64,6.24,40,0,0.0,Clear,clear sky,21
Eger-Felnémet,47.936667,20.370556,2026-03-18 21:54:10.247013,6.98,3.4,6.98,6.98,1024,64,6.02,39,0,0.0,Clear,clear sky,21
Szarvaskő,47.988611,20.3325,2026-03-18 21:54:11.520634,6.31,2.68,6.31,6.31,1024,65,5.7,37,1,0.0,Clear,clear sky,21
Mónosbél,48.031944,20.33,2026-03-18 21:54:12.788551,6.32,2.81,6.32,6.32,1024,65,5.4,38,2,0.0,Clear,clear sky,21
Bélapátfalva,48.055556,20.340556,2026-03-18 21:54:14.067731,6.04,2.52,6.04,6.04,1024,66,5.27,39,2,0.0,Clear,clear sky,21
Bélapátfalvi Cementgyár,48.058056,20.355,2026-03-18 21:54:15.340403,6.04,2.52,6.04,6.04,1024,66,5.27,39,2,0.0,Clear,clear sky,21
Szilvásvárad,48.11345,20.37919,2026-03-18 21:54:16.606727,5.67,2.18,5.67,5.67,1024,66,4.99,42,3,0.0,Clear,clear sky,21
Hejőkeresztúr,47.960278,20.869444,2026-03-18 21:54:17.875413,7.26,3.4,7.26,7.26,1024,63,7.06,31,0,0.0,Clear,clear sky,21
Tiszaújváros,47.926111,21.030556,2026-03-18 21:54:19.145743,7.22,3.39,7.22,7.22,1024,63,6.94,37,0,0.0,Clear,clear sky,21
Miskolc-Gömöri,48.106667,20.800278,2026-03-18 21:54:20.413056,7.07,3.33,7.07,7.07,1024,67,6.53,26,0,0.0,Clear,clear sky,21
Sajókeresztúr,48.168008,20.774014,2026-03-18 21:54:21.678210,7.03,3.39,7.03,7.03,1024,68,6.23,27,1,0.0,Clear,clear sky,21
Sajóecseg,48.186111,20.766667,2026-03-18 21:54:22.944187,7.09,3.49,7.09,7.09,1024,68,6.15,28,1,0.0,Clear,clear sky,21
Sajószentpéter,48.222222,20.708056,2026-03-18 21:54:24.223655,7.09,3.56,7.09,7.09,1024,67,5.96,30,2,0.0,Clear,clear sky,21
Kazincbarcika,48.264444,20.6275,2026-03-18 21:54:25.493200,7.09,3.86,7.09,7.09,1024,67,5.2,40,3,0.0,Clear,clear sky,21
Sajókaza,48.272778,20.581944,2026-03-18 21:54:26.763701,7.11,3.95,7.11,7.11,1024,66,5.06,42,4,0.0,Clear,clear sky,21
Vadna,48.276389,20.555278,2026-03-18 21:54:28.027087,7.11,3.95,7.11,7.11,1024,66,5.06,42,4,0.0,Clear,clear sky,21
Dubicsány,48.280833,20.504722,2026-03-18 21:54:29.297580,7.15,4.14,7.15,7.15,1024,66,4.74,47,4,0.0,Clear,clear sky,21
Raposka,46.851389,17.412778,2026-03-18 21:54:30.567404,8.08,4.4,8.08,8.08,1023,52,7.23,63,96,0.0,Clouds,overcast clouds,21
Ivacs,47.641944,19.273889,2026-03-18 21:54:31.835091,7.62,4.44,7.62,7.62,1024,50,5.43,48,5,0.0,Clear,clear sky,21
Kisköre-Tiszahíd,47.480835,20.507698,2026-03-18 21:54:33.105828,7.9,4.15,7.9,7.9,1023,56,7.3,38,1,0.0,Clear,clear sky,21
Rozsály,47.912778,22.7825,2026-03-18 21:54:34.377598,6.25,3.94,6.25,6.25,1024,60,3.1,35,0,0.0,Clear,clear sky,21
Pusztakettős,47.453611,20.749722,2026-03-18 21:54:35.649476,7.73,3.86,7.73,7.73,1023,57,7.51,34,1,0.0,Clear,clear sky,21
Kisvác,47.795278,19.113611,2026-03-18 21:54:36.917655,7.94,4.9,7.94,7.94,1024,54,5.29,53,1,0.0,Clear,clear sky,21
Tiszafüred-Gyártelep,47.6075,20.736111,2026-03-18 21:54:38.186322,7.66,3.78,7.66,7.66,1023,59,7.49,37,2,0.0,Clear,clear sky,21
Újkenéz,48.251111,22.221667,2026-03-18 21:54:39.451887,5.97,2.25,5.97,5.97,1024,65,5.7,28,0,0.0,Clear,clear sky,21
Püspökladány-Vásártér,47.319167,21.096111,2026-03-18 21:54:40.723478,7.58,3.68,7.58,7.58,1022,53,7.48,32,6,0.0,Clear,clear sky,21
Végegyháza alsó,46.3675,20.866944,2026-03-18 21:54:41.994265,7.06,4.21,7.06,7.06,1021,63,4.36,39,95,0.0,Clouds,overcast clouds,21
Orosháza felső,46.553611,20.655278,2026-03-18 21:54:43.259858,7.49,4.18,7.49,7.49,1021,57,5.67,33,99,0.0,Clouds,overcast clouds,21
Ambrózfalva,46.353056,20.740556,2026-03-18 21:54:44.542125,7.17,4.24,7.17,7.17,1021,61,4.58,38,97,0.0,Clouds,overcast clouds,21
Alsónyék,46.199444,18.738056,2026-03-18 21:54:45.813430,8.03,4.65,8.03,8.03,1021,51,6.26,45,99,0.0,Clouds,overcast clouds,21
Tompapuszta,46.321389,20.966389,2026-03-18 21:54:47.084910,6.93,4.5,6.93,6.93,1021,65,3.51,42,98,0.0,Clouds,overcast clouds,21
Halászlak,46.911879,20.56228,2026-03-18 21:54:48.358580,7.85,4.08,7.85,7.85,1022,51,7.3,31,79,0.0,Clouds,broken clouds,21
Sirató,46.840556,20.61,2026-03-18 21:54:49.637665,7.8,4.06,7.8,7.8,1022,52,7.16,29,92,0.0,Clouds,overcast clouds,21
Csabacsűd felső,46.829167,20.649167,2026-03-18 21:54:50.916021,7.76,4.03,7.76,7.76,1022,52,7.11,28,91,0.0,Clouds,overcast clouds,21
Orosháza-Üveggyár,46.579979,20.683644,2026-03-18 21:54:52.195117,7.47,4.11,7.47,7.47,1021,57,5.79,31,99,0.0,Clouds,overcast clouds,21
Gyulai városerdő,46.69482,21.32281,2026-03-18 21:54:53.467435,7.2,4.2,7.2,7.2,1021,57,4.75,28,83,0.0,Clouds,broken clouds,21
Kórógyszentgyörgy,46.564377,20.224998,2026-03-18 21:54:54.733226,7.84,4.67,7.84,7.84,1022,51,5.55,38,100,0.0,Clouds,overcast clouds,21
Kunszállás,46.784444,19.767222,2026-03-18 21:54:56.008605,7.95,4.2,7.95,7.95,1022,47,7.34,41,81,0.0,Clouds,broken clouds,21
Selymes,46.655321,19.8534,2026-03-18 21:54:57.275480,7.93,4.64,7.93,7.93,1022,47,5.94,42,95,0.0,Clouds,overcast clouds,21
Petőfiszállási tanyák,46.587805,19.874509,2026-03-18 21:54:58.555266,7.92,4.89,7.92,7.92,1022,48,5.24,41,98,0.0,Clouds,overcast clouds,21
Kisteleki szőlők,46.514199,19.92868,2026-03-18 21:54:59.824577,7.83,5.02,7.83,7.83,1022,49,4.66,39,100,0.0,Clouds,overcast clouds,21
Kapitányság,46.435336,19.987564,2026-03-18 21:55:01.093949,7.82,4.94,7.82,7.82,1022,50,4.82,36,99,0.0,Clouds,overcast clouds,21
Őszeszék,46.39025,20.016017,2026-03-18 21:55:02.359537,7.78,4.78,7.78,7.78,1021,51,5.08,33,99,0.0,Clouds,overcast clouds,21
Vilmaszállás,46.366389,20.030833,2026-03-18 21:55:03.631114,7.77,4.72,7.77,7.77,1021,51,5.19,32,100,0.0,Clouds,overcast clouds,21
Jánosszállás,46.334359,20.051199,2026-03-18 21:55:04.899619,7.75,4.67,7.75,7.75,1021,51,5.26,32,100,0.0,Clouds,overcast clouds,21
Felsőpakony,47.343056,19.230556,2026-03-18 21:55:06.178591,8.24,5.1,8.24,8.24,1023,48,5.75,48,9,0.0,Clear,clear sky,21
Felsőméntelek,46.987074,19.557745,2026-03-18 21:55:07.448985,7.94,4.16,7.94,7.94,1023,49,7.44,45,53,0.0,Clouds,broken clouds,21
Alsóméntelek,46.961558,19.579121,2026-03-18 21:55:08.721250,7.93,4.14,7.93,7.93,1022,48,7.45,45,57,0.0,Clouds,broken clouds,21
Nagynyír,46.943319,19.585447,2026-03-18 21:55:09.991315,7.93,4.14,7.93,7.93,1022,48,7.46,45,60,0.0,Clouds,broken clouds,21
Úrihegy,46.917778,19.621389,2026-03-18 21:55:11.264610,7.96,4.17,7.96,7.96,1022,48,7.48,44,63,0.0,Clouds,broken clouds,21
Miklóstelep,46.913412,19.630913,2026-03-18 21:55:12.534799,7.96,4.17,7.96,7.96,1022,47,7.48,43,64,0.0,Clouds,broken clouds,21
Tiszajenő alsó,47.016944,20.134444,2026-03-18 21:55:13.805872,8.01,4.39,8.01,8.01,1022,50,6.97,35,45,0.0,Clouds,scattered clouds,21
Óbög,46.987222,20.111111,2026-03-18 21:55:15.076879,8.02,4.39,8.02,8.02,1022,49,7.03,35,51,0.0,Clouds,broken clouds,21
Árpádszállás,46.866456,19.989163,2026-03-18 21:55:16.342081,7.95,4.17,7.95,7.95,1022,48,7.45,36,80,0.0,Clouds,broken clouds,21
Tőserdő,46.851111,19.980278,2026-03-18 21:55:17.610756,7.99,4.2,7.99,7.99,1022,48,7.5,37,85,0.0,Clouds,overcast clouds,21
Tiszaalpár felső,46.836256,19.976753,2026-03-18 21:55:18.883064,7.99,4.2,7.99,7.99,1022,48,7.5,37,85,0.0,Clouds,overcast clouds,21
Borsihalom,46.773056,19.92,2026-03-18 21:55:20.155018,7.99,4.23,7.99,7.99,1022,47,7.42,39,89,0.0,Clouds,overcast clouds,21
Petőfiváros,46.725556,19.848611,2026-03-18 21:55:21.424971,7.97,4.33,7.97,7.97,1022,47,6.99,41,88,0.0,Clouds,overcast clouds,21
Csorna,47.601944,17.248889,2026-03-18 21:55:22.701296,7.81,5.52,7.81,7.81,1024,55,3.61,65,28,0.0,Clouds,scattered clouds,21
Szorgalmatos,47.986667,21.366389,2026-03-18 21:55:23.966950,6.81,2.96,6.81,6.81,1024,66,6.64,37,0,0.0,Clear,clear sky,21
Fótfürdő,47.6225,19.200556,2026-03-18 21:55:25.242374,8.02,4.97,8.02,8.02,1024,49,5.36,49,6,0.0,Clear,clear sky,21
Fenyveshegy,47.818333,19.068056,2026-03-18 21:55:26.507644,8.14,5.21,8.14,8.14,1024,54,5.14,54,1,0.0,Clear,clear sky,21
Hűvösvölgy,47.541202,18.96351,2026-03-18 21:55:27.778261,7.01,3.5,7.01,7.01,1024,49,5.87,52,8,0.0,Clear,clear sky,21
Hárshegy,47.535318,18.961433,2026-03-18 21:55:29.036039,7.01,3.5,7.01,7.01,1024,49,5.87,52,8,0.0,Clear,clear sky,21
Szépjuhászné,47.528277,18.955246,2026-03-18 21:55:30.300978,6.73,3.1,6.73,6.73,1023,48,5.97,52,7,0.0,Clear,clear sky,21
Jánoshegy,47.51433,18.95047,2026-03-18 21:55:31.566018,6.73,3.1,6.73,6.73,1023,48,5.97,52,7,0.0,Clear,clear sky,21
Virágvölgy,47.505965,18.95876,2026-03-18 21:55:32.838292,6.95,3.36,6.95,6.95,1023,48,6.04,52,7,0.0,Clear,clear sky,21
Csillebérc,47.498196,18.961694,2026-03-18 21:55:34.111195,6.95,3.36,6.95,6.95,1023,48,6.04,52,7,0.0,Clear,clear sky,21
Normafa,47.5,18.970558,2026-03-18 21:55:35.375819,6.95,3.36,6.95,6.95,1023,48,6.04,52,7,0.0,Clear,clear sky,21
Széchenyihegy,47.49413,18.977049,2026-03-18 21:55:36.648078,6.18,2.43,6.18,6.18,1024,47,5.9,52,6,0.0,Clear,clear sky,21
Balatonfőkajár felső,47.031389,18.215278,2026-03-18 21:55:37.916224,7.95,4.75,7.95,7.95,1023,51,5.71,51,58,0.0,Clouds,broken clouds,21
Piroska,47.148333,20.129722,2026-03-18 21:55:39.192235,8.02,4.43,8.02,8.02,1022,51,6.9,36,22,0.0,Clouds,few clouds,21
Somodor,46.4725,17.836667,2026-03-18 21:55:40.461385,7.75,4.19,7.75,7.75,1022,52,6.57,56,98,0.0,Clouds,overcast clouds,21
Középmező,45.995833,18.668889,2026-03-18 21:55:41.734316,7.6,4.98,7.6,7.6,1021,58,4.14,52,100,0.0,Clouds,overcast clouds,21
Jobbágyi,47.828889,19.6875,2026-03-18 21:55:43.006324,7.71,4.55,7.71,7.71,1024,55,5.44,46,0,0.0,Clear,clear sky,21
Ferihegy,47.437222,19.223889,2026-03-18 21:55:44.280275,8.01,4.9,8.01,8.01,1023,47,5.51,48,9,0.0,Clear,clear sky,21
Máriapócs,47.852778,22.019167,2026-03-18 21:55:45.550045,6.22,2.94,6.22,6.22,1024,60,4.82,36,0,0.0,Clear,clear sky,21
Máriaudvar,47.751944,19.165,2026-03-18 21:55:46.821344,8.22,5.23,8.22,8.22,1024,53,5.33,51,2,0.0,Clear,clear sky,21
Nagyberki,46.353333,18.004167,2026-03-18 21:55:48.089748,7.79,4.47,7.79,7.79,1022,51,5.9,53,100,0.0,Clouds,overcast clouds,21
Badacsonytomaj,46.804722,17.518056,2026-03-18 21:55:49.359689,8.04,4.12,8.04,8.04,1023,53,8.0,60,96,0.0,Clouds,overcast clouds,21
Badacsony,46.788611,17.506389,2026-03-18 21:55:50.626970,8.11,4.19,8.11,8.11,1023,53,8.09,61,97,0.0,Clouds,overcast clouds,21
Badacsonylábdihegy,46.793889,17.470833,2026-03-18 21:55:51.896832,8.11,4.19,8.11,8.11,1023,53,8.09,61,97,0.0,Clouds,overcast clouds,21
Badacsonytördemic-Szigliget,46.809722,17.469167,2026-03-18 21:55:53.169935,8.08,4.2,8.08,8.08,1023,53,7.91,61,96,0.0,Clouds,overcast clouds,21
Nemesgulács-Kisapáti,46.836944,17.476389,2026-03-18 21:55:54.440049,8.08,4.28,8.08,8.08,1023,53,7.65,61,95,0.0,Clouds,overcast clouds,21
Tapolca,46.877778,17.428611,2026-03-18 21:55:55.709031,8.01,4.39,8.01,8.01,1023,52,6.96,64,94,0.0,Clouds,overcast clouds,21
Uzsabánya alsó,46.898333,17.345278,2026-03-18 21:55:56.978020,6.89,3.17,6.89,6.89,1023,52,6.34,66,92,0.0,Clouds,overcast clouds,21
Uzsa,46.920278,17.331667,2026-03-18 21:55:58.246874,7.65,4.23,7.65,7.65,1023,52,6.09,66,89,0.0,Clouds,overcast clouds,21
Sümegi Bazaltbánya,46.9525,17.2925,2026-03-18 21:55:59.516414,7.63,4.35,7.63,7.63,1023,52,5.69,66,87,0.0,Clouds,overcast clouds,21
Sümeg,46.981111,17.270833,2026-03-18 21:56:00.787545,7.77,4.73,7.77,7.77,1023,52,5.18,64,85,0.0,Clouds,overcast clouds,21
Gógánfa,47.021111,17.207778,2026-03-18 21:56:02.057003,7.69,4.85,7.69,7.69,1023,53,4.66,60,79,0.0,Clouds,broken clouds,21
Ukk,47.041944,17.195833,2026-03-18 21:56:03.340204,7.71,5.02,7.71,7.71,1023,54,4.35,56,77,0.0,Clouds,broken clouds,21
Nemeskeresztúr,47.093611,17.183611,2026-03-18 21:56:04.606619,7.6,5.0,7.6,7.6,1023,54,4.11,54,69,0.0,Clouds,broken clouds,21
Jánosháza,47.115833,17.171667,2026-03-18 21:56:05.895329,7.66,5.11,7.66,7.66,1023,54,4.03,53,66,0.0,Clouds,broken clouds,21
Keszthely,46.758333,17.248056,2026-03-18 21:56:07.164750,8.06,4.52,8.06,8.06,1022,52,6.78,66,100,0.0,Clouds,overcast clouds,21
Alsógyenes,46.765844,17.276435,2026-03-18 21:56:08.440370,8.11,4.49,8.11,8.11,1022,53,7.08,64,100,0.0,Clouds,overcast clouds,21
Gyenesdiás,46.763333,17.292778,2026-03-18 21:56:09.709505,8.11,4.49,8.11,8.11,1022,53,7.08,64,100,0.0,Clouds,overcast clouds,21
Vonyarcvashegy,46.755278,17.318333,2026-03-18 21:56:10.979673,7.55,3.71,7.55,7.55,1022,53,7.27,64,100,0.0,Clouds,overcast clouds,21
Balatongyörök,46.751944,17.354444,2026-03-18 21:56:12.250993,8.13,4.39,8.13,8.13,1022,53,7.48,63,99,0.0,Clouds,overcast clouds,21
Becehegy,46.776111,17.372778,2026-03-18 21:56:13.530976,6.96,2.91,6.96,6.96,1023,53,7.38,63,99,0.0,Clouds,overcast clouds,21
Balatonederics,46.8025,17.385,2026-03-18 21:56:14.802078,6.88,2.85,6.88,6.88,1023,53,7.24,64,97,0.0,Clouds,overcast clouds,21
Dabronc,47.025766,17.167006,2026-03-18 21:56:16.071166,7.72,4.96,7.72,7.72,1023,53,4.5,58,80,0.0,Clouds,broken clouds,21
Türje,46.994444,17.093611,2026-03-18 21:56:17.342030,7.68,4.97,7.68,7.68,1023,54,4.37,55,85,0.0,Clouds,overcast clouds,21
Zalabér-Batyk,46.983056,17.040833,2026-03-18 21:56:18.607281,7.76,5.17,7.76,7.76,1023,55,4.16,50,88,0.0,Clouds,overcast clouds,21
Pakod,46.959167,16.996667,2026-03-18 21:56:19.881271,7.64,5.07,7.64,7.64,1023,56,4.06,48,88,0.0,Clouds,overcast clouds,21
Pókaszepetk,46.924444,16.972222,2026-03-18 21:56:21.148518,7.8,5.09,7.8,7.8,1023,55,4.43,55,92,0.0,Clouds,overcast clouds,21
Kemendollár,46.905833,16.946667,2026-03-18 21:56:22.417186,7.5,4.79,7.5,7.5,1023,56,4.28,54,92,0.0,Clouds,overcast clouds,21
Zalaegerszeg,46.833056,16.848333,2026-03-18 21:56:23.685901,7.62,5.05,7.62,7.62,1023,58,4.05,61,95,0.0,Clouds,overcast clouds,21
Bocfölde,46.780278,16.853611,2026-03-18 21:56:24.960422,7.78,4.99,7.78,7.78,1023,57,4.59,67,99,0.0,Clouds,overcast clouds,21
Sárhida,46.755833,16.851389,2026-03-18 21:56:26.239340,7.02,4.1,7.02,7.02,1023,58,4.47,69,100,0.0,Clouds,overcast clouds,21
Bak,46.7325,16.849167,2026-03-18 21:56:27.527462,7.47,4.61,7.47,7.47,1023,58,4.58,70,100,0.0,Clouds,overcast clouds,21
Tófej,46.670833,16.801944,2026-03-18 21:56:28.799638,7.37,4.51,7.37,7.37,1023,59,4.53,70,100,0.0,Clouds,overcast clouds,21
Gutorfölde,46.646944,16.739722,2026-03-18 21:56:30.072239,7.66,4.98,7.66,7.66,1022,59,4.3,69,100,0.0,Clouds,overcast clouds,21
Csömödér-Páka,46.608056,16.641111,2026-03-18 21:56:31.336972,7.97,5.37,7.97,7.97,1022,60,4.29,65,100,0.0,Clouds,overcast clouds,21
Iklódbördőce,46.603056,16.604722,2026-03-18 21:56:32.605830,7.79,5.17,7.79,7.79,1022,61,4.23,64,100,0.0,Clouds,overcast clouds,21
Lenti,46.621389,16.528611,2026-03-18 21:56:33.873540,7.96,5.45,7.96,7.96,1022,62,4.1,61,100,0.0,Clouds,overcast clouds,21
Rédics,46.618056,16.471111,2026-03-18 21:56:35.146637,7.96,5.46,7.96,7.96,1022,63,4.07,60,100,0.0,Clouds,overcast clouds,21
Zalalövő,46.845556,16.576389,2026-03-18 21:56:36.418060,7.49,5.18,7.49,7.49,1023,64,3.52,46,96,0.0,Clouds,overcast clouds,21
Zalaegerszeg-Ola,46.849167,16.844722,2026-03-18 21:56:37.689579,7.62,5.05,7.62,7.62,1023,58,4.05,61,95,0.0,Clouds,overcast clouds,21
Andráshida,46.863116,16.7792,2026-03-18 21:56:38.974429,7.54,5.11,7.54,7.54,1023,60,3.76,56,92,0.0,Clouds,overcast clouds,21
Bagod,46.875,16.746111,2026-03-18 21:56:40.244650,7.63,5.33,7.63,7.63,1023,61,3.56,52,92,0.0,Clouds,overcast clouds,21
Zalaszentgyörgy,46.872222,16.7125,2026-03-18 21:56:41.513678,7.58,5.3,7.58,7.58,1023,61,3.5,51,92,0.0,Clouds,overcast clouds,21
Zalacséb-Salomvár,46.858056,16.662222,2026-03-18 21:56:42.788363,7.35,5.04,7.35,7.35,1023,62,3.47,49,92,0.0,Clouds,overcast clouds,21
Kópháza,47.631389,16.6375,2026-03-18 21:56:44.068907,7.13,5.16,7.13,7.13,1025,59,2.86,45,61,0.0,Clouds,broken clouds,21
Nagycenk,47.601111,16.690278,2026-03-18 21:56:45.335759,7.32,5.28,7.32,7.32,1024,59,3.02,40,58,0.0,Clouds,broken clouds,21
Sopronkövesd,47.548333,16.748056,2026-03-18 21:56:46.604012,7.16,4.98,7.16,7.16,1024,59,3.18,32,52,0.0,Clouds,broken clouds,21
Lövő,47.509444,16.7775,2026-03-18 21:56:47.882650,7.12,4.89,7.12,7.12,1024,59,3.26,30,48,0.0,Clouds,scattered clouds,21
Újkér,47.457778,16.786667,2026-03-18 21:56:49.158122,7.19,4.91,7.19,7.19,1024,60,3.35,21,49,0.0,Clouds,scattered clouds,21
Bük,47.388611,16.752222,2026-03-18 21:56:50.436251,7.26,4.82,7.26,7.26,1024,62,3.66,11,54,0.0,Clouds,broken clouds,21
Acsád,47.308333,16.734722,2026-03-18 21:56:51.706663,6.99,4.36,6.99,6.99,1024,63,3.9,11,59,0.0,Clouds,broken clouds,21
Salköveskút-Vassurány,47.291389,16.704167,2026-03-18 21:56:52.974528,7.04,4.39,7.04,7.04,1024,63,3.95,11,61,0.0,Clouds,broken clouds,21
Zalaszentiván,46.8875,16.909444,2026-03-18 21:56:54.258394,7.67,5.08,7.67,7.67,1023,57,4.12,55,92,0.0,Clouds,overcast clouds,21
Alsónemesapáti,46.854167,16.936389,2026-03-18 21:56:55.532437,7.81,4.97,7.81,7.81,1023,56,4.72,61,96,0.0,Clouds,overcast clouds,21
Józsa,47.600833,21.584444,2026-03-18 21:56:56.799297,6.8,2.81,6.8,6.8,1023,54,7.06,36,2,0.0,Clear,clear sky,21
Hajdúszentgyörgy,47.608056,21.578333,2026-03-18 21:56:58.063846,6.8,2.81,6.8,6.8,1023,54,7.06,36,2,0.0,Clear,clear sky,21
Zelemér,47.627778,21.578333,2026-03-18 21:56:59.333714,6.76,2.75,6.76,6.76,1023,55,7.07,37,2,0.0,Clear,clear sky,21
Hajdúböszörmény,47.668056,21.524167,2026-03-18 21:57:00.605318,6.84,2.8,6.84,6.84,1023,56,7.24,37,1,0.0,Clear,clear sky,21
Hajdúvid,47.749444,21.508056,2026-03-18 21:57:01.876765,6.93,2.95,6.93,6.93,1023,59,7.12,37,0,0.0,Clear,clear sky,21
Hajdúdorog,47.805556,21.493056,2026-03-18 21:57:03.146086,6.86,2.92,6.86,6.86,1023,61,6.94,37,0,0.0,Clear,clear sky,21
Hajdúnánás,47.831944,21.426667,2026-03-18 21:57:04.418592,6.99,3.15,6.99,6.99,1024,62,6.76,36,0,0.0,Clear,clear sky,21
Hajdúnánás-Vásártér,47.843056,21.407222,2026-03-18 21:57:05.688847,6.99,3.15,6.99,6.99,1024,62,6.76,36,0,0.0,Clear,clear sky,21
Tedej,47.903611,21.404444,2026-03-18 21:57:06.961359,6.88,3.09,6.88,6.88,1024,64,6.53,37,0,0.0,Clear,clear sky,21
Tiszavasvári,47.945278,21.374722,2026-03-18 21:57:08.224865,6.88,3.08,6.88,6.88,1024,65,6.57,37,0,0.0,Clear,clear sky,21
Egyházerdő,47.9725,21.365,2026-03-18 21:57:09.495541,6.86,3.05,6.86,6.86,1024,65,6.58,37,0,0.0,Clear,clear sky,21
Tiszalök,48.013056,21.369167,2026-03-18 21:57:10.767462,6.77,2.88,6.77,6.77,1024,66,6.72,37,0,0.0,Clear,clear sky,21
Hajnalos,47.998889,21.414167,2026-03-18 21:57:12.038508,6.78,2.96,6.78,6.78,1024,66,6.54,37,0,0.0,Clear,clear sky,21
Kisfástanya,47.989167,21.47,2026-03-18 21:57:13.304618,6.7,2.89,6.7,6.7,1024,66,6.44,36,0,0.0,Clear,clear sky,21
Tiszaeszlár,48.010556,21.491944,2026-03-18 21:57:14.580061,6.65,2.82,6.65,6.65,1024,67,6.46,36,0,0.0,Clear,clear sky,21
Bashalom,48.026111,21.514722,2026-03-18 21:57:15.853742,6.63,2.76,6.63,6.63,1024,67,6.57,36,0,0.0,Clear,clear sky,21
Sáránd,47.415556,21.625,2026-03-18 21:57:17.120117,7.15,3.24,7.15,7.15,1022,51,7.1,37,6,0.0,Clear,clear sky,21
Derecske,47.365,21.584167,2026-03-18 21:57:18.385290,7.2,3.31,7.2,7.2,1022,50,7.08,36,7,0.0,Clear,clear sky,21
Derecske-Vásártér,47.352222,21.58,2026-03-18 21:57:19.650317,7.2,3.31,7.2,7.2,1022,50,7.08,36,7,0.0,Clear,clear sky,21
Konyár,47.323611,21.666111,2026-03-18 21:57:20.950898,7.19,3.33,7.19,7.19,1022,49,6.98,37,10,0.0,Clear,clear sky,21
Konyári Sóstófürdő,47.324167,21.744444,2026-03-18 21:57:22.221624,7.15,3.29,7.15,7.15,1022,48,6.95,38,12,0.0,Clouds,few clouds,21
Pocsaj-Esztár,47.288333,21.793056,2026-03-18 21:57:23.492035,7.08,3.27,7.08,7.08,1022,48,6.74,39,13,0.0,Clouds,few clouds,21
Kismarja,47.243889,21.813889,2026-03-18 21:57:24.761378,7.07,3.4,7.07,7.07,1021,48,6.35,39,14,0.0,Clouds,few clouds,21
Nagykereki,47.191667,21.8,2026-03-18 21:57:26.032756,7.01,3.53,7.01,7.01,1021,47,5.77,38,15,0.0,Clouds,few clouds,21
Debrecen-Szabadságtelep,47.527778,21.658611,2026-03-18 21:57:27.301426,6.9,2.97,6.9,6.9,1023,52,6.96,37,4,0.0,Clear,clear sky,21
Kondoroskert,47.525556,21.713889,2026-03-18 21:57:28.578100,6.85,2.94,6.85,6.85,1023,52,6.86,38,4,0.0,Clear,clear sky,21
Nagycsere,47.523889,21.763056,2026-03-18 21:57:29.850306,6.82,2.91,6.82,6.82,1023,52,6.84,38,4,0.0,Clear,clear sky,21
Haláp,47.521667,21.818333,2026-03-18 21:57:31.116116,6.76,2.84,6.76,6.76,1023,52,6.81,38,4,0.0,Clear,clear sky,21
Vámospércs,47.518056,21.893889,2026-03-18 21:57:32.387750,6.68,2.79,6.68,6.68,1022,52,6.64,39,4,0.0,Clear,clear sky,21
Szentannapuszta,47.52,21.965833,2026-03-18 21:57:33.662195,6.66,2.83,6.66,6.66,1022,53,6.47,39,4,0.0,Clear,clear sky,21
Nyírábrány,47.523889,22.016944,2026-03-18 21:57:34.932938,6.62,2.81,6.62,6.62,1023,53,6.38,39,4,0.0,Clear,clear sky,21
Dombostanya,47.602778,21.706389,2026-03-18 21:57:36.204008,6.74,2.83,6.74,6.74,1023,54,6.76,37,2,0.0,Clear,clear sky,21
Hajdúsámson,47.608056,21.755278,2026-03-18 21:57:37.482699,6.68,2.85,6.68,6.68,1023,54,6.48,38,2,0.0,Clear,clear sky,21
Tamásipuszta,47.632778,21.796111,2026-03-18 21:57:38.749737,6.57,2.79,6.57,6.57,1023,55,6.26,38,2,0.0,Clear,clear sky,21
Aradványpuszta,47.662778,21.8425,2026-03-18 21:57:40.013956,6.52,2.82,6.52,6.52,1023,56,6.01,38,1,0.0,Clear,clear sky,21
Nyíradony,47.699444,21.903333,2026-03-18 21:57:41.279842,6.38,2.91,6.38,6.38,1023,57,5.36,39,1,0.0,Clear,clear sky,21
Nyírmihálydi,47.7375,21.958889,2026-03-18 21:57:42.548321,6.33,2.95,6.33,6.33,1023,58,5.12,39,1,0.0,Clear,clear sky,21
Nyírgelse,47.750833,21.987778,2026-03-18 21:57:43.815036,6.24,2.93,6.24,6.24,1023,58,4.91,39,1,0.0,Clear,clear sky,21
Nyírbogát,47.793056,22.066389,2026-03-18 21:57:45.088466,6.23,3.18,6.23,6.23,1023,59,4.37,39,1,0.0,Clear,clear sky,21
Nagykálló,47.871111,21.825833,2026-03-18 21:57:46.354733,6.42,2.69,6.42,6.42,1024,61,6.03,34,0,0.0,Clear,clear sky,21
Kállósemjén,47.854722,21.935,2026-03-18 21:57:47.619867,6.36,2.87,6.36,6.36,1024,60,5.39,35,0,0.0,Clear,clear sky,21
Nyírbátor,47.8425,22.131111,2026-03-18 21:57:48.888441,6.15,3.16,6.15,6.15,1024,60,4.2,38,1,0.0,Clear,clear sky,21
Nyírcsászári,47.865556,22.179167,2026-03-18 21:57:50.165450,6.15,3.32,6.15,6.15,1024,60,3.91,36,1,0.0,Clear,clear sky,21
Hodász,47.896111,22.213611,2026-03-18 21:57:51.431352,6.08,3.34,6.08,6.08,1024,60,3.72,34,1,0.0,Clear,clear sky,21
Nyírmeggyes,47.9225,22.256667,2026-03-18 21:57:52.707381,6.09,3.33,6.09,6.09,1024,61,3.77,31,0,0.0,Clear,clear sky,21
Mátészalka,47.951389,22.313333,2026-03-18 21:57:53.972856,6.12,3.36,6.12,6.12,1024,61,3.78,30,0,0.0,Clear,clear sky,21
Kocsord,47.941944,22.375833,2026-03-18 21:57:55.250889,6.22,3.65,6.22,6.22,1024,61,3.49,31,1,0.0,Clear,clear sky,21
Kocsord alsó,47.946389,22.400556,2026-03-18 21:57:56.532889,6.22,3.65,6.22,6.22,1024,61,3.49,31,1,0.0,Clear,clear sky,21
Győrtelek,47.936667,22.424722,2026-03-18 21:57:57.798315,6.22,3.66,6.22,6.22,1024,61,3.47,31,1,0.0,Clear,clear sky,21
Győrtelek alsó,47.921111,22.443333,2026-03-18 21:57:59.065120,6.23,3.68,6.23,6.23,1024,61,3.46,32,1,0.0,Clear,clear sky,21
Ököritófülpös,47.911389,22.495,2026-03-18 21:58:00.344677,6.22,3.66,6.22,6.22,1024,61,3.47,32,1,0.0,Clear,clear sky,21
Porcsalma-Tyukod,47.868056,22.568333,2026-03-18 21:58:01.617931,6.27,3.74,6.27,6.27,1024,60,3.45,31,0,0.0,Clear,clear sky,21
Csenger,47.826111,22.666389,2026-03-18 21:58:02.892927,6.27,3.88,6.27,6.27,1024,60,3.23,31,0,0.0,Clear,clear sky,21
Kisfái,46.888303,19.807366,2026-03-18 21:58:04.156420,7.96,4.17,7.96,7.96,1022,47,7.47,40,70,0.0,Clouds,broken clouds,21
Nyárlőrinci szőlők,46.8775,19.828333,2026-03-18 21:58:05.440991,7.96,4.16,7.96,7.96,1022,47,7.51,39,75,0.0,Clouds,broken clouds,21
Nyárlőrinc alsó,46.863889,19.878889,2026-03-18 21:58:06.705597,7.93,4.13,7.93,7.93,1022,48,7.5,39,76,0.0,Clouds,broken clouds,21
Tiszaug-Tiszahídfő,46.866106,20.052098,2026-03-18 21:58:07.975033,8.05,4.3,8.05,8.05,1022,48,7.45,36,81,0.0,Clouds,broken clouds,21
Csongrádi úti tanyák,46.690278,19.921667,2026-03-18 21:58:09.246486,7.97,4.5,7.97,7.97,1022,47,6.47,40,97,0.0,Clouds,overcast clouds,21
Kettőshalom,46.689167,20.0225,2026-03-18 21:58:10.521679,7.98,4.48,7.98,7.98,1022,48,6.58,39,100,0.0,Clouds,overcast clouds,21
Csongrád alsó,46.711389,20.126389,2026-03-18 21:58:11.789677,8.02,4.42,8.02,8.02,1022,49,6.92,37,100,0.0,Clouds,overcast clouds,21
Dónát,46.66988,20.368168,2026-03-18 21:58:13.064761,7.82,4.23,7.82,7.82,1022,51,6.71,33,100,0.0,Clouds,overcast clouds,21
Pusztatemplom,46.676667,20.407222,2026-03-18 21:58:14.343827,7.8,4.21,7.8,7.8,1022,52,6.71,32,100,0.0,Clouds,overcast clouds,21
Előhát,47.364722,20.653611,2026-03-18 21:58:15.611119,7.83,3.98,7.83,7.83,1023,55,7.55,35,1,0.0,Clear,clear sky,21
Polgárdi-Tekerespuszta,47.017778,18.297778,2026-03-18 21:58:16.881693,7.98,4.78,7.98,7.98,1023,50,5.73,53,58,0.0,Clouds,broken clouds,21
Szatina-Kishajmás,46.202778,18.083611,2026-03-18 21:58:18.154790,7.37,4.18,7.37,7.37,1021,51,5.29,52,99,0.0,Clouds,overcast clouds,21
Márok,45.886944,18.499167,2026-03-18 21:58:19.424307,7.17,4.71,7.17,7.17,1021,62,3.65,54,100,0.0,Clouds,overcast clouds,21
Nagynyárád,45.953333,18.564722,2026-03-18 21:58:20.702335,7.37,4.56,7.37,7.37,1021,59,4.42,51,100,0.0,Clouds,overcast clouds,21
Szászvár,46.2875,18.369722222222222,2026-03-18 21:58:21.974709,7.48,4.31,7.48,7.48,1022,52,5.32,52,100,0.0,Clouds,overcast clouds,21
Cikó,46.263514,18.557605,2026-03-18 21:58:23.245002,7.81,4.55,7.81,7.81,1022,52,5.77,47,100,0.0,Clouds,overcast clouds,21
Gyöngyfa-Magyarmecske,45.983889,17.958889,2026-03-18 21:58:24.513012,7.67,4.77,7.67,7.67,1021,56,4.78,52,100,0.0,Clouds,overcast clouds,21
Nagyhát,47.581389,21.445,2026-03-18 21:58:25.782916,7.03,3.04,7.03,7.03,1023,54,7.25,35,3,0.0,Clear,clear sky,21
Balmazújváros,47.613889,21.348056,2026-03-18 21:58:27.051108,7.24,3.33,7.24,7.24,1023,57,7.19,34,2,0.0,Clear,clear sky,21
Kónya,47.600833,21.2375,2026-03-18 21:58:28.319420,7.35,3.44,7.35,7.35,1023,58,7.29,34,3,0.0,Clear,clear sky,21
Hortobágy,47.586111,21.154722,2026-03-18 21:58:29.599799,7.42,3.51,7.42,7.42,1023,58,7.37,34,3,0.0,Clear,clear sky,21
Hortobágyi Halastó,47.604167,21.074167,2026-03-18 21:58:30.869391,7.48,3.56,7.48,7.48,1023,58,7.45,35,2,0.0,Clear,clear sky,21
Ohat-Pusztakócs,47.623333,20.951111,2026-03-18 21:58:32.142347,7.52,3.6,7.52,7.52,1023,59,7.48,35,2,0.0,Clear,clear sky,21
Egyek,47.616944,20.883611,2026-03-18 21:58:33.410049,7.57,3.67,7.57,7.57,1023,59,7.48,36,2,0.0,Clear,clear sky,21
Tiszafüred,47.627778,20.756111,2026-03-18 21:58:34.686848,7.61,3.71,7.61,7.61,1023,59,7.5,37,2,0.0,Clear,clear sky,21
Poroszló,47.657778,20.654444,2026-03-18 21:58:35.953200,7.7,3.76,7.7,7.7,1023,59,7.73,40,2,0.0,Clear,clear sky,21
Kétútköz,47.694167,20.565,2026-03-18 21:58:37.220002,7.66,3.67,7.66,7.66,1023,59,7.87,42,1,0.0,Clear,clear sky,21
Egerfarmos,47.711667,20.5225,2026-03-18 21:58:38.496955,7.67,3.68,7.67,7.67,1023,58,7.87,43,0,0.0,Clear,clear sky,21
Piliscsaba,47.638056,18.829722,2026-03-18 21:58:39.768351,7.05,3.72,7.05,7.05,1024,51,5.44,54,6,0.0,Clear,clear sky,21
Pilisjászfalu,47.656111,18.797778,2026-03-18 21:58:41.030874,7.77,4.61,7.77,7.77,1024,52,5.46,54,6,0.0,Clear,clear sky,21
Leányvár,47.687594,18.772553,2026-03-18 21:58:42.305343,7.75,4.67,7.75,7.75,1024,52,5.25,56,4,0.0,Clear,clear sky,21
Dorog,47.723333,18.732778,2026-03-18 21:58:43.567689,8.06,5.16,8.06,8.06,1024,52,5.02,61,2,0.0,Clear,clear sky,21
Esztergom-Kertváros,47.743333,18.719167,2026-03-18 21:58:44.845912,8.12,5.24,8.12,8.12,1024,52,5.0,63,2,0.0,Clear,clear sky,21
Esztergom,47.7775,18.743611,2026-03-18 21:58:46.121601,7.83,4.9,7.83,7.83,1024,52,4.94,62,1,0.0,Clear,clear sky,21
Dunaalmás,47.733056,18.326389,2026-03-18 21:58:47.387244,8.04,4.58,8.04,8.04,1024,52,6.51,78,2,0.0,Clear,clear sky,21
Neszmély,47.734444,18.345278,2026-03-18 21:58:48.658568,8.04,4.58,8.04,8.04,1024,52,6.51,78,2,0.0,Clear,clear sky,21
Süttő,47.761111,18.455,2026-03-18 21:58:49.925250,8.05,4.78,8.05,8.05,1024,52,5.97,73,2,0.0,Clear,clear sky,21
Piszke,47.75307,18.478017,2026-03-18 21:58:51.190579,8.1,4.9,8.1,8.1,1024,52,5.8,71,2,0.0,Clear,clear sky,21
Lábatlan,47.751944,18.513333,2026-03-18 21:58:52.455761,8.1,4.96,8.1,8.1,1024,52,5.64,70,2,0.0,Clear,clear sky,21
Eternitgyár,47.755544,18.530014,2026-03-18 21:58:53.723753,8.1,4.96,8.1,8.1,1024,52,5.64,70,2,0.0,Clear,clear sky,21
Nyergesújfalu felső,47.762222,18.540556,2026-03-18 21:58:54.999698,8.1,4.96,8.1,8.1,1024,52,5.64,70,2,0.0,Clear,clear sky,21
Nyergesújfalu,47.761111,18.561667,2026-03-18 21:58:56.272437,8.06,4.97,8.06,8.06,1024,52,5.49,68,2,0.0,Clear,clear sky,21
Tokod,47.735,18.675,2026-03-18 21:58:57.540403,8.07,5.15,8.07,8.07,1024,52,5.06,61,2,0.0,Clear,clear sky,21
Környe,47.541667,18.330278,2026-03-18 21:58:58.809121,7.74,4.29,7.74,7.74,1024,52,6.23,67,6,0.0,Clear,clear sky,21
Kecskéd alsó,47.519722,18.316667,2026-03-18 21:59:00.080287,7.73,4.29,7.73,7.73,1024,52,6.21,67,9,0.0,Clear,clear sky,21
Oroszlány,47.486944,18.308611,2026-03-18 21:59:01.346217,7.65,4.23,7.65,7.65,1024,52,6.07,65,11,0.0,Clouds,few clouds,21
Győrszabadhegy,47.663056,17.648056,2026-03-18 21:59:02.616703,7.8,4.81,7.8,7.8,1024,54,5.06,81,17,0.0,Clouds,few clouds,21
Ménfőcsanak felső,47.638333,17.615,2026-03-18 21:59:03.894382,7.86,4.92,7.86,7.86,1024,54,4.99,81,19,0.0,Clouds,few clouds,21
Gyömöre-Tét,47.501672,17.559596,2026-03-18 21:59:05.173612,7.73,4.68,7.73,7.73,1024,53,5.16,78,27,0.0,Clouds,scattered clouds,21
Szerecseny,47.469167,17.5475,2026-03-18 21:59:06.445161,7.78,4.71,7.78,7.78,1024,53,5.26,78,27,0.0,Clouds,scattered clouds,21
Gecse-Gyarmat,47.456111,17.515,2026-03-18 21:59:07.709724,7.68,4.62,7.68,7.68,1024,53,5.16,77,28,0.0,Clouds,scattered clouds,21
Vaszar,47.4025,17.496389,2026-03-18 21:59:08.979318,7.85,4.72,7.85,7.85,1023,53,5.45,74,29,0.0,Clouds,scattered clouds,21
Pápa,47.340556,17.458889,2026-03-18 21:59:10.270387,7.83,4.65,7.83,7.83,1023,52,5.56,72,32,0.0,Clouds,scattered clouds,21
Mezőlak,47.324722,17.371389,2026-03-18 21:59:11.546792,7.85,4.93,7.85,7.85,1024,53,4.92,67,38,0.0,Clouds,scattered clouds,21
Mihályháza,47.318889,17.331667,2026-03-18 21:59:12.813313,7.81,4.95,7.81,7.81,1024,53,4.77,64,42,0.0,Clouds,scattered clouds,21
Vinár,47.306667,17.284722,2026-03-18 21:59:14.086884,7.83,5.09,7.83,7.83,1024,54,4.52,62,43,0.0,Clouds,scattered clouds,21
Külsővat,47.279167,17.219722,2026-03-18 21:59:15.358458,7.76,5.27,7.76,7.76,1024,55,3.96,53,48,0.0,Clouds,scattered clouds,21
Celldömölk,47.261389,17.151944,2026-03-18 21:59:16.630073,7.71,5.36,7.71,7.71,1024,56,3.67,46,50,0.0,Clouds,scattered clouds,21
Kemenesmihályfa,47.278056,17.111111,2026-03-18 21:59:17.905624,7.3,4.93,7.3,7.3,1024,57,3.55,43,47,0.0,Clouds,scattered clouds,21
Nagysimonyi,47.265556,17.058889,2026-03-18 21:59:19.170346,7.34,5.04,7.34,7.34,1024,58,3.44,35,49,0.0,Clouds,scattered clouds,21
Ostffyasszonyfa,47.283889,17.023889,2026-03-18 21:59:20.437706,7.4,5.12,7.4,7.4,1024,59,3.43,32,47,0.0,Clouds,scattered clouds,21
Sárvár,47.259167,16.928889,2026-03-18 21:59:21.710694,7.41,5.01,7.41,7.41,1024,61,3.65,20,52,0.0,Clouds,broken clouds,21
Porpác,47.238611,16.8325,2026-03-18 21:59:22.977263,7.33,4.81,7.33,7.33,1024,63,3.84,16,57,0.0,Clouds,broken clouds,21
Balatonföldvár,46.853889,17.881389,2026-03-18 21:59:24.241011,8.15,4.57,8.15,8.15,1023,52,6.96,53,80,0.0,Clouds,broken clouds,21
