station_name,station_lat,station_lon,observation_time,temp,feels_like,temp_min,temp_max,pressure,humidity,wind_speed,wind_deg,clouds,precipitation_1h,weather_main,weather_description,collection_hour
Búcsúszentlászló,46.793056,16.932778,2026-03-16 21:47:56.388533,6.34,3.23,6.34,6.34,1020,78,4.53,306,100,0.0,Clouds,overcast clouds,21
Angyalföld,47.549722,19.09,2026-03-16 21:47:57.615760,8.14,7.72,7.09,8.84,1018,60,1.34,326,94,0.0,Clouds,overcast clouds,21
Felsőjánosfa,46.841389,16.544167,2026-03-16 21:47:58.818890,5.86,3.34,5.86,5.86,1021,86,3.3,333,100,0.0,Clouds,overcast clouds,21
Pankasz,46.835833,16.496111,2026-03-16 21:48:00.023208,5.54,2.91,5.54,5.54,1021,87,3.36,342,100,0.0,Clouds,overcast clouds,21
Nagyrákos,46.827222,16.455556,2026-03-16 21:48:01.223949,5.48,2.82,5.48,5.48,1020,88,3.39,346,100,0.0,Clouds,overcast clouds,21
Őriszentpéter,46.828889,16.415278,2026-03-16 21:48:02.420599,5.58,2.93,5.58,5.58,1020,88,3.41,353,100,0.0,Clouds,overcast clouds,21
Törökbálint,47.45,18.908611,2026-03-16 21:48:03.621605,7.53,7.03,6.86,8.61,1018,59,1.34,287,94,0.0,Clouds,overcast clouds,21
Bicske alsó,47.486389,18.642778,2026-03-16 21:48:04.826742,7.01,5.33,6.75,8.01,1018,66,2.44,304,100,0.0,Clouds,overcast clouds,21
Bajánsenye,46.818056,16.358056,2026-03-16 21:48:06.025410,5.67,3.14,5.67,5.67,1020,89,3.25,356,100,0.0,Clouds,overcast clouds,21
Aquincum,47.566218,19.048273,2026-03-16 21:48:07.227660,8.14,7.72,7.11,8.86,1018,60,1.34,287,94,0.0,Clouds,overcast clouds,21
Piliscsév,47.673889,18.791389,2026-03-16 21:48:08.428673,7.63,6.51,6.7,8.45,1018,66,1.92,311,100,0.0,Clouds,overcast clouds,21
Tát,47.741201,18.64783,2026-03-16 21:48:09.630692,8.18,7.48,8.18,8.18,1018,68,1.58,289,100,0.0,Clouds,overcast clouds,21
Süttő felső,47.756667,18.437222,2026-03-16 21:48:10.838537,5.09,3.35,5.09,5.09,1018,69,2.12,261,100,0.0,Clouds,overcast clouds,21
Budatétény,47.405,19.016389,2026-03-16 21:48:12.036196,8.07,7.64,7.15,8.9,1018,58,1.34,326,92,0.0,Clouds,overcast clouds,21
Seregélyes-Szőlőhegy,47.119444,18.612222,2026-03-16 21:48:13.234972,4.92,3.55,4.92,4.92,1018,63,1.75,278,100,0.0,Clouds,overcast clouds,21
Gödöllő-Állami telepek,47.564444,19.375556,2026-03-16 21:48:14.434915,7.88,7.02,7.27,8.35,1018,62,1.69,269,95,0.0,Clouds,overcast clouds,21
Dunakeszi alsó,47.607778,19.128889,2026-03-16 21:48:15.646778,8.11,8.11,7.08,8.83,1018,60,0.45,286,96,0.0,Clouds,overcast clouds,21
Vác-Alsóváros,47.773056,19.149722,2026-03-16 21:48:16.853347,7.73,6.56,7.73,8.14,1018,68,1.99,284,96,0.0,Clouds,overcast clouds,21
Szob alsó,47.816667,18.8725,2026-03-16 21:48:18.051887,8.17,7.24,8.17,8.17,1018,69,1.81,294,100,0.0,Clouds,overcast clouds,21
Zalaszentmihály-Pacsa,46.7225,16.951944,2026-03-16 21:48:19.250539,7.75,5.75,7.75,7.75,1020,71,3.09,310,0,0.0,Clear,clear sky,21
Pötréte,46.682778,16.9575,2026-03-16 21:48:20.444891,7.75,5.75,7.75,7.75,1020,71,3.09,310,0,0.0,Clear,clear sky,21
Felsőrajk,46.667222,16.982778,2026-03-16 21:48:21.651351,7.81,5.82,7.81,7.81,1020,71,3.09,310,0,0.0,Clear,clear sky,21
Gelse,46.600556,16.982778,2026-03-16 21:48:22.856373,7.81,5.82,7.81,7.81,1020,71,3.09,310,0,0.0,Clear,clear sky,21
Őrtilos,46.297778,16.887778,2026-03-16 21:48:24.052884,6.47,3.75,6.47,6.47,1020,78,3.85,353,100,1.87,Rain,moderate rain,21
Zákány,46.251944,16.9425,2026-03-16 21:48:25.258034,6.29,3.27,6.29,6.29,1020,75,4.34,346,100,0.92,Rain,light rain,21
Berzence,46.201389,17.143611,2026-03-16 21:48:26.454396,6.66,4.0,6.66,6.66,1020,72,3.82,340,100,2.05,Rain,moderate rain,21
Somogyudvarhely,46.163333,17.179722,2026-03-16 21:48:27.668463,6.67,4.11,6.67,6.67,1020,71,3.64,344,100,0.54,Rain,light rain,21
Bélavár,46.122778,17.207778,2026-03-16 21:48:28.871722,6.8,4.37,6.8,6.8,1020,71,3.47,351,98,0.16,Rain,light rain,21
Vízvár,46.101389,17.239444,2026-03-16 21:48:30.071004,6.75,4.36,6.75,6.75,1019,70,3.38,357,97,0.48,Rain,light rain,21
Babócsa,46.028359,17.342276,2026-03-16 21:48:31.268747,6.88,4.52,6.88,6.88,1019,68,3.38,11,95,0.95,Rain,light rain,21
Péterhida-Komlósd,46.006667,17.358056,2026-03-16 21:48:32.465535,6.98,4.63,6.98,6.98,1019,67,3.4,16,95,0.39,Rain,light rain,21
Barcs,45.951944,17.446944,2026-03-16 21:48:33.674586,7.08,4.82,7.08,7.08,1019,66,3.29,24,95,0.0,Clouds,overcast clouds,21
Barcs felső,45.958333,17.486389,2026-03-16 21:48:34.878200,7.01,4.68,7.01,7.01,1019,65,3.37,24,95,0.0,Clouds,overcast clouds,21
Középrigóc,45.970556,17.525,2026-03-16 21:48:36.078643,6.94,4.55,6.94,6.94,1019,65,3.46,24,96,0.0,Clouds,overcast clouds,21
Darány,45.992222,17.598611,2026-03-16 21:48:37.280486,6.98,4.15,6.98,6.98,1019,62,4.27,22,95,0.23,Rain,light rain,21
Kisdobsza,46.012222,17.668056,2026-03-16 21:48:38.476888,7.07,3.92,7.07,7.07,1019,60,5.02,22,95,1.15,Rain,moderate rain,21
Nemeske,46.023333,17.705278,2026-03-16 21:48:39.681225,7.1,3.89,7.1,7.1,1019,60,5.18,22,95,2.92,Rain,moderate rain,21
Molvány,46.035278,17.748611,2026-03-16 21:48:40.889693,7.1,3.64,7.1,7.1,1019,58,5.79,22,96,3.5,Rain,moderate rain,21
Szigetvár,46.043333,17.801944,2026-03-16 21:48:42.095177,7.09,3.59,7.09,7.09,1019,57,5.89,22,97,3.03,Rain,moderate rain,21
Nagypeterd,46.039444,17.871667,2026-03-16 21:48:43.291062,9.53,6.65,9.53,9.53,1019,56,5.98,23,98,2.27,Rain,moderate rain,21
Szentdénes,46.036667,17.926944,2026-03-16 21:48:44.486893,9.48,6.59,9.48,9.48,1019,55,5.97,24,99,0.56,Rain,light rain,21
Háros,47.412222,19.035,2026-03-16 21:48:45.691099,8.06,7.63,7.11,8.86,1018,58,1.34,326,92,0.0,Clouds,overcast clouds,21
Nagytétény-Diósd,47.398333,18.974444,2026-03-16 21:48:46.900389,8.01,8.01,7.14,8.9,1018,58,0.89,294,93,0.0,Clouds,overcast clouds,21
Érdliget,47.390278,18.937778,2026-03-16 21:48:48.096178,7.87,7.87,7.06,8.81,1018,57,0.89,294,94,0.0,Clouds,overcast clouds,21
Érd felső,47.381111,18.922222,2026-03-16 21:48:49.293854,7.71,7.71,7.03,8.78,1018,58,0.89,294,95,0.0,Clouds,overcast clouds,21
Érd,47.369722,18.900833,2026-03-16 21:48:50.495809,7.61,6.53,6.99,8.74,1018,58,1.87,275,95,0.0,Clouds,overcast clouds,21
Százhalombatta,47.322222,18.899167,2026-03-16 21:48:51.697823,7.61,6.49,6.98,8.73,1018,60,1.91,265,96,0.0,Clouds,overcast clouds,21
Dunai Finomító,47.294444,18.878889,2026-03-16 21:48:52.916076,7.15,6.0,6.81,8.57,1018,60,1.87,267,97,0.0,Clouds,overcast clouds,21
Ercsi,47.247222,18.875278,2026-03-16 21:48:54.115651,7.4,6.31,7.04,8.79,1018,64,1.85,263,97,0.0,Clouds,overcast clouds,21
Iváncsa,47.177778,18.811944,2026-03-16 21:48:55.314908,4.54,3.19,4.54,4.54,1018,64,1.68,257,98,0.0,Clouds,overcast clouds,21
Pusztaszabolcs,47.139722,18.761667,2026-03-16 21:48:56.516982,4.7,3.5,4.7,4.7,1018,64,1.58,256,99,0.0,Clouds,overcast clouds,21
Szabadegyháza,47.082778,18.704167,2026-03-16 21:48:57.722110,4.77,3.67,4.77,4.77,1018,64,1.51,261,100,0.0,Clouds,overcast clouds,21
Sárosd,47.039722,18.660278,2026-03-16 21:48:58.930330,4.91,3.74,4.91,4.91,1018,64,1.58,271,100,0.0,Clouds,overcast clouds,21
Nagylók,46.979444,18.635833,2026-03-16 21:49:00.130334,4.85,3.98,4.85,4.85,1019,65,1.35,272,100,0.0,Clouds,overcast clouds,21
Sárbogárd,46.896944,18.611944,2026-03-16 21:49:01.328450,5.17,5.17,5.17,5.17,1019,65,1.04,276,100,0.0,Clouds,overcast clouds,21
Rétszilas,46.814167,18.601389,2026-03-16 21:49:02.527767,5.31,5.31,5.31,5.31,1019,65,0.66,284,100,0.72,Rain,light rain,21
Nagyatád,46.228611,17.354167,2026-03-16 21:49:03.735532,6.75,4.57,6.75,6.75,1019,65,3.06,2,94,1.46,Rain,moderate rain,21
Budapest-Keleti,47.500278,19.084167,2026-03-16 21:49:04.945057,8.27,7.87,7.06,8.81,1018,59,1.34,326,92,0.0,Clouds,overcast clouds,21
Ferencváros,47.468611,19.088056,2026-03-16 21:49:06.148974,8.28,7.88,7.08,8.83,1018,58,1.34,326,92,0.0,Clouds,overcast clouds,21
Budapest-Nyugati,47.510833,19.0575,2026-03-16 21:49:07.350960,8.26,7.85,7.07,8.83,1018,59,1.34,326,93,0.0,Clouds,overcast clouds,21
Kőbánya felső,47.491944,19.133889,2026-03-16 21:49:08.550917,8.18,7.76,7.0,8.75,1018,59,1.34,326,94,0.0,Clouds,overcast clouds,21
Rákos,47.488889,19.174722,2026-03-16 21:49:09.755003,8.14,7.72,6.96,8.71,1018,59,1.34,326,94,0.0,Clouds,overcast clouds,21
Rákosrendező,47.525556,19.089444,2026-03-16 21:49:10.963963,8.24,7.83,7.1,8.86,1018,60,1.34,326,94,0.0,Clouds,overcast clouds,21
Zugló,47.511389,19.101389,2026-03-16 21:49:12.167054,8.23,7.82,7.07,8.82,1018,59,1.34,326,94,0.0,Clouds,overcast clouds,21
Mezőtárkány,47.725,20.480278,2026-03-16 21:49:13.363882,6.18,3.98,6.18,6.18,1016,70,2.92,267,100,0.0,Clouds,overcast clouds,21
Istvántelek,47.550278,19.106389,2026-03-16 21:49:14.564898,8.16,7.74,7.09,8.84,1018,60,1.34,326,94,0.0,Clouds,overcast clouds,21
Rákospalota-Újpest,47.565833,19.111944,2026-03-16 21:49:15.770082,8.13,7.71,7.09,8.84,1018,60,1.34,326,95,0.0,Clouds,overcast clouds,21
Kőbánya alsó,47.483056,19.127222,2026-03-16 21:49:16.986411,8.2,7.79,7.01,8.77,1018,59,1.34,326,94,0.0,Clouds,overcast clouds,21
Kőbánya-Kispest,47.463889,19.149444,2026-03-16 21:49:18.183013,8.19,7.77,7.01,8.77,1018,59,1.34,326,93,0.0,Clouds,overcast clouds,21
Pestszentlőrinc,47.454722,19.182778,2026-03-16 21:49:19.378884,8.14,7.4,6.96,8.71,1018,59,1.62,263,92,0.0,Clouds,overcast clouds,21
Kispest,47.448135,19.157552,2026-03-16 21:49:20.575661,8.19,7.77,7.02,8.77,1018,59,1.34,326,92,0.0,Clouds,overcast clouds,21
Újpest,47.558889,19.079722,2026-03-16 21:49:21.784931,8.11,7.68,7.09,8.84,1018,60,1.34,326,94,0.0,Clouds,overcast clouds,21
Pestszentimre felső,47.413611,19.173333,2026-03-16 21:49:22.987074,8.2,7.36,7.05,8.8,1018,59,1.72,259,91,0.0,Clouds,overcast clouds,21
Dunakeszi,47.626111,19.136111,2026-03-16 21:49:24.177270,8.0,8.0,6.96,8.71,1018,60,0.45,286,96,0.0,Clouds,overcast clouds,21
Dunakeszi-Gyártelep,47.643611,19.135,2026-03-16 21:49:25.376753,7.96,7.21,7.57,8.79,1018,61,1.6,289,96,0.0,Clouds,overcast clouds,21
Alsógöd,47.676944,19.134444,2026-03-16 21:49:26.579101,7.97,7.16,7.56,8.78,1018,64,1.66,289,96,0.0,Clouds,overcast clouds,21
Göd,47.687778,19.1375,2026-03-16 21:49:27.781503,7.99,7.18,7.58,8.8,1018,64,1.66,289,96,0.0,Clouds,overcast clouds,21
Felsőgöd,47.705556,19.143333,2026-03-16 21:49:28.975006,7.93,7.04,7.77,8.84,1018,64,1.73,288,96,0.0,Clouds,overcast clouds,21
Sződ-Sződliget,47.728056,19.154722,2026-03-16 21:49:30.186054,7.78,6.79,7.76,8.84,1018,64,1.81,287,96,0.0,Clouds,overcast clouds,21
Vác,47.782778,19.133056,2026-03-16 21:49:31.392712,7.73,6.56,7.73,8.14,1018,68,1.99,284,96,0.0,Clouds,overcast clouds,21
Verőce,47.823889,19.029444,2026-03-16 21:49:32.594724,7.57,6.27,7.57,7.97,1018,70,2.1,284,99,0.0,Clouds,overcast clouds,21
Kismaros,47.8275,19.010278,2026-03-16 21:49:33.799397,8.1,6.93,8.1,8.1,1018,70,2.06,286,100,0.0,Clouds,overcast clouds,21
Nagymaros-Visegrád,47.791389,18.959167,2026-03-16 21:49:34.994068,8.12,7.13,7.72,8.12,1018,69,1.86,292,100,0.0,Clouds,overcast clouds,21
Nagymaros,47.780278,18.952222,2026-03-16 21:49:36.190084,8.2,7.22,7.79,8.2,1018,69,1.86,292,100,0.0,Clouds,overcast clouds,21
Zebegény,47.801389,18.908889,2026-03-16 21:49:37.385426,8.17,7.16,7.77,8.17,1018,70,1.89,291,100,0.0,Clouds,overcast clouds,21
Szob,47.821111,18.861944,2026-03-16 21:49:38.581446,8.13,7.12,8.13,8.13,1018,70,1.88,291,100,0.0,Clouds,overcast clouds,21
Alagimajor,47.601944,19.153889,2026-03-16 21:49:39.789280,8.09,8.09,7.03,8.79,1018,61,0.45,286,96,0.0,Clouds,overcast clouds,21
Fót,47.611389,19.181667,2026-03-16 21:49:40.985104,7.89,7.19,7.47,8.68,1018,60,1.55,287,96,0.0,Clouds,overcast clouds,21
Fótújfalu,47.615,19.192778,2026-03-16 21:49:42.183346,7.81,7.09,7.36,8.58,1018,60,1.55,287,96,0.0,Clouds,overcast clouds,21
Csomád,47.635556,19.222778,2026-03-16 21:49:43.387383,7.57,6.82,7.09,8.31,1018,63,1.55,285,96,0.0,Clouds,overcast clouds,21
Veresegyház,47.649167,19.288611,2026-03-16 21:49:44.593101,7.73,6.89,7.38,8.46,1018,63,1.65,282,95,0.0,Clouds,overcast clouds,21
Erdőkertes,47.662222,19.295833,2026-03-16 21:49:45.799698,7.67,6.82,7.33,8.41,1018,63,1.65,282,95,0.0,Clouds,overcast clouds,21
Őrbottyán,47.685833,19.283611,2026-03-16 21:49:46.996111,7.43,6.49,7.25,8.33,1018,64,1.7,284,95,0.0,Clouds,overcast clouds,21
Váchartyán,47.725833,19.248889,2026-03-16 21:49:48.201498,7.61,6.59,7.61,8.28,1018,65,1.81,285,94,0.0,Clouds,overcast clouds,21
Magyarkút-Verőce,47.826111,19.044444,2026-03-16 21:49:49.405406,7.73,6.46,7.73,7.73,1018,70,2.1,284,99,0.0,Clouds,overcast clouds,21
Szokolya,47.871111,19.030556,2026-03-16 21:49:50.607516,3.18,0.95,3.18,3.18,1018,70,2.28,282,98,0.0,Clouds,overcast clouds,21
Berkenye,47.885278,19.071944,2026-03-16 21:49:51.810352,3.91,1.78,3.91,3.91,1018,70,2.31,281,98,0.0,Clouds,overcast clouds,21
Nógrád,47.901944,19.0475,2026-03-16 21:49:53.016904,3.59,1.36,3.59,3.59,1018,70,2.36,281,98,0.0,Clouds,overcast clouds,21
Diósjenő,47.94,19.049444,2026-03-16 21:49:54.219108,3.26,0.91,3.26,3.26,1018,70,2.42,280,97,0.0,Clouds,overcast clouds,21
Borsosberény,47.971389,19.093056,2026-03-16 21:49:55.415520,4.05,1.74,4.05,4.05,1018,70,2.54,278,97,0.0,Clouds,overcast clouds,21
Nagyoroszi,47.993611,19.101111,2026-03-16 21:49:56.616695,3.95,1.6,3.95,3.95,1018,70,2.57,278,97,0.0,Clouds,overcast clouds,21
Drégelyvár,48.001944,19.079444,2026-03-16 21:49:57.822889,4.22,1.93,4.22,4.22,1018,70,2.55,278,97,0.0,Clouds,overcast clouds,21
Drégely,48.042222,19.056111,2026-03-16 21:49:59.022150,4.64,2.45,4.64,4.64,1018,70,2.53,278,97,0.0,Clouds,overcast clouds,21
Drégelypalánk,48.055,19.046111,2026-03-16 21:50:00.234278,4.81,2.7,4.81,4.81,1018,71,2.47,279,97,0.0,Clouds,overcast clouds,21
Ipolyvece,48.056944,19.106389,2026-03-16 21:50:01.428222,4.82,2.64,4.82,4.82,1018,70,2.55,280,98,0.0,Clouds,overcast clouds,21
Dejtár,48.045556,19.196389,2026-03-16 21:50:02.626951,4.75,2.54,4.75,4.75,1018,70,2.57,279,98,0.0,Clouds,overcast clouds,21
Ipolyszög,48.054444,19.221944,2026-03-16 21:50:03.832881,4.84,2.68,4.84,4.84,1018,70,2.54,280,98,0.0,Clouds,overcast clouds,21
Iklad-Domony,47.658056,19.444444,2026-03-16 21:50:05.037157,8.31,7.33,6.1,8.31,1018,64,1.88,278,96,0.0,Clouds,overcast clouds,21
Iklad-Domony felső,47.667778,19.428056,2026-03-16 21:50:06.237766,8.26,7.31,6.09,8.29,1018,64,1.84,282,96,0.0,Clouds,overcast clouds,21
Galgamácsa,47.693889,19.3925,2026-03-16 21:50:07.453744,8.28,7.37,7.61,8.28,1018,64,1.8,284,95,0.0,Clouds,overcast clouds,21
Vácrátót,47.732778,19.217778,2026-03-16 21:50:08.651185,7.53,6.49,7.53,8.2,1018,66,1.82,286,94,0.0,Clouds,overcast clouds,21
Csörög,47.735833,19.196389,2026-03-16 21:50:09.865296,7.54,6.51,7.53,8.61,1018,66,1.81,286,95,0.0,Clouds,overcast clouds,21
Galgagyörk,47.735278,19.372222,2026-03-16 21:50:11.071752,8.18,7.21,7.51,8.18,1018,65,1.85,285,95,0.0,Clouds,overcast clouds,21
Püspökhatvan,47.768611,19.366944,2026-03-16 21:50:12.267803,4.26,2.57,4.26,4.26,1018,66,1.94,286,95,0.0,Clouds,overcast clouds,21
Acsa-Erdőkürt,47.801111,19.386111,2026-03-16 21:50:13.472310,4.15,2.4,4.15,4.15,1018,67,1.98,286,96,0.0,Clouds,overcast clouds,21
Galgaguta,47.848611,19.385556,2026-03-16 21:50:14.671516,3.97,2.12,3.97,3.97,1018,68,2.05,284,96,0.0,Clouds,overcast clouds,21
Nógrádkövesd,47.879444,19.371111,2026-03-16 21:50:15.888372,4.18,2.33,4.18,4.18,1018,68,2.08,283,96,0.0,Clouds,overcast clouds,21
Magyarnándor,47.970833,19.356667,2026-03-16 21:50:17.089427,4.17,2.16,4.17,4.17,1018,69,2.24,278,97,0.0,Clouds,overcast clouds,21
Mohora,47.995556,19.347778,2026-03-16 21:50:18.286454,4.34,2.33,4.34,4.34,1018,69,2.27,277,97,0.0,Clouds,overcast clouds,21
Szügy,48.036389,19.333056,2026-03-16 21:50:19.491495,4.67,2.68,4.67,4.67,1018,69,2.31,277,98,0.0,Clouds,overcast clouds,21
Balassagyarmat,48.071111,19.293611,2026-03-16 21:50:20.686793,4.79,2.74,4.79,4.79,1018,69,2.4,279,98,0.0,Clouds,overcast clouds,21
Őrhalom,48.078773,19.403936,2026-03-16 21:50:21.894030,4.67,2.9,4.67,4.67,1018,70,2.08,272,97,0.0,Clouds,overcast clouds,21
Hugyag,48.083056,19.421111,2026-03-16 21:50:23.091044,4.67,2.9,4.67,4.67,1018,70,2.08,272,97,0.0,Clouds,overcast clouds,21
Szécsény,48.093056,19.521111,2026-03-16 21:50:24.301832,5.02,3.52,5.02,5.02,1018,71,1.88,263,96,0.0,Clouds,overcast clouds,21
Ludányhalászi,48.1325,19.529444,2026-03-16 21:50:25.510516,5.07,3.46,5.07,5.07,1018,71,1.99,260,96,0.0,Clouds,overcast clouds,21
Nógrádszakál,48.178333,19.521667,2026-03-16 21:50:26.710767,5.05,3.39,5.05,5.05,1017,71,2.04,261,96,0.0,Clouds,overcast clouds,21
Ráróspuszta,48.207222,19.541389,2026-03-16 21:50:27.916026,4.55,2.72,4.55,4.55,1017,72,2.12,264,95,0.0,Clouds,overcast clouds,21
Litke,48.215833,19.598611,2026-03-16 21:50:29.116786,5.14,3.33,5.14,5.14,1017,72,2.2,252,96,0.0,Clouds,overcast clouds,21
Nyíregyháza külső,47.943056,21.740278,2026-03-16 21:50:30.319051,6.5,4.57,6.5,6.5,1017,62,2.64,200,100,0.0,Clouds,overcast clouds,21
Oros,47.945833,21.806389,2026-03-16 21:50:31.530601,6.5,4.43,6.5,6.5,1017,61,2.82,197,100,0.0,Clouds,overcast clouds,21
Napkor,47.948889,21.873056,2026-03-16 21:50:32.731645,6.51,4.29,6.51,6.51,1017,60,3.05,194,100,0.0,Clouds,overcast clouds,21
Apagy,47.953775,21.939044,2026-03-16 21:50:33.939977,6.52,4.24,6.52,6.52,1017,60,3.13,194,100,0.0,Clouds,overcast clouds,21
Levelek-Magy,47.948056,21.993611,2026-03-16 21:50:35.142827,6.5,4.14,6.5,6.5,1017,60,3.25,192,100,0.0,Clouds,overcast clouds,21
Ófehértó,47.940556,22.041389,2026-03-16 21:50:36.345988,6.43,4.02,6.43,6.43,1017,60,3.31,192,100,0.0,Clouds,overcast clouds,21
Ligettanya,47.951667,22.071389,2026-03-16 21:50:37.558965,6.4,3.97,6.4,6.4,1017,61,3.33,192,100,0.0,Clouds,overcast clouds,21
Baktalórántháza,47.988611,22.083333,2026-03-16 21:50:38.757888,6.4,3.99,6.4,6.4,1017,60,3.3,192,100,0.0,Clouds,overcast clouds,21
Vaja-Rohod,48.006389,22.164167,2026-03-16 21:50:39.967078,6.44,4.05,6.44,6.44,1017,61,3.28,191,100,0.0,Clouds,overcast clouds,21
Rákóczitanya,48.022222,22.178333,2026-03-16 21:50:41.167571,6.43,4.06,6.43,6.43,1017,61,3.25,190,100,0.0,Clouds,overcast clouds,21
Nyírmada,48.059167,22.203056,2026-03-16 21:50:42.364299,6.42,4.08,6.42,6.42,1017,61,3.19,188,100,0.0,Clouds,overcast clouds,21
Tunyogmatolcs,47.960244,22.442247,2026-03-16 21:50:43.571739,6.78,4.84,6.78,6.78,1017,63,2.72,197,100,0.0,Clouds,overcast clouds,21
Tunyogmatolcs alsó,47.966025,22.464713,2026-03-16 21:50:44.772665,6.79,4.91,6.79,6.79,1017,63,2.64,196,100,0.0,Clouds,overcast clouds,21
Fehérgyarmat,47.979167,22.524444,2026-03-16 21:50:45.981437,6.82,5.08,6.82,6.82,1017,63,2.47,187,100,0.0,Clouds,overcast clouds,21
Penyige,47.995278,22.566944,2026-03-16 21:50:47.177869,6.85,5.15,6.85,6.85,1017,64,2.43,184,100,0.0,Clouds,overcast clouds,21
Nagyszekeres,47.976111,22.6125,2026-03-16 21:50:48.372677,6.87,5.2,6.87,6.87,1017,64,2.39,181,100,0.0,Clouds,overcast clouds,21
Kisszekeres,47.965833,22.629444,2026-03-16 21:50:49.583571,6.86,5.18,6.86,6.86,1017,64,2.41,184,100,0.0,Clouds,overcast clouds,21
Jánkmajtis,47.941944,22.657222,2026-03-16 21:50:50.781180,6.87,5.19,6.87,6.87,1017,64,2.41,182,100,0.0,Clouds,overcast clouds,21
Gacsály,47.926111,22.745,2026-03-16 21:50:51.985692,3.03,0.65,3.03,3.03,1017,64,2.41,168,100,0.0,Clouds,overcast clouds,21
Zajta,47.9025,22.796111,2026-03-16 21:50:53.195338,3.03,0.59,3.03,3.03,1017,64,2.48,160,99,0.0,Clouds,overcast clouds,21
Eperjeske alsó,48.360556,22.19,2026-03-16 21:50:54.398937,6.13,3.83,6.13,6.13,1017,65,3.05,145,100,0.0,Clouds,overcast clouds,21
Mándok,48.326944,22.196389,2026-03-16 21:50:55.608487,6.19,4.01,6.19,6.19,1017,63,2.89,157,100,0.0,Clouds,overcast clouds,21
Tornyospálca,48.268333,22.201944,2026-03-16 21:50:56.803827,6.3,4.19,6.3,6.3,1017,62,2.83,168,100,0.0,Clouds,overcast clouds,21
Aranyosapáti,48.211303,22.253534,2026-03-16 21:50:58.016632,6.47,4.32,6.47,6.47,1017,62,2.93,168,100,0.0,Clouds,overcast clouds,21
Gyüre,48.171389,22.269167,2026-03-16 21:50:59.216440,6.52,4.34,6.52,6.52,1017,62,2.99,175,100,0.0,Clouds,overcast clouds,21
Varsány,48.151722,22.290047,2026-03-16 21:51:00.418740,6.56,4.37,6.56,6.56,1017,62,3.02,176,100,0.0,Clouds,overcast clouds,21
Vásárosnamény,48.126667,22.306111,2026-03-16 21:51:01.629963,6.59,4.4,6.59,6.59,1017,62,3.03,179,100,0.0,Clouds,overcast clouds,21
Vitka,48.095556,22.308056,2026-03-16 21:51:02.830677,6.6,4.4,6.6,6.6,1017,62,3.04,182,100,0.0,Clouds,overcast clouds,21
Nagydobos,48.054167,22.311111,2026-03-16 21:51:04.036196,6.56,4.35,6.56,6.56,1017,62,3.05,185,100,0.0,Clouds,overcast clouds,21
Ópályi,47.997778,22.318333,2026-03-16 21:51:05.236885,6.58,4.36,6.58,6.58,1017,63,3.06,193,100,0.0,Clouds,overcast clouds,21
Nyírcsaholy,47.908056,22.348333,2026-03-16 21:51:06.439012,6.69,4.53,6.69,6.69,1017,63,3.01,202,100,0.0,Clouds,overcast clouds,21
Nagyecsed,47.864722,22.385556,2026-03-16 21:51:07.644062,6.76,4.7,6.76,6.76,1017,63,2.88,207,100,0.0,Clouds,overcast clouds,21
Tiborszállás,47.815278,22.402778,2026-03-16 21:51:08.841423,6.76,4.7,6.76,6.76,1017,63,2.88,210,100,0.0,Clouds,overcast clouds,21
Kiskunhalas,46.434444,19.493611,2026-03-16 21:51:10.042545,5.13,4.26,5.13,5.13,1018,61,1.38,23,100,1.29,Rain,moderate rain,21
Kecskemét alsó,46.895833,19.692222,2026-03-16 21:51:11.242881,9.99,8.45,8.77,9.99,1018,50,3.09,300,0,0.0,Clear,clear sky,21
Putnok,48.286667,20.4375,2026-03-16 21:51:12.459483,10.27,9.21,8.89,10.58,1016,71,2.69,241,100,0.0,Clouds,overcast clouds,21
Bánréve,48.299722,20.351944,2026-03-16 21:51:13.664586,10.36,9.31,8.88,10.36,1016,71,2.92,237,100,0.0,Clouds,overcast clouds,21
Ipolytarnóc,48.236667,19.629167,2026-03-16 21:51:14.867717,5.15,3.26,5.15,5.15,1017,73,2.29,252,96,0.0,Clouds,overcast clouds,21
Rákosliget,47.486111,19.257778,2026-03-16 21:51:16.072489,8.13,7.41,7.42,8.64,1018,60,1.6,265,95,0.0,Clouds,overcast clouds,21
Ikrény,47.657778,17.524167,2026-03-16 21:51:17.269403,5.08,0.82,5.08,5.08,1020,73,6.44,308,99,0.0,Clouds,overcast clouds,21
Rábapatona,47.648889,17.461944,2026-03-16 21:51:18.470964,5.1,0.94,5.1,5.1,1020,73,6.2,309,100,0.0,Clouds,overcast clouds,21
Enese,47.644167,17.425278,2026-03-16 21:51:19.684437,5.1,1.03,5.1,5.1,1020,73,5.99,309,100,0.0,Clouds,overcast clouds,21
Kóny,47.632222,17.357222,2026-03-16 21:51:20.878719,5.97,2.1,5.97,5.97,1020,73,6.07,307,100,0.0,Clouds,overcast clouds,21
Farád,47.595278,17.195833,2026-03-16 21:51:22.092155,6.68,3.18,6.68,6.68,1020,72,5.6,302,99,0.0,Clouds,overcast clouds,21
Rábatamási,47.592778,17.161389,2026-03-16 21:51:23.323144,6.68,3.18,6.68,6.68,1020,72,5.6,302,99,0.0,Clouds,overcast clouds,21
Szárföld,47.589167,17.123889,2026-03-16 21:51:24.619731,6.66,3.2,6.66,6.66,1020,72,5.49,301,99,0.0,Clouds,overcast clouds,21
Veszkény,47.586944,17.101389,2026-03-16 21:51:25.960364,6.67,3.26,6.67,6.67,1020,75,5.38,299,99,0.0,Clouds,overcast clouds,21
Kapuvár,47.581944,17.046944,2026-03-16 21:51:27.164450,6.65,3.36,6.65,6.65,1020,75,5.09,294,100,0.0,Clouds,overcast clouds,21
Vitnyéd-Csermajor,47.5825,16.987222,2026-03-16 21:51:28.369710,6.66,3.5,6.66,6.66,1020,75,4.8,290,100,0.0,Clouds,overcast clouds,21
Petőháza,47.595278,16.893056,2026-03-16 21:51:29.570219,6.61,3.52,6.61,6.61,1020,75,4.64,290,100,0.0,Clouds,overcast clouds,21
Fertőszentmiklós,47.6,16.858889,2026-03-16 21:51:30.767660,6.61,3.59,5.6,6.61,1020,75,4.49,289,100,0.0,Clouds,overcast clouds,21
Pinnye,47.600278,16.768611,2026-03-16 21:51:31.982668,6.49,3.8,5.48,6.49,1020,75,3.8,288,100,0.0,Clouds,overcast clouds,21
Fertőboz,47.625,16.691667,2026-03-16 21:51:33.184515,6.33,3.3,5.32,6.33,1020,75,4.36,297,100,0.0,Clouds,overcast clouds,21
Sopron,47.677778,16.587222,2026-03-16 21:51:34.392757,6.03,2.19,5.02,6.03,1020,72,6.04,308,100,0.0,Clouds,overcast clouds,21
Fertőszéplak-Fertőd,47.618889,16.850833,2026-03-16 21:51:35.590083,6.63,3.38,5.62,6.63,1020,75,4.99,295,100,0.0,Clouds,overcast clouds,21
Nyúl,47.587778,17.698056,2026-03-16 21:51:36.796180,5.02,3.33,5.02,7.14,1019,81,2.06,300,0,0.0,Clear,clear sky,21
Pannonhalma,47.547778,17.740833,2026-03-16 21:51:38.003008,4.96,3.26,4.96,7.08,1019,81,2.06,300,0,0.0,Clear,clear sky,21
Tarjánpuszta,47.504722,17.789167,2026-03-16 21:51:39.199755,4.73,2.99,4.73,6.84,1019,81,2.06,300,0,0.0,Clear,clear sky,21
Győrasszonyfa,47.4925,17.799167,2026-03-16 21:51:40.405386,4.66,2.91,4.66,6.77,1019,81,2.06,300,0,0.0,Clear,clear sky,21
Veszprémvarsány,47.443333,17.818333,2026-03-16 21:51:41.600276,4.71,0.06,4.71,6.83,1019,72,7.23,288,100,0.0,Clouds,overcast clouds,21
Bakonyszentlászló,47.395556,17.8175,2026-03-16 21:51:42.797506,6.58,2.41,4.47,6.58,1019,72,7.42,291,100,0.0,Clouds,overcast clouds,21
Porva-Csesznek,47.326944,17.841111,2026-03-16 21:51:44.002777,5.59,1.06,5.59,5.59,1020,72,7.63,296,100,0.0,Clouds,overcast clouds,21
Zirc,47.266667,17.878056,2026-03-16 21:51:45.198637,3.7,-1.61,3.7,3.7,1019,71,8.27,304,100,0.0,Clouds,overcast clouds,21
Eplény,47.192778,17.921667,2026-03-16 21:51:46.411474,4.18,-1.12,4.18,4.18,1019,69,8.72,313,100,0.0,Clouds,overcast clouds,21
Marcaltő,47.4275,17.348889,2026-03-16 21:51:47.613625,7.17,5.05,7.17,7.17,1020,76,3.09,280,0,0.0,Clear,clear sky,21
Szany-Rábaszentandrás,47.460833,17.315278,2026-03-16 21:51:48.811109,7.17,5.05,7.17,7.17,1020,76,3.09,280,0,0.0,Clear,clear sky,21
Egyed-Rábacsanak,47.521944,17.316389,2026-03-16 21:51:50.013334,7.18,3.46,7.18,7.18,1020,73,6.58,303,99,0.0,Clouds,overcast clouds,21
Rábapordány,47.557222,17.315,2026-03-16 21:51:51.209476,7.18,3.5,7.18,7.18,1020,73,6.44,304,99,0.0,Clouds,overcast clouds,21
Albertfalva,47.440784,19.033965,2026-03-16 21:51:52.414464,8.15,7.73,7.14,8.89,1018,58,1.34,326,92,0.0,Clouds,overcast clouds,21
Budafok,47.425833,19.041389,2026-03-16 21:51:53.633743,8.13,7.71,7.14,8.9,1018,58,1.34,326,92,0.0,Clouds,overcast clouds,21
Tétényliget,47.384722,18.955278,2026-03-16 21:51:54.829943,7.99,7.99,7.16,8.92,1018,57,0.89,294,94,0.0,Clouds,overcast clouds,21
Érd alsó,47.379722,18.923056,2026-03-16 21:51:56.029410,7.71,7.71,7.03,8.78,1018,58,0.89,294,95,0.0,Clouds,overcast clouds,21
Tárnok,47.365556,18.873889,2026-03-16 21:51:57.227873,7.66,6.5,7.09,8.84,1018,58,1.96,283,96,0.0,Clouds,overcast clouds,21
Martonvásár,47.321389,18.781667,2026-03-16 21:51:58.426764,7.25,6.09,7.02,8.77,1018,63,1.89,279,97,0.0,Clouds,overcast clouds,21
Baracska,47.297222,18.753333,2026-03-16 21:51:59.630113,7.21,6.14,7.12,8.38,1018,63,1.8,277,98,0.0,Clouds,overcast clouds,21
Pettend,47.26,18.708889,2026-03-16 21:52:00.831089,7.02,6.04,7.02,7.02,1018,63,1.68,276,98,0.0,Clouds,overcast clouds,21
Kápolnásnyék,47.245556,18.692222,2026-03-16 21:52:02.038741,7.05,6.11,7.05,7.05,1018,63,1.65,275,98,0.0,Clouds,overcast clouds,21
Velence,47.226944,18.663889,2026-03-16 21:52:03.248459,7.07,6.09,7.07,7.07,1018,63,1.69,279,99,0.0,Clouds,overcast clouds,21
Velencefürdő,47.218611,18.648056,2026-03-16 21:52:04.452507,4.8,3.5,4.8,4.8,1018,63,1.67,276,99,0.0,Clouds,overcast clouds,21
Gárdony,47.205833,18.624722,2026-03-16 21:52:05.663527,4.88,3.5,4.88,4.88,1018,63,1.75,281,99,0.0,Clouds,overcast clouds,21
Agárd,47.197666,18.604907,2026-03-16 21:52:06.867276,4.88,3.5,4.88,4.88,1018,63,1.75,281,99,0.0,Clouds,overcast clouds,21
Dinnyés,47.179722,18.560833,2026-03-16 21:52:08.080107,4.93,3.29,4.93,4.93,1018,63,2.0,288,100,0.0,Clouds,overcast clouds,21
Székesfehérvár,47.183611,18.424722,2026-03-16 21:52:09.282531,5.13,2.67,5.13,5.13,1018,63,2.99,304,99,0.0,Clouds,overcast clouds,21
Szabadbattyán,47.105278,18.388333,2026-03-16 21:52:10.478770,5.18,2.86,5.18,5.18,1019,62,2.82,307,99,0.0,Clouds,overcast clouds,21
Kiscséripuszta,47.048056,18.355,2026-03-16 21:52:11.683873,7.46,5.73,7.46,7.46,1019,62,2.61,309,100,0.0,Clouds,overcast clouds,21
Lepsény,46.9875,18.248056,2026-03-16 21:52:12.878665,7.68,6.03,7.68,10.46,1019,64,2.56,314,100,0.0,Clouds,overcast clouds,21
Balatonaliga,46.984444,18.171389,2026-03-16 21:52:14.084796,7.49,5.17,7.49,10.27,1019,64,3.54,321,100,0.0,Clouds,overcast clouds,21
Balatonvilágos,46.964167,18.157222,2026-03-16 21:52:15.291936,7.53,5.16,7.53,10.31,1019,64,3.64,323,100,0.0,Clouds,overcast clouds,21
Szabadifürdő,46.926111,18.103333,2026-03-16 21:52:16.489122,7.7,5.51,7.7,10.48,1019,64,3.39,321,100,0.0,Clouds,overcast clouds,21
Ózd alsó,48.227778,20.306111,2026-03-16 21:52:17.693112,10.2,9.13,9.27,10.96,1016,71,2.75,245,100,0.0,Clouds,overcast clouds,21
Ózd,48.2225,20.294722,2026-03-16 21:52:18.895926,10.26,9.2,9.32,11.01,1016,71,2.75,245,100,0.0,Clouds,overcast clouds,21
Alsóboldva,48.212778,20.792222,2026-03-16 21:52:20.105323,10.22,9.02,9.65,10.79,1016,66,1.17,264,100,0.0,Clouds,overcast clouds,21
Boldva,48.223333,20.790278,2026-03-16 21:52:21.301562,10.21,8.51,9.64,10.78,1016,47,1.17,264,100,0.0,Clouds,overcast clouds,21
Borsodszirák,48.259167,20.770556,2026-03-16 21:52:22.495437,10.16,8.46,9.6,10.74,1016,47,1.55,260,100,0.0,Clouds,overcast clouds,21
Edelény alsó,48.279167,20.760833,2026-03-16 21:52:23.715340,9.97,9.56,9.97,10.72,1016,68,1.55,260,100,0.0,Clouds,overcast clouds,21
Edelény,48.299722,20.749444,2026-03-16 21:52:24.908684,9.95,9.46,9.95,10.7,1016,69,1.63,260,100,0.0,Clouds,overcast clouds,21
Szendrőlád,48.334444,20.731944,2026-03-16 21:52:26.111085,9.86,9.2,9.86,9.86,1016,70,1.8,259,100,0.0,Clouds,overcast clouds,21
Szendrő,48.400725,20.721346,2026-03-16 21:52:27.310663,6.16,4.99,6.16,6.16,1016,71,1.74,264,100,0.0,Clouds,overcast clouds,21
Szendrő felső,48.409907,20.720148,2026-03-16 21:52:28.508330,6.16,4.99,6.16,6.16,1016,71,1.74,264,100,0.0,Clouds,overcast clouds,21
Szalonna,48.449444,20.722222,2026-03-16 21:52:29.713731,6.03,5.01,6.03,6.03,1016,72,1.59,271,100,0.0,Clouds,overcast clouds,21
Perkupa,48.471389,20.691111,2026-03-16 21:52:30.910588,5.24,4.14,5.24,5.24,1016,73,1.56,270,100,0.0,Clouds,overcast clouds,21
Szemeretelep,47.443056,19.214167,2026-03-16 21:52:32.114664,8.15,7.36,6.95,8.7,1018,59,1.66,261,93,0.0,Clouds,overcast clouds,21
Jósvafő-Aggtelek,48.489722,20.693889,2026-03-16 21:52:33.316209,5.48,4.57,5.48,5.48,1016,74,1.44,276,100,0.0,Clouds,overcast clouds,21
Bódvaszilas,48.5375,20.738056,2026-03-16 21:52:34.515131,5.0,5.0,5.0,5.0,1016,74,1.27,288,100,0.0,Clouds,overcast clouds,21
Komjáti,48.5475,20.759722,2026-03-16 21:52:35.717875,4.47,4.47,4.47,4.47,1016,74,1.15,299,100,0.0,Clouds,overcast clouds,21
Tornanádaska,48.558333,20.787222,2026-03-16 21:52:36.921336,5.61,5.61,5.61,5.61,1016,74,1.12,300,100,0.0,Clouds,overcast clouds,21
Onga,48.121111,20.906667,2026-03-16 21:52:38.135156,10.1,8.39,10.1,10.84,1016,47,0.02,333,100,0.0,Clouds,overcast clouds,21
Szikszó-Vásártér,48.193056,20.934722,2026-03-16 21:52:39.335746,10.06,8.35,10.06,10.81,1016,47,0.51,300,100,0.0,Clouds,overcast clouds,21
Szikszó,48.201667,20.941667,2026-03-16 21:52:40.531645,10.08,8.37,10.08,10.82,1016,47,0.49,314,100,0.0,Clouds,overcast clouds,21
Aszaló,48.219867,20.961466,2026-03-16 21:52:41.734990,10.06,8.35,10.06,10.8,1016,47,0.63,307,100,0.0,Clouds,overcast clouds,21
Halmaj,48.246667,20.991667,2026-03-16 21:52:42.939528,10.04,8.88,10.04,10.04,1016,68,0.77,309,100,0.0,Clouds,overcast clouds,21
Csobád,48.277222,21.033889,2026-03-16 21:52:44.149097,10.01,8.87,10.01,10.01,1016,69,0.9,307,100,0.0,Clouds,overcast clouds,21
Ináncs,48.291111,21.057778,2026-03-16 21:52:45.345618,10.01,8.87,10.01,10.01,1016,69,1.03,305,100,0.0,Clouds,overcast clouds,21
Forró-Encs,48.3275,21.117778,2026-03-16 21:52:46.543323,6.2,6.2,6.2,6.2,1016,70,1.05,296,100,0.0,Clouds,overcast clouds,21
Méra,48.363056,21.140278,2026-03-16 21:52:47.747775,5.76,5.76,5.76,5.76,1016,71,1.05,272,100,0.0,Clouds,overcast clouds,21
Novajidrány,48.404444,21.170556,2026-03-16 21:52:48.951912,6.5,6.5,6.5,6.5,1016,72,1.11,259,100,0.0,Clouds,overcast clouds,21
Hernádszurdok,48.487222,21.213889,2026-03-16 21:52:50.158905,6.42,5.52,6.42,6.92,1016,52,1.54,0,0,0.0,Clear,clear sky,21
Hidasnémeti,48.508333,21.229722,2026-03-16 21:52:51.355260,6.43,5.53,6.43,6.92,1016,52,1.54,0,0,0.0,Clear,clear sky,21
Mád,48.19,21.268889,2026-03-16 21:52:52.554018,11.18,9.55,11.18,11.18,1016,46,1.03,305,100,0.0,Clouds,overcast clouds,21
Rátka,48.215,21.230278,2026-03-16 21:52:53.761706,11.34,9.73,11.34,11.34,1016,46,1.13,312,100,0.0,Clouds,overcast clouds,21
Tállya,48.226944,21.225278,2026-03-16 21:52:54.958690,11.29,9.68,11.29,11.29,1016,46,1.13,312,100,0.0,Clouds,overcast clouds,21
Golop,48.242778,21.204167,2026-03-16 21:52:56.167466,11.41,9.81,11.41,11.41,1016,46,1.13,319,100,0.0,Clouds,overcast clouds,21
Abaújszántó,48.286944,21.181667,2026-03-16 21:52:57.360700,11.32,10.34,11.32,11.32,1016,70,1.16,305,100,0.0,Clouds,overcast clouds,21
Abaújszántói fürdő,48.268333,21.179722,2026-03-16 21:52:58.573806,11.38,10.4,11.38,11.38,1016,70,1.17,313,100,0.0,Clouds,overcast clouds,21
Abaújkér,48.309444,21.198333,2026-03-16 21:52:59.783484,11.28,10.32,11.28,11.28,1016,71,1.13,295,100,0.0,Clouds,overcast clouds,21
Boldogkőváralja,48.345,21.208889,2026-03-16 21:53:00.982539,11.08,10.1,11.08,11.08,1016,71,1.19,281,100,0.0,Clouds,overcast clouds,21
Korlát-Vizsoly,48.365,21.219167,2026-03-16 21:53:02.187876,10.99,10.02,10.99,10.99,1016,72,1.18,270,100,0.0,Clouds,overcast clouds,21
Fony,48.411389,21.242778,2026-03-16 21:53:03.392903,6.3,6.3,6.3,7.49,1016,72,1.24,250,100,0.0,Clouds,overcast clouds,21
Hejce-Vilmány,48.419444,21.245556,2026-03-16 21:53:04.587690,6.27,6.27,6.27,7.45,1016,72,1.24,250,100,0.0,Clouds,overcast clouds,21
Göncruszka,48.445,21.246944,2026-03-16 21:53:05.789927,6.43,6.43,6.36,7.54,1016,73,1.27,242,100,0.0,Clouds,overcast clouds,21
Gönc,48.470556,21.261389,2026-03-16 21:53:07.005454,6.4,6.4,6.26,7.45,1016,73,1.3,239,100,0.0,Clouds,overcast clouds,21
Zsujta,48.4925,21.265,2026-03-16 21:53:08.213329,6.45,5.55,6.28,7.47,1016,52,1.54,0,0,0.0,Clear,clear sky,21
Bodrogkeresztúr,48.175556,21.354167,2026-03-16 21:53:09.407785,11.45,9.85,11.45,11.45,1016,46,0.97,281,100,0.0,Clouds,overcast clouds,21
Szegi,48.201944,21.387778,2026-03-16 21:53:10.614016,11.49,9.9,7.98,11.49,1016,46,1.1,267,100,0.0,Clouds,overcast clouds,21
Erdőbénye,48.218056,21.401944,2026-03-16 21:53:11.822375,11.46,9.86,7.95,11.46,1016,46,1.2,262,100,0.0,Clouds,overcast clouds,21
Olaszliszka-Tolcsva,48.258333,21.448056,2026-03-16 21:53:13.027174,11.49,9.9,7.98,11.49,1016,46,1.32,258,100,0.0,Clouds,overcast clouds,21
Bodrogolaszi,48.286944,21.512778,2026-03-16 21:53:14.231402,7.92,7.43,7.92,11.43,1016,96,1.37,253,100,0.0,Clouds,overcast clouds,21
Sárospatak,48.325833,21.566111,2026-03-16 21:53:15.428948,7.87,7.4,7.87,11.38,1016,96,1.35,239,100,0.0,Clouds,overcast clouds,21
Sátoraljaújhely,48.385833,21.657778,2026-03-16 21:53:16.623262,7.95,7.95,7.95,7.95,1016,96,0.84,253,100,0.0,Clouds,overcast clouds,21
Vecsés,47.40855,19.25652,2026-03-16 21:53:17.830541,8.31,7.4,7.53,8.74,1018,60,1.81,256,92,0.0,Clouds,overcast clouds,21
Vecsés-Kertekalja,47.403333,19.271389,2026-03-16 21:53:19.038340,8.35,7.45,7.56,8.78,1018,60,1.81,256,92,0.0,Clouds,overcast clouds,21
Üllő,47.390833,19.348889,2026-03-16 21:53:20.237618,8.31,7.24,7.52,8.73,1018,62,1.98,254,91,0.0,Clouds,overcast clouds,21
Monor,47.34545,19.43701,2026-03-16 21:53:21.435187,6.07,3.73,6.07,8.27,1018,65,3.09,310,0,0.41,Rain,light rain,21
Pilis,47.279722,19.536389,2026-03-16 21:53:22.629523,6.97,5.24,6.03,8.23,1018,63,2.49,275,98,0.0,Clouds,overcast clouds,21
Albertirsa,47.240278,19.606389,2026-03-16 21:53:23.851631,7.06,4.96,7.06,7.06,1018,63,3.03,289,100,0.0,Clouds,overcast clouds,21
Ceglédbercel-Cserő,47.210278,19.686944,2026-03-16 21:53:25.061508,7.13,4.8,7.13,7.13,1018,63,3.42,295,100,0.0,Clouds,overcast clouds,21
Cegléd,47.182778,19.806111,2026-03-16 21:53:26.258164,7.28,4.74,7.23,10.07,1018,63,3.84,301,100,0.0,Clouds,overcast clouds,21
Abony,47.173056,20.016389,2026-03-16 21:53:27.464409,8.49,6.35,7.3,9.97,1018,62,3.6,320,100,0.0,Clouds,overcast clouds,21
Szolnok,47.179167,20.175833,2026-03-16 21:53:28.666696,9.23,7.25,7.32,9.99,1017,59,3.6,320,100,0.0,Clouds,overcast clouds,21
Szajol,47.170556,20.295278,2026-03-16 21:53:29.873000,10.01,8.45,8.32,10.01,1017,53,3.6,320,100,0.28,Rain,light rain,21
Törökszentmiklós,47.170278,20.413611,2026-03-16 21:53:31.077422,10.0,8.19,8.32,10.0,1017,53,3.6,320,100,0.0,Clouds,overcast clouds,21
Rákoscsaba-Újtelep,47.4875,19.271944,2026-03-16 21:53:32.277132,8.13,7.41,7.42,8.64,1018,60,1.6,265,95,0.0,Clouds,overcast clouds,21
Rákoscsaba,47.492222,19.284722,2026-03-16 21:53:33.469815,8.21,7.45,7.41,8.63,1018,61,1.64,263,95,0.0,Clouds,overcast clouds,21
Pécel,47.493889,19.338889,2026-03-16 21:53:34.671915,8.09,7.24,7.29,8.51,1018,62,1.71,261,94,0.0,Clouds,overcast clouds,21
Isaszeg,47.537719,19.388955,2026-03-16 21:53:35.873682,8.0,7.14,7.34,8.42,1018,62,1.71,266,95,0.0,Clouds,overcast clouds,21
Gödöllő,47.592222,19.358611,2026-03-16 21:53:37.078757,7.69,6.8,7.12,8.2,1018,62,1.69,273,95,0.0,Clouds,overcast clouds,21
Máriabesnyő,47.595556,19.389722,2026-03-16 21:53:38.276857,7.88,7.02,7.26,8.34,1018,62,1.69,273,95,0.0,Clouds,overcast clouds,21
Bag,47.641111,19.471667,2026-03-16 21:53:39.477430,8.29,7.31,6.08,8.29,1018,64,1.88,278,96,0.0,Clouds,overcast clouds,21
Aszód,47.647467,19.492882,2026-03-16 21:53:40.686939,8.36,7.34,6.16,8.36,1018,64,1.93,278,96,0.0,Clouds,overcast clouds,21
Hévízgyörk,47.638611,19.526667,2026-03-16 21:53:41.889929,8.37,7.31,8.37,8.37,1018,65,1.98,279,96,0.0,Clouds,overcast clouds,21
Galgahévíz,47.6325,19.558333,2026-03-16 21:53:43.097704,8.36,7.16,8.36,8.36,1018,65,2.14,275,96,0.0,Clouds,overcast clouds,21
Tura,47.626389,19.5975,2026-03-16 21:53:44.294454,8.39,7.14,8.39,8.39,1018,65,2.21,276,97,0.0,Clouds,overcast clouds,21
Hatvan,47.663611,19.671389,2026-03-16 21:53:45.491540,4.72,2.73,4.72,4.72,1018,66,2.32,288,99,0.0,Clouds,overcast clouds,21
Vámosgyörk,47.686111,19.927778,2026-03-16 21:53:46.690604,5.06,2.46,5.06,5.06,1017,67,3.17,284,100,0.0,Clouds,overcast clouds,21
Adács,47.696389,19.975278,2026-03-16 21:53:47.894938,5.28,2.72,5.28,5.28,1017,68,3.17,282,100,0.0,Clouds,overcast clouds,21
Karácsond,47.718056,20.048611,2026-03-16 21:53:49.099113,5.29,2.82,5.29,5.29,1017,69,3.05,282,100,0.0,Clouds,overcast clouds,21
Ludas,47.723889,20.095556,2026-03-16 21:53:50.296051,5.59,3.03,5.59,5.59,1017,70,3.27,276,100,0.0,Clouds,overcast clouds,21
Nagyút,47.72666666666667,20.161388888888887,2026-03-16 21:53:51.492527,5.62,3.03,5.62,5.62,1017,70,3.32,275,100,0.0,Clouds,overcast clouds,21
Kál-Kápolna,47.734167,20.254167,2026-03-16 21:53:52.691212,5.79,3.19,5.79,5.79,1017,70,3.39,271,100,0.0,Clouds,overcast clouds,21
Füzesabony,47.751389,20.415278,2026-03-16 21:53:53.894021,6.12,3.84,6.12,6.12,1016,70,3.02,270,100,0.0,Clouds,overcast clouds,21
Szihalom,47.766944,20.491944,2026-03-16 21:53:55.097843,6.27,4.25,6.27,6.27,1016,70,2.7,271,100,0.0,Clouds,overcast clouds,21
Mezőkövesd,47.797222,20.5675,2026-03-16 21:53:56.293748,6.55,4.99,6.55,6.55,1016,70,2.2,268,100,0.0,Clouds,overcast clouds,21
Mezőkövesd felső,47.807222,20.591389,2026-03-16 21:53:57.517514,10.83,9.8,9.69,10.83,1016,70,2.2,268,100,0.0,Clouds,overcast clouds,21
Mezőkeresztes-Mezőnyárád,47.845556,20.670278,2026-03-16 21:53:58.714615,10.77,9.73,9.69,10.83,1016,70,1.53,262,100,0.0,Clouds,overcast clouds,21
Csincse,47.890833,20.764167,2026-03-16 21:53:59.919304,10.61,9.55,9.71,10.85,1016,70,1.07,243,100,0.0,Clouds,overcast clouds,21
Emőd,47.930556,20.822778,2026-03-16 21:54:01.115733,10.48,9.49,9.73,10.87,1016,73,0.65,238,100,0.0,Clouds,overcast clouds,21
Nyékládháza,47.9925,20.840556,2026-03-16 21:54:02.313016,10.43,9.36,9.76,10.89,1016,70,0.33,224,100,0.0,Clouds,overcast clouds,21
Miskolc-Tiszai,48.098611,20.811389,2026-03-16 21:54:03.514837,10.24,9.02,9.68,10.82,1016,65,0.54,274,100,0.0,Clouds,overcast clouds,21
Felsőzsolca,48.083611,20.866111,2026-03-16 21:54:04.713168,10.27,9.08,9.7,10.84,1016,66,0.18,261,100,0.0,Clouds,overcast clouds,21
Hernádnémeti-Bőcs,48.051389,20.985,2026-03-16 21:54:05.925312,10.1,8.39,10.1,10.84,1016,47,0.41,137,100,0.0,Clouds,overcast clouds,21
Tiszalúc,48.039722,21.0575,2026-03-16 21:54:07.129302,10.32,9.18,10.14,11.48,1016,68,0.57,167,100,0.0,Clouds,overcast clouds,21
Taktaharkány,48.091667,21.128611,2026-03-16 21:54:08.325485,11.53,9.94,10.19,11.53,1016,46,0.08,180,100,0.0,Clouds,overcast clouds,21
Taktaszada,48.1125,21.149444,2026-03-16 21:54:09.530601,11.54,9.95,10.2,11.54,1016,46,0.25,315,100,0.0,Clouds,overcast clouds,21
Szerencs,48.155556,21.214444,2026-03-16 21:54:10.730541,11.53,9.94,11.53,11.53,1016,46,0.86,308,100,0.0,Clouds,overcast clouds,21
Mezőzombor,48.156944,21.267778,2026-03-16 21:54:11.938365,11.53,9.94,11.53,11.53,1016,46,0.91,300,100,0.0,Clouds,overcast clouds,21
Tarcal,48.125,21.34,2026-03-16 21:54:13.150157,11.55,9.96,11.55,11.55,1016,46,0.89,257,100,0.0,Clouds,overcast clouds,21
Tokaj,48.112778,21.406667,2026-03-16 21:54:14.348091,11.51,9.92,11.51,11.51,1016,46,1.22,235,100,0.0,Clouds,overcast clouds,21
Rakamaz,48.12,21.475,2026-03-16 21:54:15.544133,11.51,9.92,11.51,11.51,1016,46,1.35,229,100,0.0,Clouds,overcast clouds,21
Görögszállás,48.04,21.555,2026-03-16 21:54:16.741393,11.47,9.87,11.47,11.47,1016,46,1.81,213,100,0.0,Clouds,overcast clouds,21
Nyírtelek,48.005,21.615556,2026-03-16 21:54:17.949111,11.51,10.39,11.51,11.51,1016,64,2.14,208,100,0.0,Clouds,overcast clouds,21
Rákoshegy,47.468611,19.245556,2026-03-16 21:54:19.147007,8.07,7.28,7.37,8.58,1018,59,1.65,261,94,0.0,Clouds,overcast clouds,21
Ecser,47.439444,19.318056,2026-03-16 21:54:20.345455,8.22,7.33,7.41,8.63,1018,62,1.77,257,93,0.0,Clouds,overcast clouds,21
Maglód,47.438889,19.340833,2026-03-16 21:54:21.543965,8.16,7.22,7.36,8.57,1018,62,1.82,256,93,0.0,Clouds,overcast clouds,21
Maglódi nyaraló,47.434167,19.363611,2026-03-16 21:54:22.742652,8.06,7.02,7.26,8.47,1018,62,1.9,255,93,0.0,Clouds,overcast clouds,21
Gyömrő,47.429722,19.393333,2026-03-16 21:54:23.947340,8.03,6.99,7.22,8.44,1018,62,1.9,255,93,0.0,Clouds,overcast clouds,21
Mende,47.426944,19.439722,2026-03-16 21:54:25.144505,7.07,4.93,5.79,8.4,1018,63,3.09,310,0,0.26,Rain,light rain,21
Szőlősnyaraló,47.450278,19.561111,2026-03-16 21:54:26.347170,7.89,6.35,6.02,8.22,1018,62,2.46,259,95,0.0,Clouds,overcast clouds,21
Sülysáp,47.451944,19.5275,2026-03-16 21:54:27.544324,7.54,6.07,6.0,8.2,1018,62,2.3,257,93,0.0,Clouds,overcast clouds,21
Tápiószecső,47.443056,19.614722,2026-03-16 21:54:28.742171,7.53,5.86,6.1,8.31,1018,64,2.55,261,96,0.0,Clouds,overcast clouds,21
Szentmártonkáta,47.431944,19.680556,2026-03-16 21:54:29.955736,7.07,5.14,7.07,8.33,1018,63,2.79,264,98,0.0,Clouds,overcast clouds,21
Nagykáta,47.409722,19.737778,2026-03-16 21:54:31.160604,7.14,5.11,7.14,7.14,1018,63,2.95,269,99,0.0,Clouds,overcast clouds,21
Farmos,47.355278,19.8375,2026-03-16 21:54:32.356342,7.25,4.78,7.25,7.25,1018,63,3.71,284,100,0.0,Clouds,overcast clouds,21
Tápiószele,47.346313,19.873504,2026-03-16 21:54:33.554587,7.23,4.66,7.23,7.23,1018,63,3.89,288,100,0.0,Clouds,overcast clouds,21
Tápiógyörgye,47.325,19.95,2026-03-16 21:54:34.757215,7.29,4.51,7.29,8.28,1018,63,4.32,290,100,0.0,Clouds,overcast clouds,21
Újszász,47.285833,20.066944,2026-03-16 21:54:35.963796,7.35,4.63,7.33,10.01,1018,63,4.22,295,100,0.0,Clouds,overcast clouds,21
Szurdokpüspöki,47.851944,19.690278,2026-03-16 21:54:37.164209,4.95,3.48,4.95,4.95,1018,69,1.84,300,100,0.0,Clouds,overcast clouds,21
Lőrinci,47.739444,19.673611,2026-03-16 21:54:38.363546,4.76,2.82,4.76,4.76,1017,67,2.27,297,100,0.0,Clouds,overcast clouds,21
Selyp,47.759167,19.670833,2026-03-16 21:54:39.561662,4.8,2.9,4.8,4.8,1017,67,2.24,300,100,0.0,Clouds,overcast clouds,21
Apc-Zagyvaszántó,47.791328,19.66822,2026-03-16 21:54:40.762617,4.86,3.04,4.86,4.86,1017,68,2.17,302,100,0.0,Clouds,overcast clouds,21
Pásztó,47.918889,19.688889,2026-03-16 21:54:41.968672,4.91,3.72,4.91,4.91,1017,71,1.6,291,100,0.0,Clouds,overcast clouds,21
Mátraszőlős-Hasznos,47.938506,19.706122,2026-03-16 21:54:43.180946,5.02,3.94,5.02,5.02,1017,71,1.52,283,100,0.0,Clouds,overcast clouds,21
Tar,47.956111,19.746389,2026-03-16 21:54:44.378604,4.73,3.55,4.73,4.73,1017,72,1.57,273,100,0.0,Clouds,overcast clouds,21
Mátraverebély,47.968333,19.778611,2026-03-16 21:54:45.577998,10.67,9.67,10.67,10.67,1017,72,1.57,273,100,0.0,Clouds,overcast clouds,21
Nagybátony,47.981111,19.82,2026-03-16 21:54:46.776004,10.88,9.93,10.88,10.88,1017,73,1.69,264,100,0.0,Clouds,overcast clouds,21
Kisterenye,48.009444,19.831944,2026-03-16 21:54:47.979790,10.87,9.92,10.87,10.87,1017,73,1.86,258,100,0.0,Clouds,overcast clouds,21
Kisterenye-Bányatelep,48.021389,19.831944,2026-03-16 21:54:49.182790,10.87,9.92,10.87,10.87,1017,73,1.86,258,100,0.0,Clouds,overcast clouds,21
Salgótarján külső,48.089444,19.790833,2026-03-16 21:54:50.383863,10.6,9.62,10.6,10.6,1017,73,2.14,245,100,0.0,Clouds,overcast clouds,21
Balatonfenyves GV,46.7125,17.479167,2026-03-16 21:54:51.580255,8.08,4.37,8.08,8.08,1019,60,7.32,337,100,0.0,Clouds,overcast clouds,21
Várhegyalja,47.737778,18.366667,2026-03-16 21:54:52.775864,5.01,2.83,5.01,5.01,1018,70,2.6,260,100,0.0,Clouds,overcast clouds,21
Imremajor,46.680556,17.499722,2026-03-16 21:54:53.986888,8.11,4.53,8.11,8.11,1019,60,6.94,339,100,0.0,Clouds,overcast clouds,21
Rákospalota-Kertváros,47.578333,19.122778,2026-03-16 21:54:55.182407,8.12,6.8,7.08,8.83,1018,60,2.24,256,95,0.0,Clouds,overcast clouds,21
Vicziántelep,47.675833,19.286111,2026-03-16 21:54:56.380008,7.51,6.59,7.22,8.3,1018,64,1.7,284,95,0.0,Clouds,overcast clouds,21
Pálmajor,46.662831,17.457526,2026-03-16 21:54:57.586173,8.1,4.68,8.1,8.1,1019,59,6.45,340,100,0.0,Clouds,overcast clouds,21
Somogyszentpál felső,46.649758,17.471404,2026-03-16 21:54:58.782850,8.07,4.6,8.07,8.07,1019,59,6.55,341,100,0.0,Clouds,overcast clouds,21
Somogyszentpál,46.638611,17.478611,2026-03-16 21:54:59.988926,8.06,4.71,8.06,8.06,1019,58,6.19,343,100,0.0,Clouds,overcast clouds,21
Rudnaykert,47.7175,19.257778,2026-03-16 21:55:01.187676,7.63,6.61,7.57,8.64,1018,65,1.81,285,94,0.0,Clouds,overcast clouds,21
Maroshegy,47.158333,18.406667,2026-03-16 21:55:02.385625,5.12,2.74,5.12,5.12,1019,62,2.88,305,100,0.0,Clouds,overcast clouds,21
Bánhida,47.573703,18.371737,2026-03-16 21:55:03.582204,4.7,2.11,4.7,4.7,1019,68,3.05,276,100,0.0,Clouds,overcast clouds,21
Magyarkút,47.850278,19.045,2026-03-16 21:55:04.785491,3.81,1.77,3.81,3.81,1018,70,2.2,283,99,0.0,Clouds,overcast clouds,21
Becske alsó,47.897222,19.364722,2026-03-16 21:55:05.991155,3.72,1.76,3.72,3.72,1018,68,2.11,281,97,0.0,Clouds,overcast clouds,21
Hosszúberek-Péteri,47.370556,19.389722,2026-03-16 21:55:07.185777,8.31,7.15,7.5,8.71,1018,62,2.08,255,91,0.37,Rain,light rain,21
Monorierdő,47.308889,19.499167,2026-03-16 21:55:08.382047,7.16,5.58,6.01,8.21,1018,63,2.35,268,96,0.0,Clouds,overcast clouds,21
Ceglédbercel,47.215833,19.658611,2026-03-16 21:55:09.582162,7.12,4.86,7.12,7.12,1018,63,3.3,294,100,0.0,Clouds,overcast clouds,21
Budai út,47.208333,19.731389,2026-03-16 21:55:10.782488,7.16,4.77,7.16,7.16,1018,63,3.53,297,100,0.0,Clouds,overcast clouds,21
Büdöskútpuszta,48.373056,20.726111,2026-03-16 21:55:11.986182,6.41,5.22,6.41,6.41,1016,70,1.79,261,100,0.0,Clouds,overcast clouds,21
Bánrévei Vízmű,48.282778,20.368333,2026-03-16 21:55:13.186915,10.36,9.31,9.46,11.15,1016,71,2.86,238,100,0.0,Clouds,overcast clouds,21
Rákoskert,47.456389,19.296111,2026-03-16 21:55:14.386086,8.09,7.25,7.28,8.5,1018,60,1.7,260,94,0.0,Clouds,overcast clouds,21
Szirmabesenyő,48.146944,20.783056,2026-03-16 21:55:15.593999,10.18,8.98,9.61,10.74,1016,66,0.95,269,100,0.0,Clouds,overcast clouds,21
Kitérőgyár,47.766944,19.935278,2026-03-16 21:55:16.796320,5.06,2.94,5.06,5.06,1017,69,2.54,291,100,0.37,Rain,light rain,21
Tápiószentmárton,47.373333,19.797778,2026-03-16 21:55:18.012191,7.19,4.82,7.19,7.19,1018,63,3.51,282,100,0.0,Clouds,overcast clouds,21
Zagyvarékas,47.244229,20.097435,2026-03-16 21:55:19.217834,9.06,7.05,7.34,10.01,1017,60,3.6,320,100,0.0,Clouds,overcast clouds,21
Abonyi út,47.206401,20.125204,2026-03-16 21:55:20.412680,9.14,7.14,7.34,10.01,1017,60,3.6,320,100,0.0,Clouds,overcast clouds,21
Jászkisér felső,47.438056,20.202222,2026-03-16 21:55:21.616255,5.16,1.63,5.16,5.16,1017,65,4.81,281,100,0.0,Clouds,overcast clouds,21
Szellőhát,47.425556,20.188889,2026-03-16 21:55:22.818958,7.33,4.36,7.33,7.33,1017,64,4.75,283,100,0.0,Clouds,overcast clouds,21
Szilvásvárad-Szalajkavölgy,48.0956,20.38272,2026-03-16 21:55:24.023657,8.21,6.91,8.02,9.72,1016,57,2.23,274,100,0.0,Clouds,overcast clouds,21
Vásárosnamény külső,48.084444,22.255556,2026-03-16 21:55:25.222774,6.49,4.23,6.49,6.49,1017,62,3.09,184,100,0.0,Clouds,overcast clouds,21
Újváros,46.660556,20.536111,2026-03-16 21:55:26.420253,12.21,10.77,12.21,12.21,1018,49,2.61,317,100,0.0,Clouds,overcast clouds,21
Városi park,46.697778,19.864722,2026-03-16 21:55:27.618008,8.88,8.88,8.88,10.1,1018,70,1.25,308,100,1.78,Rain,moderate rain,21
Belsőkamaráspuszta,46.341944,20.848889,2026-03-16 21:55:28.815665,8.92,7.54,8.92,8.92,1018,61,2.51,262,99,0.0,Clouds,overcast clouds,21
Sajószöged,47.945278,20.981667,2026-03-16 21:55:30.019462,10.19,9.07,10.19,10.94,1016,69,1.15,183,100,0.0,Clouds,overcast clouds,21
Kazincbarcika alsó,48.255278,20.649167,2026-03-16 21:55:31.216732,10.2,9.08,9.57,10.71,1016,69,1.98,254,100,0.0,Clouds,overcast clouds,21
Nyárjas,46.857778,19.923611,2026-03-16 21:55:32.411520,10.05,8.42,8.84,10.05,1018,50,3.09,300,0,1.15,Rain,moderate rain,21
Pogonyipuszta,48.296389,20.381667,2026-03-16 21:55:33.607710,10.36,9.31,9.42,10.36,1016,71,2.86,238,100,0.0,Clouds,overcast clouds,21
Sióvölgy,46.911103,18.076964,2026-03-16 21:55:34.803501,7.75,5.1,7.75,10.53,1019,64,4.27,325,100,0.0,Clouds,overcast clouds,21
Répáspuszta,46.430278,17.847222,2026-03-16 21:55:36.016055,6.35,3.69,6.35,6.35,1019,54,3.69,346,99,0.0,Clouds,overcast clouds,21
Virányos,48.066667,21.527222,2026-03-16 21:55:37.216941,11.5,9.91,11.5,11.5,1016,46,1.75,215,100,0.0,Clouds,overcast clouds,21
Füzesbokor,47.988611,21.6475,2026-03-16 21:55:38.417685,11.5,10.35,11.5,11.5,1016,63,2.26,206,100,0.0,Clouds,overcast clouds,21
Kunfehértó,46.355833,19.417222,2026-03-16 21:55:39.614751,5.21,4.35,5.21,5.21,1018,61,1.38,30,100,0.47,Rain,light rain,21
Erdőszél,46.329444,19.395,2026-03-16 21:55:40.815518,5.15,5.15,5.15,5.15,1018,60,1.29,31,100,0.41,Rain,light rain,21
Jánoshalma,46.293056,19.330278,2026-03-16 21:55:42.027205,5.38,5.38,5.38,5.38,1018,61,1.29,30,100,0.63,Rain,light rain,21
Mélykút,46.213056,19.370556,2026-03-16 21:55:43.222103,5.54,4.39,5.54,5.54,1019,63,1.64,20,100,0.0,Clouds,overcast clouds,21
Bácsalmás,46.118056,19.346389,2026-03-16 21:55:44.426581,5.78,4.26,5.78,5.78,1019,64,2.02,15,100,0.0,Clouds,overcast clouds,21
Almás,46.116216,19.328803,2026-03-16 21:55:45.628729,5.78,4.26,5.78,5.78,1019,64,2.02,15,100,0.0,Clouds,overcast clouds,21
Bácsbokod-Bácsborsód,46.115833,19.16,2026-03-16 21:55:46.829772,5.94,4.84,5.94,5.94,1019,63,1.65,23,100,0.0,Clouds,overcast clouds,21
Baja,46.187014,18.957602,2026-03-16 21:55:48.033140,6.18,5.12,6.18,6.18,1019,59,1.64,2,100,0.28,Rain,light rain,21
Harkakötöny,46.458333,19.601944,2026-03-16 21:55:49.239310,8.73,8.18,8.73,8.73,1018,64,1.52,12,100,2.76,Rain,moderate rain,21
Tajó,46.473056,19.650556,2026-03-16 21:55:50.447659,8.77,8.16,8.77,8.77,1018,65,1.58,8,100,2.02,Rain,moderate rain,21
Kiskunmajsa,46.501667,19.728056,2026-03-16 21:55:51.644873,8.81,8.13,8.81,8.83,1018,67,1.65,358,100,0.0,Clouds,overcast clouds,21
Jászszentlászló,46.565833,19.753611,2026-03-16 21:55:52.840875,8.85,8.37,8.85,8.85,1018,72,1.47,343,100,1.18,Rain,moderate rain,21
Galambos,46.625,19.801111,2026-03-16 21:55:54.114462,8.88,8.88,8.88,8.88,1018,72,1.32,330,100,1.19,Rain,moderate rain,21
Pestszentimre,47.402222,19.188611,2026-03-16 21:55:55.318404,8.2,7.25,7.04,8.79,1018,59,1.83,256,90,0.0,Clouds,overcast clouds,21
Gyál felső,47.390278,19.204722,2026-03-16 21:55:56.518211,8.22,7.25,7.05,8.8,1018,59,1.86,256,90,0.0,Clouds,overcast clouds,21
Gyál,47.376667,19.219444,2026-03-16 21:55:57.713738,8.28,7.32,7.61,8.83,1018,60,1.86,256,90,0.0,Clouds,overcast clouds,21
Ócsa,47.301389,19.232222,2026-03-16 21:55:58.907884,8.2,6.94,7.62,8.84,1018,62,2.18,253,87,0.0,Clouds,overcast clouds,21
Inárcs-Kakucs,47.247222,19.317778,2026-03-16 21:56:00.111770,6.23,4.5,6.23,8.43,1018,63,2.33,259,87,0.0,Clouds,overcast clouds,21
Dabas,47.194722,19.328889,2026-03-16 21:56:01.310282,6.24,4.39,6.24,6.24,1018,64,2.48,267,90,0.0,Clouds,overcast clouds,21
Gyón,47.178333,19.355556,2026-03-16 21:56:02.509618,6.21,4.29,6.21,6.21,1018,64,2.55,271,91,0.14,Rain,light rain,21
Hernád,47.161389,19.4025,2026-03-16 21:56:03.710954,4.43,1.93,4.43,4.43,1018,64,2.86,284,96,0.0,Clouds,overcast clouds,21
Bakonygyirót,47.416389,17.811944,2026-03-16 21:56:04.929732,4.59,-0.09,4.59,6.71,1019,72,7.2,290,100,0.0,Clouds,overcast clouds,21
Vinye,47.360317,17.819635,2026-03-16 21:56:06.148199,6.03,1.66,3.91,6.03,1019,72,7.53,293,100,0.0,Clouds,overcast clouds,21
Nemesgörzsöny,47.402924,17.376385,2026-03-16 21:56:07.348893,7.16,5.04,7.16,7.16,1020,76,3.09,280,0,0.0,Clear,clear sky,21
Rábahíd,47.438618,17.337525,2026-03-16 21:56:08.543251,7.15,5.03,7.15,7.15,1020,76,3.09,280,0,0.0,Clear,clear sky,21
Öskü,47.162222,18.076389,2026-03-16 21:56:09.739777,7.42,3.35,7.42,7.42,1019,66,7.89,314,100,0.0,Clouds,overcast clouds,21
Márkó,47.1275,17.813889,2026-03-16 21:56:10.940183,9.31,5.61,9.31,9.31,1019,68,8.63,321,100,0.0,Clouds,overcast clouds,21
Nemeskocs,47.203333,17.188889,2026-03-16 21:56:12.153380,7.11,3.13,7.11,7.11,1020,74,7.3,319,100,0.0,Clouds,overcast clouds,21
Zalagyömörő,47.011111,17.220833,2026-03-16 21:56:13.350213,6.0,1.67,6.0,6.0,1020,74,7.37,321,99,0.0,Clouds,overcast clouds,21
Rigács,47.061667,17.199167,2026-03-16 21:56:14.549517,5.93,1.56,5.93,5.93,1020,74,7.43,321,99,0.0,Clouds,overcast clouds,21
Kemenespálfa,47.139722,17.183056,2026-03-16 21:56:15.756845,5.94,1.6,5.94,5.94,1020,75,7.36,320,100,0.0,Clouds,overcast clouds,21
Lentiszombathely,46.611389,16.5725,2026-03-16 21:56:16.951579,7.91,6.21,6.62,7.91,1020,85,2.69,9,100,0.0,Clouds,overcast clouds,21
Ortaháza,46.626667,16.685833,2026-03-16 21:56:18.158502,5.94,4.18,5.94,5.94,1020,83,2.3,347,100,0.0,Clouds,overcast clouds,21
Rádiháza,46.654722,16.765833,2026-03-16 21:56:19.353573,5.92,4.03,5.92,5.92,1020,82,2.45,327,100,0.0,Clouds,overcast clouds,21
Baktüttös,46.690833,16.826389,2026-03-16 21:56:20.549697,7.6,5.53,7.6,7.6,1020,81,3.15,309,100,0.0,Clouds,overcast clouds,21
Budafa,46.851667,16.624722,2026-03-16 21:56:21.745324,5.87,3.26,5.87,5.87,1021,85,3.44,319,100,0.0,Clouds,overcast clouds,21
Zalapatakalja,46.845556,16.603889,2026-03-16 21:56:22.946037,5.85,3.31,5.85,5.85,1021,86,3.32,329,100,0.0,Clouds,overcast clouds,21
Tormásliget,47.430556,16.781667,2026-03-16 21:56:24.148028,5.3,2.94,5.3,5.3,1020,84,2.9,271,100,0.0,Clouds,overcast clouds,21
Belecska,46.64,18.411389,2026-03-16 21:56:25.345757,5.78,5.78,5.78,5.78,1019,63,0.6,262,100,0.0,Clouds,overcast clouds,21
Almár,47.956111,20.356944,2026-03-16 21:56:26.543842,9.75,8.64,9.23,10.92,1016,58,2.34,289,100,0.0,Clouds,overcast clouds,21
Vasútmúzeum,47.543889,19.099444,2026-03-16 21:56:27.743615,8.16,6.84,7.09,8.84,1018,60,2.24,347,94,0.0,Clouds,overcast clouds,21
Abda,47.690833,17.540556,2026-03-16 21:56:28.945255,5.09,0.94,5.09,5.09,1020,73,6.18,313,99,0.0,Clouds,overcast clouds,21
Vadaspark,47.526111,18.949167,2026-03-16 21:56:30.149865,6.26,4.61,5.28,7.03,1018,60,2.24,347,94,0.0,Clouds,overcast clouds,21
Barosstelep,47.398889,18.989167,2026-03-16 21:56:31.348902,8.02,8.02,7.14,8.9,1018,58,0.89,310,93,0.0,Clouds,overcast clouds,21
Fegyvernek-Örményes,47.194444,20.5575,2026-03-16 21:56:32.549525,10.02,8.77,10.02,10.02,1017,65,1.73,287,100,0.0,Clouds,overcast clouds,21
Zagyvapálfalva,48.068889,19.785,2026-03-16 21:56:33.748427,10.59,9.61,10.59,10.59,1017,73,2.01,248,100,0.0,Clouds,overcast clouds,21
Salgótarján,48.105556,19.807222,2026-03-16 21:56:34.956638,10.46,9.47,10.46,10.46,1017,73,2.28,243,100,0.0,Clouds,overcast clouds,21
Szabadisóstó,46.933889,18.118056,2026-03-16 21:56:36.163091,7.73,5.35,7.73,10.51,1019,64,3.73,324,100,0.0,Clouds,overcast clouds,21
Siófok,46.907778,18.053889,2026-03-16 21:56:37.360038,7.73,5.08,7.73,10.51,1019,64,4.27,325,100,0.0,Clouds,overcast clouds,21
Balatonszéplak felső,46.898056,18.018056,2026-03-16 21:56:38.559077,7.73,5.06,7.73,10.51,1019,64,4.3,325,100,0.0,Clouds,overcast clouds,21
Balatonszéplak alsó,46.891944,17.993333,2026-03-16 21:56:39.759907,7.73,6.0,7.73,10.51,1019,64,2.68,315,100,0.0,Clouds,overcast clouds,21
Zamárdi felső,46.886111,17.969444,2026-03-16 21:56:40.962729,10.52,8.52,7.74,10.52,1019,34,2.68,315,100,0.0,Clouds,overcast clouds,21
Zamárdi,46.88,17.944722,2026-03-16 21:56:42.166208,10.46,8.45,7.68,10.46,1019,34,2.68,315,100,0.0,Clouds,overcast clouds,21
Szántód,46.861944,17.899167,2026-03-16 21:56:43.364064,10.53,8.53,7.75,10.53,1019,34,2.68,315,100,0.0,Clouds,overcast clouds,21
Szőny-Déli,47.735278,18.141944,2026-03-16 21:56:44.567872,5.12,1.87,5.12,7.84,1019,71,4.25,285,98,0.0,Clouds,overcast clouds,21
Várpalota,47.194444,18.149167,2026-03-16 21:56:45.765636,4.88,0.38,4.88,4.88,1019,65,6.93,309,99,0.0,Clouds,overcast clouds,21
Pétfürdő,47.1675,18.121389,2026-03-16 21:56:46.961430,7.55,3.71,7.55,7.55,1019,65,7.24,311,99,0.0,Clouds,overcast clouds,21
Hajmáskér,47.141111,18.009444,2026-03-16 21:56:48.165814,7.33,3.14,7.33,10.11,1019,66,8.22,315,100,0.0,Clouds,overcast clouds,21
Veszprém,47.118889,17.91,2026-03-16 21:56:49.361550,9.9,6.38,7.12,9.9,1019,67,8.67,319,100,0.0,Clouds,overcast clouds,21
Herend,47.136944,17.760278,2026-03-16 21:56:50.556781,9.09,5.34,9.09,9.09,1019,68,8.58,321,100,0.0,Clouds,overcast clouds,21
Városlőd,47.144167,17.652778,2026-03-16 21:56:51.758861,5.98,1.36,5.98,5.98,1020,68,8.3,324,100,0.0,Clouds,overcast clouds,21
Városlőd-Kislőd,47.133889,17.631111,2026-03-16 21:56:52.958113,6.09,1.4,6.09,6.09,1019,68,8.65,326,100,0.0,Clouds,overcast clouds,21
Ajka,47.105902,17.572938,2026-03-16 21:56:54.167850,6.39,1.67,6.39,6.39,1020,67,9.07,330,100,0.0,Clouds,overcast clouds,21
Ajka-Gyártelep,47.096806,17.555219,2026-03-16 21:56:55.365771,6.44,1.74,6.44,6.44,1020,67,9.07,330,100,0.0,Clouds,overcast clouds,21
Devecser,47.1125,17.435278,2026-03-16 21:56:56.561909,6.84,2.32,6.84,6.84,1020,68,8.86,330,99,0.0,Clouds,overcast clouds,21
Somlóvásárhely,47.124444,17.369167,2026-03-16 21:56:57.759158,6.95,2.64,6.95,6.95,1020,70,8.23,326,100,0.0,Clouds,overcast clouds,21
Tüskevár,47.128611,17.331389,2026-03-16 21:56:58.994349,6.99,2.73,6.99,6.99,1020,71,8.09,325,100,0.0,Clouds,overcast clouds,21
Karakószörcsök,47.133611,17.287778,2026-03-16 21:57:00.193266,5.87,1.33,5.87,5.87,1020,72,7.93,324,100,0.0,Clouds,overcast clouds,21
Kerta,47.151944,17.237222,2026-03-16 21:57:01.388616,5.95,1.57,5.95,5.95,1020,74,7.49,320,100,0.0,Clouds,overcast clouds,21
Boba,47.183333,17.191389,2026-03-16 21:57:02.583285,5.91,1.56,5.91,5.91,1020,74,7.35,319,100,0.0,Clouds,overcast clouds,21
Börgönd,47.140278,18.515,2026-03-16 21:57:03.783690,4.89,3.11,4.89,4.89,1018,63,2.13,292,100,0.0,Clouds,overcast clouds,21
Belsőbáránd,47.102778,18.499722,2026-03-16 21:57:04.983178,4.92,3.07,4.92,4.92,1018,63,2.21,295,100,0.0,Clouds,overcast clouds,21
Zichyújfalu,47.124444,18.6725,2026-03-16 21:57:06.178050,4.71,3.5,4.71,4.71,1018,63,1.59,266,99,0.0,Clouds,overcast clouds,21
Seregélyes,47.121111,18.580556,2026-03-16 21:57:07.374025,4.98,3.34,4.98,4.98,1018,63,2.0,288,100,0.0,Clouds,overcast clouds,21
Polgárdi-Ipartelepek,47.079167,18.314444,2026-03-16 21:57:08.567980,7.36,5.28,7.36,7.36,1019,62,3.09,313,99,0.0,Clouds,overcast clouds,21
Polgárdi,47.07,18.284167,2026-03-16 21:57:09.763705,7.36,5.28,7.36,7.36,1019,62,3.09,313,99,0.0,Clouds,overcast clouds,21
Füle,47.05,18.255278,2026-03-16 21:57:10.958733,7.33,5.24,7.33,7.33,1019,62,3.1,315,99,0.0,Clouds,overcast clouds,21
Zánka-Erzsébettábor,46.8775,17.709167,2026-03-16 21:57:12.160110,10.46,8.45,7.68,10.46,1019,34,8.6,335,100,0.0,Clouds,overcast clouds,21
Csajág,47.033889,18.186389,2026-03-16 21:57:13.362617,7.57,5.06,7.57,10.35,1019,64,3.91,321,100,0.0,Clouds,overcast clouds,21
Balatonakarattya,47.017222,18.167778,2026-03-16 21:57:14.564008,7.42,4.88,7.42,10.2,1019,64,3.91,321,100,0.0,Clouds,overcast clouds,21
Csittényhegy,47.025278,18.1375,2026-03-16 21:57:15.761522,7.64,4.91,7.64,10.42,1019,64,4.4,323,100,0.0,Clouds,overcast clouds,21
Balatonkenese,47.0325,18.105556,2026-03-16 21:57:16.958206,7.72,4.77,7.72,10.5,1019,64,4.93,324,100,0.0,Clouds,overcast clouds,21
Balatonfűzfő,47.060278,18.0425,2026-03-16 21:57:18.156837,7.75,4.08,7.75,10.53,1019,64,6.89,325,100,0.0,Clouds,overcast clouds,21
Balatonalmádi,47.028333,18.015,2026-03-16 21:57:19.356834,7.72,4.18,7.72,10.5,1019,64,6.47,326,100,0.0,Clouds,overcast clouds,21
Káptalanfüred,47.008889,18.003889,2026-03-16 21:57:20.557109,7.75,4.21,7.75,10.53,1019,64,6.5,328,100,0.0,Clouds,overcast clouds,21
Alsóörs,46.985278,17.974722,2026-03-16 21:57:21.755774,10.54,8.54,7.76,10.54,1019,34,4.02,0,100,0.0,Clouds,overcast clouds,21
Csopak,46.974722,17.931111,2026-03-16 21:57:22.953952,10.41,8.39,7.63,10.41,1019,34,4.02,0,100,0.0,Clouds,overcast clouds,21
Balatonarács,46.9625,17.8975,2026-03-16 21:57:24.150982,10.31,8.28,7.53,10.31,1019,34,4.02,0,100,0.0,Clouds,overcast clouds,21
Balatonfüred,46.955833,17.883056,2026-03-16 21:57:25.349656,10.38,8.36,7.6,10.38,1019,34,4.02,0,100,0.0,Clouds,overcast clouds,21
Aszófő,46.925556,17.8325,2026-03-16 21:57:26.543396,10.48,8.47,7.7,10.48,1019,34,4.02,0,100,0.0,Clouds,overcast clouds,21
Örvényes,46.9125,17.818056,2026-03-16 21:57:27.746880,10.5,8.49,7.72,10.5,1019,34,4.02,0,100,0.0,Clouds,overcast clouds,21
Balatonudvari,46.904722,17.808056,2026-03-16 21:57:28.943956,10.53,8.53,7.75,10.53,1019,34,4.02,0,100,0.0,Clouds,overcast clouds,21
Fövenyes,46.893611,17.789444,2026-03-16 21:57:30.141147,10.55,8.55,7.77,10.55,1019,34,4.02,0,100,0.0,Clouds,overcast clouds,21
Balatonakali-Dörgicse,46.88,17.747778,2026-03-16 21:57:31.342634,10.54,8.54,7.76,10.54,1019,34,8.19,333,100,0.0,Clouds,overcast clouds,21
Zánka-Köveskál,46.872778,17.687778,2026-03-16 21:57:32.549487,10.53,8.53,7.75,10.53,1019,34,8.92,336,100,0.0,Clouds,overcast clouds,21
Balatonszepezd,46.851111,17.663056,2026-03-16 21:57:33.748366,10.53,8.53,10.53,10.53,1019,34,8.56,336,100,0.0,Clouds,overcast clouds,21
Szepezdfürdő,46.839722,17.649444,2026-03-16 21:57:34.944680,10.5,9.22,10.5,10.5,1019,62,8.83,336,100,0.0,Clouds,overcast clouds,21
Révfülöp,46.829167,17.632222,2026-03-16 21:57:36.142620,10.51,9.24,10.51,10.51,1019,62,8.83,336,100,0.0,Clouds,overcast clouds,21
Balatonrendes,46.824722,17.582778,2026-03-16 21:57:37.342060,10.51,9.24,10.51,10.51,1019,62,8.83,336,100,0.0,Clouds,overcast clouds,21
Ábrahámhegy,46.815,17.572222,2026-03-16 21:57:38.560812,10.48,9.2,10.48,10.48,1019,62,8.83,336,100,0.0,Clouds,overcast clouds,21
Badacsonyörs,46.805556,17.531667,2026-03-16 21:57:39.775968,6.39,1.75,6.39,6.39,1019,62,8.8,336,100,0.0,Clouds,overcast clouds,21
Kisújszállás,47.223889,20.751111,2026-03-16 21:57:40.977190,5.7,4.22,5.7,5.7,1017,66,1.96,284,100,0.0,Clouds,overcast clouds,21
Karcag,47.303333,20.928056,2026-03-16 21:57:42.175892,5.83,3.96,5.83,5.83,1017,68,2.41,273,100,0.0,Clouds,overcast clouds,21
Püspökladány,47.3275,21.128889,2026-03-16 21:57:43.379949,6.11,3.65,6.11,6.11,1017,68,3.28,272,100,0.0,Clouds,overcast clouds,21
Kaba,47.368889,21.259444,2026-03-16 21:57:44.578917,6.1,3.61,6.1,6.1,1017,66,3.33,266,100,0.0,Clouds,overcast clouds,21
Hajdúszoboszló,47.429444,21.406944,2026-03-16 21:57:45.782654,6.09,5.14,6.09,6.09,1017,61,1.54,150,0,0.0,Clear,clear sky,21
Ebes,47.462778,21.488889,2026-03-16 21:57:46.978117,6.04,5.08,6.04,6.04,1017,61,1.54,150,0,0.0,Clear,clear sky,21
Debrecen,47.520278,21.628611,2026-03-16 21:57:48.179992,5.92,4.95,5.92,5.92,1017,61,1.54,150,0,0.0,Clear,clear sky,21
Debrecen-Csapókert,47.540556,21.648056,2026-03-16 21:57:49.377460,5.87,4.89,5.87,5.87,1017,61,1.54,150,0,0.0,Clear,clear sky,21
Apafa,47.584045,21.655858,2026-03-16 21:57:50.573030,5.83,4.84,5.83,5.83,1017,61,1.54,150,0,0.0,Clear,clear sky,21
Bocskaikert,47.6425,21.666389,2026-03-16 21:57:51.770071,5.76,4.76,5.76,5.76,1017,61,1.54,150,0,0.0,Clear,clear sky,21
Hajdúhadház,47.686944,21.679167,2026-03-16 21:57:52.969420,5.73,3.38,5.73,5.73,1017,60,3.01,198,100,0.0,Clouds,overcast clouds,21
Téglás,47.714722,21.684722,2026-03-16 21:57:54.168057,5.8,3.48,5.8,5.8,1017,60,2.98,199,100,0.0,Clouds,overcast clouds,21
Újfehértó,47.814444,21.706389,2026-03-16 21:57:55.377541,6.45,4.37,6.45,6.45,1017,61,2.82,201,100,0.0,Clouds,overcast clouds,21
Nyíregyháza,47.946667,21.705556,2026-03-16 21:57:56.572863,6.51,4.72,6.51,6.51,1017,62,2.46,203,100,0.0,Clouds,overcast clouds,21
Sóstó,47.998051,21.729047,2026-03-16 21:57:57.770081,11.48,10.3,11.48,11.48,1017,62,2.55,201,100,0.0,Clouds,overcast clouds,21
Sóstóhegy,48.012222,21.742778,2026-03-16 21:57:58.968636,11.48,10.3,11.48,11.48,1017,62,2.52,202,100,0.0,Clouds,overcast clouds,21
Kemecse,48.065556,21.801667,2026-03-16 21:58:00.169281,6.51,4.54,6.51,6.51,1016,62,2.69,200,100,0.0,Clouds,overcast clouds,21
Nyírbogdány,48.082222,21.855278,2026-03-16 21:58:01.363817,6.46,4.44,6.46,6.46,1016,62,2.75,200,100,0.0,Clouds,overcast clouds,21
Kék,48.093333,21.883889,2026-03-16 21:58:02.566161,6.51,4.38,6.51,6.51,1016,61,2.92,198,100,0.0,Clouds,overcast clouds,21
Demecser,48.111667,21.926667,2026-03-16 21:58:03.764803,6.5,4.35,6.5,6.5,1017,61,2.94,197,100,0.0,Clouds,overcast clouds,21
Gégény,48.128333,21.951944,2026-03-16 21:58:04.961960,6.46,4.32,6.46,6.46,1017,61,2.92,196,100,0.0,Clouds,overcast clouds,21
Pátroha,48.158611,21.996667,2026-03-16 21:58:06.158157,6.47,4.35,6.47,6.47,1017,61,2.89,194,100,0.0,Clouds,overcast clouds,21
Ajak,48.1865,22.048972,2026-03-16 21:58:07.360479,6.44,4.35,6.44,6.44,1017,61,2.84,192,100,0.0,Clouds,overcast clouds,21
Kisvárda,48.208333,22.078333,2026-03-16 21:58:08.556774,6.42,4.34,6.42,6.42,1017,61,2.82,185,100,0.0,Clouds,overcast clouds,21
Kisvárda-Hármasút,48.228333,22.091944,2026-03-16 21:58:09.751947,6.42,4.34,6.42,6.42,1017,61,2.82,185,100,0.0,Clouds,overcast clouds,21
Fényeslitke,48.267222,22.107222,2026-03-16 21:58:10.962662,6.31,4.24,6.31,6.31,1017,62,2.77,174,100,0.0,Clouds,overcast clouds,21
Komoró,48.305278,22.118056,2026-03-16 21:58:12.163282,6.28,4.2,6.28,6.28,1017,63,2.78,169,100,0.0,Clouds,overcast clouds,21
Tuzsér,48.342222,22.131667,2026-03-16 21:58:13.360432,6.14,3.97,6.14,6.14,1017,64,2.86,157,100,0.0,Clouds,overcast clouds,21
Tiszabezdéd,48.371389,22.145,2026-03-16 21:58:14.558126,6.12,3.84,6.12,6.12,1017,65,3.01,148,100,0.0,Clouds,overcast clouds,21
Záhony,48.402222,22.183611,2026-03-16 21:58:15.750995,6.08,3.69,6.08,6.08,1017,65,3.16,140,100,0.0,Clouds,overcast clouds,21
Karcag-Vásártér,47.3225,20.9075,2026-03-16 21:58:16.956435,5.83,3.96,5.83,5.83,1017,68,2.41,273,100,0.0,Clouds,overcast clouds,21
Berekfürdő,47.374722,20.827222,2026-03-16 21:58:18.159774,5.71,4.15,5.71,5.71,1017,67,2.05,269,100,0.0,Clouds,overcast clouds,21
Kunmadaras,47.415278,20.793056,2026-03-16 21:58:19.357481,5.62,4.05,5.62,5.62,1017,67,2.04,265,100,0.0,Clouds,overcast clouds,21
Tiszaszentimre,47.490833,20.733056,2026-03-16 21:58:20.559819,5.54,3.84,5.54,5.54,1017,68,2.16,261,100,0.0,Clouds,overcast clouds,21
Tiszaszőlős,47.555556,20.728056,2026-03-16 21:58:21.755472,5.68,3.93,5.68,5.68,1017,68,2.24,256,100,0.0,Clouds,overcast clouds,21
Hosszúhát,47.235556,21.101944,2026-03-16 21:58:22.962791,6.08,3.57,6.08,6.08,1017,68,3.35,279,100,0.0,Clouds,overcast clouds,21
Szerep,47.234444,21.145833,2026-03-16 21:58:24.160576,6.14,3.63,6.14,6.14,1017,68,3.37,278,100,0.0,Clouds,overcast clouds,21
Sárrétudvari,47.231667,21.180833,2026-03-16 21:58:25.359942,6.16,3.65,6.16,6.16,1017,67,3.37,275,100,0.0,Clouds,overcast clouds,21
Biharnagybajom,47.208889,21.221944,2026-03-16 21:58:26.561592,6.2,3.83,6.2,6.2,1017,66,3.18,268,100,0.0,Clouds,overcast clouds,21
Füzesgyarmat,47.113056,21.194444,2026-03-16 21:58:27.757724,6.18,3.92,6.18,6.18,1017,66,3.01,276,100,0.0,Clouds,overcast clouds,21
Füzesgyarmatfürdő,47.093787,21.201582,2026-03-16 21:58:29.051867,6.18,3.92,6.18,6.18,1017,66,3.01,276,100,0.0,Clouds,overcast clouds,21
Báránd,47.299722,21.235278,2026-03-16 21:58:30.255644,6.23,3.73,6.23,6.23,1017,67,3.38,269,100,0.0,Clouds,overcast clouds,21
Sáp,47.259722,21.360556,2026-03-16 21:58:31.456286,6.3,4.05,6.3,6.3,1017,64,3.02,253,100,0.0,Clouds,overcast clouds,21
Berettyóújfalu,47.211944,21.535556,2026-03-16 21:58:32.658047,6.39,4.09,6.39,6.39,1017,61,3.12,213,100,0.0,Clouds,overcast clouds,21
Mezőpeterd,47.176111,21.625278,2026-03-16 21:58:33.858022,6.39,4.03,6.28,6.39,1017,60,3.22,209,100,0.0,Clouds,overcast clouds,21
Biharkeresztes,47.135556,21.721389,2026-03-16 21:58:35.054217,6.36,4.89,6.25,6.36,1017,66,2.06,110,0,0.0,Clear,clear sky,21
Tócóvölgy,47.529444,21.588889,2026-03-16 21:58:36.252805,5.97,5.0,5.97,5.97,1017,61,1.54,150,0,0.0,Clear,clear sky,21
Sáregres,46.7825,18.588889,2026-03-16 21:58:37.447623,5.32,5.32,5.32,5.32,1019,65,0.59,290,100,0.0,Clouds,overcast clouds,21
Simontornya,46.756582,18.540674,2026-03-16 21:58:38.645763,5.36,5.36,5.36,5.36,1019,65,0.55,274,100,0.0,Clouds,overcast clouds,21
Tolnanémedi,46.727778,18.475833,2026-03-16 21:58:39.857479,5.51,5.51,5.51,5.51,1019,64,0.55,267,100,0.0,Clouds,overcast clouds,21
Pincehely,46.681389,18.43,2026-03-16 21:58:41.053896,5.57,5.57,5.57,5.57,1019,63,0.75,262,100,0.0,Clouds,overcast clouds,21
Keszőhidegkút-Gyönk,46.597778,18.426111,2026-03-16 21:58:42.252520,5.74,5.74,5.74,5.74,1019,63,0.53,267,100,0.0,Clouds,overcast clouds,21
Szárazd,46.575556,18.420833,2026-03-16 21:58:43.450825,5.83,5.83,5.83,5.83,1019,63,0.47,275,100,0.0,Clouds,overcast clouds,21
Regöly,46.568889,18.396111,2026-03-16 21:58:44.648402,5.83,5.83,5.83,5.83,1019,63,0.47,275,100,0.0,Clouds,overcast clouds,21
Szakály-Hőgyész,46.523611,18.389444,2026-03-16 21:58:45.849516,5.87,5.87,5.87,5.87,1019,63,0.49,294,100,0.0,Clouds,overcast clouds,21
Dúzs,46.493889,18.377222,2026-03-16 21:58:47.047633,5.95,5.95,5.95,5.95,1019,63,0.52,308,100,0.0,Clouds,overcast clouds,21
Csibrák,46.466667,18.336389,2026-03-16 21:58:48.245285,6.11,6.11,6.11,6.11,1019,63,0.62,319,100,0.0,Clouds,overcast clouds,21
Kurd,46.449167,18.319167,2026-03-16 21:58:49.444399,5.8,5.8,5.8,5.8,1019,63,0.7,332,100,0.1,Rain,light rain,21
Döbrököz,46.418889,18.255,2026-03-16 21:58:50.642801,6.22,6.22,6.22,6.22,1019,62,0.97,337,100,0.16,Rain,light rain,21
Dombóvár,46.37,18.149722,2026-03-16 21:58:51.845730,6.45,5.2,6.45,6.45,1019,60,1.86,341,100,0.65,Rain,light rain,21
Dombóvár alsó,46.363889,18.134167,2026-03-16 21:58:53.044611,6.45,5.2,6.45,6.45,1019,60,1.86,341,100,0.63,Rain,light rain,21
Somoskőújfalu,48.154722,19.815556,2026-03-16 21:58:54.245603,9.96,8.77,9.96,9.96,1017,73,2.51,242,99,0.0,Clouds,overcast clouds,21
Jászfényszaru,47.593056,19.754444,2026-03-16 21:58:55.443315,4.67,2.22,4.67,4.67,1018,66,2.86,276,100,0.0,Clouds,overcast clouds,21
Pusztamonostor,47.564444,19.794167,2026-03-16 21:58:56.639758,6.61,4.35,6.61,6.61,1018,66,3.13,273,100,0.0,Clouds,overcast clouds,21
Jászberény,47.494444,19.893333,2026-03-16 21:58:57.845117,6.71,4.06,6.71,6.71,1018,65,3.82,273,100,0.0,Clouds,overcast clouds,21
Meggyespele,47.441944,19.938889,2026-03-16 21:58:59.042431,6.73,3.74,6.73,6.73,1018,66,4.49,280,100,0.0,Clouds,overcast clouds,21
Portelek,47.418056,19.958889,2026-03-16 21:59:00.250428,6.75,3.77,6.75,6.75,1018,66,4.48,282,100,0.0,Clouds,overcast clouds,21
Jászboldogháza-Jánoshida,47.366944,20.001389,2026-03-16 21:59:01.455666,6.74,3.74,6.74,6.74,1018,66,4.51,288,100,0.0,Clouds,overcast clouds,21
Jászárokszállás,47.635556,19.971111,2026-03-16 21:59:02.651625,5.12,2.2,5.12,5.12,1017,67,3.68,278,100,0.0,Clouds,overcast clouds,21
Jászdózsa,47.563056,20.028056,2026-03-16 21:59:03.853549,5.14,1.86,5.14,5.14,1017,66,4.31,277,100,0.0,Clouds,overcast clouds,21
Jászapáti,47.513611,20.155,2026-03-16 21:59:05.051748,5.19,1.68,5.19,5.19,1017,66,4.79,277,100,0.0,Clouds,overcast clouds,21
Jászkisér,47.456111,20.203333,2026-03-16 21:59:06.249144,5.18,1.64,5.18,5.18,1017,65,4.83,280,100,0.0,Clouds,overcast clouds,21
Jászladány,47.373333,20.159167,2026-03-16 21:59:07.455023,6.79,3.74,6.79,10.01,1017,64,4.63,288,100,0.0,Clouds,overcast clouds,21
Szászberek,47.320556,20.090833,2026-03-16 21:59:08.658795,6.8,3.89,6.78,10.01,1017,66,4.36,292,100,0.0,Clouds,overcast clouds,21
Gyöngyöshalász,47.743056,19.932222,2026-03-16 21:59:09.866145,5.18,2.97,5.18,5.18,1017,69,2.68,290,100,0.0,Clouds,overcast clouds,21
Gyöngyös,47.783056,19.937222,2026-03-16 21:59:11.060650,4.95,2.76,4.95,4.95,1017,70,2.6,288,100,0.33,Rain,light rain,21
Erdőtelek,47.683333,20.3025,2026-03-16 21:59:12.264926,5.68,2.86,5.68,5.68,1017,70,3.71,270,100,0.0,Clouds,overcast clouds,21
Heves,47.609444,20.306111,2026-03-16 21:59:13.472754,5.52,2.44,5.52,5.52,1017,68,4.11,271,100,0.0,Clouds,overcast clouds,21
Hevesvezekény,47.562222,20.365833,2026-03-16 21:59:14.670591,5.53,2.56,5.53,5.53,1017,68,3.92,270,100,0.0,Clouds,overcast clouds,21
Tarnaszentmiklós,47.546944,20.390833,2026-03-16 21:59:15.882486,5.46,2.45,5.46,5.46,1017,67,3.95,270,100,0.0,Clouds,overcast clouds,21
Kisköre,47.495556,20.481667,2026-03-16 21:59:17.077761,5.21,2.64,5.21,5.21,1017,66,3.16,268,100,0.0,Clouds,overcast clouds,21
Abádszalók,47.455278,20.553056,2026-03-16 21:59:18.276445,5.0,2.57,5.0,5.0,1017,66,2.91,269,100,0.0,Clouds,overcast clouds,21
Kunhegyes,47.376667,20.641111,2026-03-16 21:59:19.485111,5.32,3.65,5.32,5.32,1017,66,2.09,273,100,0.0,Clouds,overcast clouds,21
Kenderes,47.254444,20.686111,2026-03-16 21:59:20.683452,5.6,4.31,5.6,5.6,1017,65,1.77,283,100,0.0,Clouds,overcast clouds,21
Maklár,47.808056,20.404722,2026-03-16 21:59:21.895909,9.57,8.14,9.57,9.57,1016,71,2.77,275,100,0.0,Clouds,overcast clouds,21
Andornaktálya,47.852203,20.402295,2026-03-16 21:59:23.091595,9.51,8.22,9.51,11.2,1016,71,2.54,281,100,0.0,Clouds,overcast clouds,21
Eger,47.891667,20.381667,2026-03-16 21:59:24.289480,9.65,8.39,9.42,11.11,1016,71,2.53,284,100,0.0,Clouds,overcast clouds,21
Egervár,47.908056,20.380556,2026-03-16 21:59:25.493655,9.47,8.23,9.24,10.93,1016,55,2.45,287,100,0.0,Clouds,overcast clouds,21
Eger-Felnémet,47.936667,20.370556,2026-03-16 21:59:26.691119,9.64,8.48,9.29,10.98,1016,55,2.38,289,100,0.0,Clouds,overcast clouds,21
Szarvaskő,47.988611,20.3325,2026-03-16 21:59:27.900133,9.67,8.57,8.88,10.57,1016,59,2.3,288,100,0.0,Clouds,overcast clouds,21
Mónosbél,48.031944,20.33,2026-03-16 21:59:29.105992,9.47,8.38,8.7,10.39,1016,59,2.25,283,100,0.0,Clouds,overcast clouds,21
Bélapátfalva,48.055556,20.340556,2026-03-16 21:59:30.303162,9.05,7.9,8.41,10.1,1016,58,2.23,278,100,0.0,Clouds,overcast clouds,21
Bélapátfalvi Cementgyár,48.058056,20.355,2026-03-16 21:59:31.521568,8.82,7.63,8.36,10.05,1016,58,2.23,278,100,0.0,Clouds,overcast clouds,21
Szilvásvárad,48.11345,20.37919,2026-03-16 21:59:32.718282,8.55,7.28,8.23,9.92,1016,57,2.27,268,100,0.0,Clouds,overcast clouds,21
Hejőkeresztúr,47.960278,20.869444,2026-03-16 21:59:33.927195,10.16,8.46,10.16,10.91,1016,47,0.52,197,100,0.0,Clouds,overcast clouds,21
Tiszaújváros,47.926111,21.030556,2026-03-16 21:59:35.129224,10.21,9.09,10.21,10.21,1016,69,1.23,185,100,0.0,Clouds,overcast clouds,21
Miskolc-Gömöri,48.106667,20.800278,2026-03-16 21:59:36.328896,10.22,8.99,9.66,10.8,1016,65,0.65,273,100,0.0,Clouds,overcast clouds,21
Sajókeresztúr,48.168008,20.774014,2026-03-16 21:59:37.530736,10.19,8.99,9.61,10.75,1016,66,1.07,266,100,0.0,Clouds,overcast clouds,21
Sajóecseg,48.186111,20.766667,2026-03-16 21:59:38.726520,10.23,9.06,9.65,10.79,1016,67,1.2,263,100,0.0,Clouds,overcast clouds,21
Sajószentpéter,48.222222,20.708056,2026-03-16 21:59:39.933861,10.16,9.01,9.55,10.69,1016,68,1.47,259,100,0.0,Clouds,overcast clouds,21
Kazincbarcika,48.264444,20.6275,2026-03-16 21:59:41.133643,10.22,9.13,9.56,10.7,1016,70,2.16,252,100,0.0,Clouds,overcast clouds,21
Sajókaza,48.272778,20.581944,2026-03-16 21:59:42.327856,10.45,9.38,9.55,10.69,1016,70,2.26,251,100,0.0,Clouds,overcast clouds,21
Vadna,48.276389,20.555278,2026-03-16 21:59:43.523791,10.37,9.29,9.53,10.67,1016,70,2.26,251,100,0.0,Clouds,overcast clouds,21
Dubicsány,48.280833,20.504722,2026-03-16 21:59:44.730989,10.32,9.26,9.52,10.65,1016,71,2.5,247,100,0.0,Clouds,overcast clouds,21
Raposka,46.851389,17.412778,2026-03-16 21:59:45.942390,8.06,4.03,8.06,8.06,1019,65,8.45,332,99,0.0,Clouds,overcast clouds,21
Ivacs,47.641944,19.273889,2026-03-16 21:59:47.141735,7.78,6.98,7.38,8.46,1018,62,1.62,283,95,0.0,Clouds,overcast clouds,21
Kisköre-Tiszahíd,47.480835,20.507698,2026-03-16 21:59:48.343114,5.15,2.61,5.15,5.15,1017,66,3.1,270,100,0.0,Clouds,overcast clouds,21
Rozsály,47.912778,22.7825,2026-03-16 21:59:49.550591,3.03,0.59,3.03,3.03,1017,64,2.48,164,100,0.0,Clouds,overcast clouds,21
Pusztakettős,47.453611,20.749722,2026-03-16 21:59:50.773917,5.56,3.96,5.56,5.56,1017,67,2.06,264,100,0.0,Clouds,overcast clouds,21
Kisvác,47.795278,19.113611,2026-03-16 21:59:51.980358,7.72,6.46,7.72,8.12,1018,69,2.08,283,97,0.0,Clouds,overcast clouds,21
Tiszafüred-Gyártelep,47.6075,20.736111,2026-03-16 21:59:53.186138,5.89,4.12,5.89,5.89,1017,69,2.3,251,100,0.0,Clouds,overcast clouds,21
Újkenéz,48.251111,22.221667,2026-03-16 21:59:54.387334,6.36,4.22,6.36,6.36,1017,62,2.88,166,100,0.0,Clouds,overcast clouds,21
Püspökladány-Vásártér,47.319167,21.096111,2026-03-16 21:59:55.587141,6.1,3.62,6.1,6.1,1017,68,3.31,275,100,0.0,Clouds,overcast clouds,21
Végegyháza alsó,46.3675,20.866944,2026-03-16 21:59:56.788692,8.94,7.63,8.94,8.94,1018,61,2.42,261,99,0.0,Clouds,overcast clouds,21
Orosháza felső,46.553611,20.655278,2026-03-16 21:59:57.994479,5.92,4.97,5.92,5.92,1018,65,1.52,329,100,0.0,Clouds,overcast clouds,21
Ambrózfalva,46.353056,20.740556,2026-03-16 21:59:59.192592,6.04,4.75,6.04,6.04,1018,61,1.83,264,100,0.0,Clouds,overcast clouds,21
Alsónyék,46.199444,18.738056,2026-03-16 22:00:00.437498,11.93,10.69,11.93,11.93,1019,58,2.51,338,100,0.0,Clouds,overcast clouds,21
Tompapuszta,46.321389,20.966389,2026-03-16 22:00:01.643549,8.93,7.28,8.93,11.19,1018,100,2.92,254,99,0.0,Clouds,overcast clouds,21
Halászlak,46.911879,20.56228,2026-03-16 22:00:02.850727,5.72,4.22,5.72,5.72,1018,67,1.99,294,100,0.0,Clouds,overcast clouds,21
Sirató,46.840556,20.61,2026-03-16 22:00:04.317710,5.79,3.74,5.79,5.79,1018,68,2.62,307,100,0.0,Clouds,overcast clouds,21
Csabacsűd felső,46.829167,20.649167,2026-03-16 22:00:05.538853,5.8,3.65,5.8,5.8,1018,68,2.75,310,100,0.0,Clouds,overcast clouds,21
Orosháza-Üveggyár,46.579979,20.683644,2026-03-16 22:00:06.752453,5.9,4.94,5.9,5.9,1018,65,1.53,327,100,0.0,Clouds,overcast clouds,21
Gyulai városerdő,46.69482,21.32281,2026-03-16 22:00:07.947904,7.19,5.49,7.19,7.19,1018,69,2.5,252,100,0.0,Clouds,overcast clouds,21
Kórógyszentgyörgy,46.564377,20.224998,2026-03-16 22:00:09.371587,12.23,10.79,12.23,12.23,1018,49,2.29,298,100,0.0,Clouds,overcast clouds,21
Kunszállás,46.784444,19.767222,2026-03-16 22:00:10.576004,9.1,7.38,8.83,10.04,1018,72,3.09,300,0,0.0,Clear,clear sky,21
Selymes,46.655321,19.8534,2026-03-16 22:00:11.779719,8.89,8.89,8.89,9.44,1018,72,1.25,320,100,0.75,Rain,light rain,21
Petőfiszállási tanyák,46.587805,19.874509,2026-03-16 22:00:12.999010,9.2,8.91,8.9,9.48,1018,72,1.35,326,100,0.0,Clouds,overcast clouds,21
Kisteleki szőlők,46.514199,19.92868,2026-03-16 22:00:14.293774,8.89,8.09,8.89,9.47,1018,68,1.79,325,100,0.0,Clouds,overcast clouds,21
Kapitányság,46.435336,19.987564,2026-03-16 22:00:15.489574,8.91,7.61,8.91,8.91,1018,43,2.39,326,100,0.0,Clouds,overcast clouds,21
Őszeszék,46.39025,20.016017,2026-03-16 22:00:16.704422,8.94,7.42,8.94,8.94,1018,43,2.72,331,100,0.0,Clouds,overcast clouds,21
Vilmaszállás,46.366389,20.030833,2026-03-16 22:00:17.909905,8.92,8.12,8.92,8.92,1018,43,1.79,193,100,0.0,Clouds,overcast clouds,21
Jánosszállás,46.334359,20.051199,2026-03-16 22:00:19.114446,8.95,7.31,8.95,8.95,1018,43,2.9,337,100,0.0,Clouds,overcast clouds,21
Felsőpakony,47.343056,19.230556,2026-03-16 22:00:20.321922,8.28,7.12,7.64,8.86,1018,61,2.08,253,88,0.0,Clouds,overcast clouds,21
Felsőméntelek,46.987074,19.557745,2026-03-16 22:00:21.528196,9.36,7.69,9.36,9.88,1018,55,3.09,300,0,0.0,Clear,clear sky,21
Alsóméntelek,46.961558,19.579121,2026-03-16 22:00:22.744998,9.39,7.73,9.39,9.91,1018,55,3.09,300,0,0.0,Clear,clear sky,21
Nagynyír,46.943319,19.585447,2026-03-16 22:00:23.940857,9.39,7.73,9.39,9.9,1018,55,3.09,300,0,0.0,Clear,clear sky,21
Úrihegy,46.917778,19.621389,2026-03-16 22:00:25.145270,9.63,8.02,8.71,9.93,1018,53,3.09,300,0,0.0,Clear,clear sky,21
Miklóstelep,46.913412,19.630913,2026-03-16 22:00:26.361996,9.64,8.03,8.73,9.94,1018,53,3.09,300,0,0.0,Clear,clear sky,21
Tiszajenő alsó,47.016944,20.134444,2026-03-16 22:00:27.566256,8.34,6.17,8.34,10.02,1018,66,3.6,320,100,0.37,Rain,light rain,21
Óbög,46.987222,20.111111,2026-03-16 22:00:28.772875,8.84,6.78,8.32,10.17,1018,61,3.6,320,100,0.0,Clouds,overcast clouds,21
Árpádszállás,46.866456,19.989163,2026-03-16 22:00:29.978986,9.52,7.88,8.25,10.1,1018,64,3.09,300,0,0.1,Clear,clear sky,21
Tőserdő,46.851111,19.980278,2026-03-16 22:00:31.181863,9.48,7.83,8.27,10.12,1018,65,3.09,300,0,0.6,Rain,light rain,21
Tiszaalpár felső,46.836256,19.976753,2026-03-16 22:00:32.375106,9.32,7.64,8.93,10.14,1018,67,3.09,300,0,1.37,Rain,moderate rain,21
Borsihalom,46.773056,19.92,2026-03-16 22:00:33.580107,9.2,9.2,8.92,10.13,1018,72,1.31,297,100,2.3,Rain,moderate rain,21
Petőfiváros,46.725556,19.848611,2026-03-16 22:00:34.780013,9.16,8.8,8.88,10.1,1018,72,1.4,306,100,0.22,Rain,light rain,21
Csorna,47.601944,17.248889,2026-03-16 22:00:35.977936,6.67,3.09,6.67,6.67,1020,72,5.8,304,99,0.0,Clouds,overcast clouds,21
Szorgalmatos,47.986667,21.366389,2026-03-16 22:00:37.180925,11.53,9.94,11.53,11.53,1016,46,1.71,217,100,0.0,Clouds,overcast clouds,21
Fótfürdő,47.6225,19.200556,2026-03-16 22:00:38.373961,7.7,6.97,7.25,8.46,1018,60,1.55,287,96,0.0,Clouds,overcast clouds,21
Fenyveshegy,47.818333,19.068056,2026-03-16 22:00:39.586584,7.79,6.58,7.79,7.79,1018,69,2.04,285,98,0.0,Clouds,overcast clouds,21
Hűvösvölgy,47.541202,18.96351,2026-03-16 22:00:40.787345,7.25,6.19,6.25,8.0,1018,60,1.79,260,94,0.0,Clouds,overcast clouds,21
Hárshegy,47.535318,18.961433,2026-03-16 22:00:41.974559,7.25,6.19,6.25,8.0,1018,60,1.79,260,94,0.0,Clouds,overcast clouds,21
Szépjuhászné,47.528277,18.955246,2026-03-16 22:00:43.178055,6.34,5.14,5.36,7.11,1018,60,1.79,260,94,0.0,Clouds,overcast clouds,21
Jánoshegy,47.51433,18.95047,2026-03-16 22:00:44.382930,6.24,5.57,5.27,7.02,1018,60,1.34,271,94,0.0,Clouds,overcast clouds,21
Virágvölgy,47.505965,18.95876,2026-03-16 22:00:45.581371,5.95,5.24,4.96,6.71,1018,60,1.34,271,93,0.0,Clouds,overcast clouds,21
Csillebérc,47.498196,18.961694,2026-03-16 22:00:46.785297,5.71,4.97,4.72,6.48,1018,60,1.34,271,93,0.0,Clouds,overcast clouds,21
Normafa,47.5,18.970558,2026-03-16 22:00:47.991600,5.79,4.51,4.77,6.53,1018,60,1.79,260,93,0.0,Clouds,overcast clouds,21
Széchenyihegy,47.49413,18.977049,2026-03-16 22:00:49.196934,5.82,5.09,4.79,6.55,1018,60,1.34,271,93,0.0,Clouds,overcast clouds,21
Balatonfőkajár felső,47.031389,18.215278,2026-03-16 22:00:50.388944,7.4,5.1,7.4,10.18,1019,64,3.47,319,100,0.0,Clouds,overcast clouds,21
Piroska,47.148333,20.129722,2026-03-16 22:00:51.598782,7.23,7.23,6.79,7.23,1017,72,0.89,203,100,0.0,Clouds,overcast clouds,21
Somodor,46.4725,17.836667,2026-03-16 22:00:52.803004,6.41,3.76,6.41,6.41,1019,54,3.7,343,99,0.0,Clouds,overcast clouds,21
Középmező,45.995833,18.668889,2026-03-16 22:00:53.997634,11.92,10.47,9.5,11.92,1019,50,3.36,19,100,0.0,Clouds,overcast clouds,21
Jobbágyi,47.828889,19.6875,2026-03-16 22:00:55.218799,4.89,3.27,4.89,4.89,1018,69,1.97,302,100,0.0,Clouds,overcast clouds,21
Ferihegy,47.437222,19.223889,2026-03-16 22:00:56.412378,8.15,7.36,7.48,8.7,1018,59,1.66,261,93,0.0,Clouds,overcast clouds,21
Máriapócs,47.852778,22.019167,2026-03-16 22:00:57.615652,6.39,3.93,6.39,6.39,1017,61,3.37,193,100,0.0,Clouds,overcast clouds,21
Máriaudvar,47.751944,19.165,2026-03-16 22:00:58.823889,7.75,6.66,7.75,8.15,1018,67,1.9,286,96,0.0,Clouds,overcast clouds,21
Nagyberki,46.353333,18.004167,2026-03-16 22:01:00.017899,6.5,4.32,6.5,6.5,1019,55,2.98,341,100,1.24,Rain,moderate rain,21
Badacsonytomaj,46.804722,17.518056,2026-03-16 22:01:01.221717,6.39,1.75,6.39,6.39,1019,62,8.8,336,100,0.0,Clouds,overcast clouds,21
Badacsony,46.788611,17.506389,2026-03-16 22:01:02.418652,8.11,4.11,8.11,8.11,1019,62,8.39,335,100,0.0,Clouds,overcast clouds,21
Badacsonylábdihegy,46.793889,17.470833,2026-03-16 22:01:03.621495,8.08,4.07,8.08,8.08,1019,62,8.39,335,100,0.0,Clouds,overcast clouds,21
Badacsonytördemic-Szigliget,46.809722,17.469167,2026-03-16 22:01:04.827666,8.03,3.92,8.03,8.03,1019,63,8.72,335,100,0.0,Clouds,overcast clouds,21
Nemesgulács-Kisapáti,46.836944,17.476389,2026-03-16 22:01:06.027624,8.07,3.89,8.07,8.07,1019,63,9.03,335,99,0.0,Clouds,overcast clouds,21
Tapolca,46.877778,17.428611,2026-03-16 22:01:07.242139,7.99,3.87,7.99,7.99,1020,66,8.7,332,99,0.0,Clouds,overcast clouds,21
Uzsabánya alsó,46.898333,17.345278,2026-03-16 22:01:08.437445,7.79,3.73,7.79,7.79,1020,68,8.26,329,99,0.0,Clouds,overcast clouds,21
Uzsa,46.920278,17.331667,2026-03-16 22:01:09.641779,7.75,3.64,7.75,7.75,1020,69,8.39,329,99,0.0,Clouds,overcast clouds,21
Sümegi Bazaltbánya,46.9525,17.2925,2026-03-16 22:01:10.843620,5.96,1.38,5.96,5.96,1020,70,8.13,328,99,0.0,Clouds,overcast clouds,21
Sümeg,46.981111,17.270833,2026-03-16 22:01:12.040829,6.09,1.74,6.09,6.09,1020,72,7.53,323,99,0.0,Clouds,overcast clouds,21
Gógánfa,47.021111,17.207778,2026-03-16 22:01:13.259760,6.0,1.67,6.0,6.0,1020,74,7.37,321,99,0.0,Clouds,overcast clouds,21
Ukk,47.041944,17.195833,2026-03-16 22:01:14.453890,6.03,1.77,6.03,6.03,1020,75,7.19,319,99,0.0,Clouds,overcast clouds,21
Nemeskeresztúr,47.093611,17.183611,2026-03-16 22:01:15.664816,5.9,1.56,5.9,5.9,1020,75,7.32,320,100,0.0,Clouds,overcast clouds,21
Jánosháza,47.115833,17.171667,2026-03-16 22:01:16.869503,5.94,1.6,5.94,5.94,1020,75,7.36,320,100,0.0,Clouds,overcast clouds,21
Keszthely,46.758333,17.248056,2026-03-16 22:01:18.072196,8.08,6.15,8.08,8.08,1020,71,3.09,310,0,0.0,Clear,clear sky,21
Alsógyenes,46.765844,17.276435,2026-03-16 22:01:19.277153,8.08,6.15,8.08,8.08,1020,71,3.09,310,0,0.0,Clear,clear sky,21
Gyenesdiás,46.763333,17.292778,2026-03-16 22:01:20.482147,8.08,6.15,8.08,8.08,1020,71,3.09,310,0,0.0,Clear,clear sky,21
Vonyarcvashegy,46.755278,17.318333,2026-03-16 22:01:21.693210,8.09,6.16,8.09,8.09,1020,71,3.09,310,0,0.0,Clear,clear sky,21
Balatongyörök,46.751944,17.354444,2026-03-16 22:01:22.937858,8.11,6.19,8.11,8.11,1019,71,3.09,310,0,0.0,Clear,clear sky,21
Becehegy,46.776111,17.372778,2026-03-16 22:01:24.297780,8.08,6.15,8.08,8.08,1019,71,3.09,310,0,0.0,Clear,clear sky,21
Balatonederics,46.8025,17.385,2026-03-16 22:01:25.962678,8.03,4.14,8.03,8.03,1020,65,7.91,331,100,0.0,Clouds,overcast clouds,21
Dabronc,47.025766,17.167006,2026-03-16 22:01:27.491682,6.05,1.83,6.05,6.05,1020,74,7.1,319,99,0.0,Clouds,overcast clouds,21
Türje,46.994444,17.093611,2026-03-16 22:01:28.716595,6.07,2.06,6.07,6.07,1020,76,6.5,315,100,0.0,Clouds,overcast clouds,21
Zalabér-Batyk,46.983056,17.040833,2026-03-16 22:01:30.140630,6.2,2.5,6.2,6.2,1020,77,5.79,309,100,0.0,Clouds,overcast clouds,21
Pakod,46.959167,16.996667,2026-03-16 22:01:32.619626,6.09,2.42,6.09,6.09,1020,78,5.66,307,100,0.0,Clouds,overcast clouds,21
Pókaszepetk,46.924444,16.972222,2026-03-16 22:01:33.819699,6.26,2.76,6.26,6.26,1020,77,5.35,306,100,0.0,Clouds,overcast clouds,21
Kemendollár,46.905833,16.946667,2026-03-16 22:01:35.023399,7.91,4.89,7.91,7.91,1020,78,5.2,305,100,0.0,Clouds,overcast clouds,21
Zalaegerszeg,46.833056,16.848333,2026-03-16 22:01:36.227427,7.73,5.15,7.73,7.73,1021,81,4.12,303,100,0.0,Clouds,overcast clouds,21
Bocfölde,46.780278,16.853611,2026-03-16 22:01:37.431567,7.79,5.31,7.79,7.79,1020,80,3.96,304,100,0.0,Clouds,overcast clouds,21
Sárhida,46.755833,16.851389,2026-03-16 22:01:38.628578,7.75,5.44,7.75,7.75,1020,81,3.62,305,100,0.0,Clouds,overcast clouds,21
Bak,46.7325,16.849167,2026-03-16 22:01:39.829578,7.77,5.55,7.77,7.77,1020,81,3.46,306,100,0.0,Clouds,overcast clouds,21
Tófej,46.670833,16.801944,2026-03-16 22:01:41.041608,7.61,5.69,7.61,7.61,1020,81,2.92,312,100,0.0,Clouds,overcast clouds,21
Gutorfölde,46.646944,16.739722,2026-03-16 22:01:42.259147,5.92,4.03,5.92,5.92,1020,82,2.45,327,100,0.0,Clouds,overcast clouds,21
Csömödér-Páka,46.608056,16.641111,2026-03-16 22:01:43.473771,7.96,6.48,6.68,7.96,1020,83,2.4,359,100,0.0,Clouds,overcast clouds,21
Iklódbördőce,46.603056,16.604722,2026-03-16 22:01:44.668382,7.96,6.34,6.67,7.96,1020,85,2.59,7,100,0.0,Clouds,overcast clouds,21
Lenti,46.621389,16.528611,2026-03-16 22:01:45.862734,7.9,6.2,6.62,7.9,1020,86,2.69,7,100,0.0,Clouds,overcast clouds,21
Rédics,46.618056,16.471111,2026-03-16 22:01:47.063038,7.9,6.12,6.61,7.9,1020,86,2.8,8,100,0.23,Rain,light rain,21
Zalalövő,46.845556,16.576389,2026-03-16 22:01:48.275757,5.79,3.25,5.79,5.79,1021,86,3.3,333,100,0.0,Clouds,overcast clouds,21
Zalaegerszeg-Ola,46.849167,16.844722,2026-03-16 22:01:49.480458,6.05,3.08,6.05,6.05,1021,81,4.12,303,100,0.0,Clouds,overcast clouds,21
Andráshida,46.863116,16.7792,2026-03-16 22:01:50.678131,5.97,2.96,5.97,5.97,1021,82,4.16,304,100,0.0,Clouds,overcast clouds,21
Bagod,46.875,16.746111,2026-03-16 22:01:51.877094,6.05,3.17,6.05,6.05,1021,83,3.96,308,100,0.0,Clouds,overcast clouds,21
Zalaszentgyörgy,46.872222,16.7125,2026-03-16 22:01:53.083720,5.99,3.15,5.99,5.99,1021,84,3.86,311,100,0.0,Clouds,overcast clouds,21
Zalacséb-Salomvár,46.858056,16.662222,2026-03-16 22:01:54.285653,5.74,2.9,5.74,5.74,1021,85,3.77,314,100,0.0,Clouds,overcast clouds,21
Kópháza,47.631389,16.6375,2026-03-16 22:01:55.499843,6.22,3.26,5.77,6.22,1020,73,4.18,298,100,0.0,Clouds,overcast clouds,21
Nagycenk,47.601111,16.690278,2026-03-16 22:01:56.695542,6.33,3.84,5.88,6.33,1020,73,3.4,289,100,0.0,Clouds,overcast clouds,21
Sopronkövesd,47.548333,16.748056,2026-03-16 22:01:57.893970,5.71,3.58,5.71,6.16,1020,82,2.7,266,100,0.0,Clouds,overcast clouds,21
Lövő,47.509444,16.7775,2026-03-16 22:01:59.102365,5.75,3.44,5.75,6.2,1020,82,2.96,265,100,0.0,Clouds,overcast clouds,21
Újkér,47.457778,16.786667,2026-03-16 22:02:00.323924,5.77,3.56,5.77,5.77,1020,82,2.82,265,100,0.0,Clouds,overcast clouds,21
Bük,47.388611,16.752222,2026-03-16 22:02:01.529204,5.83,3.57,5.83,5.83,1020,82,2.9,281,100,0.0,Clouds,overcast clouds,21
Acsád,47.308333,16.734722,2026-03-16 22:02:02.732465,5.58,2.32,5.58,5.58,1020,82,4.47,302,100,0.0,Clouds,overcast clouds,21
Salköveskút-Vassurány,47.291389,16.704167,2026-03-16 22:02:03.929106,5.59,2.03,5.59,5.59,1020,82,5.1,305,100,0.0,Clouds,overcast clouds,21
Zalaszentiván,46.8875,16.909444,2026-03-16 22:02:05.146920,7.89,5.06,7.89,7.89,1021,80,4.75,302,100,0.0,Clouds,overcast clouds,21
Alsónemesapáti,46.854167,16.936389,2026-03-16 22:02:06.349797,7.88,4.98,7.88,7.88,1020,78,4.91,305,100,0.0,Clouds,overcast clouds,21
Józsa,47.600833,21.584444,2026-03-16 22:02:07.575474,5.86,4.88,5.86,5.86,1017,61,1.54,150,0,0.0,Clear,clear sky,21
Hajdúszentgyörgy,47.608056,21.578333,2026-03-16 22:02:08.772818,5.83,4.84,5.83,5.83,1017,61,1.54,150,0,0.0,Clear,clear sky,21
Zelemér,47.627778,21.578333,2026-03-16 22:02:09.970569,5.78,4.79,5.78,5.78,1017,61,1.54,150,0,0.0,Clear,clear sky,21
Hajdúböszörmény,47.668056,21.524167,2026-03-16 22:02:11.179821,5.81,3.61,5.81,5.81,1017,61,2.82,221,100,0.0,Clouds,overcast clouds,21
Hajdúvid,47.749444,21.508056,2026-03-16 22:02:12.386210,6.52,4.52,6.52,6.52,1017,63,2.74,222,100,0.0,Clouds,overcast clouds,21
Hajdúdorog,47.805556,21.493056,2026-03-16 22:02:13.587560,6.56,4.66,6.56,6.56,1017,63,2.61,220,100,0.0,Clouds,overcast clouds,21
Hajdúnánás,47.831944,21.426667,2026-03-16 22:02:14.789214,6.7,4.87,6.7,6.7,1016,65,2.55,222,100,0.0,Clouds,overcast clouds,21
Hajdúnánás-Vásártér,47.843056,21.407222,2026-03-16 22:02:15.984278,6.7,4.87,6.7,6.7,1016,65,2.55,222,100,0.0,Clouds,overcast clouds,21
Tedej,47.903611,21.404444,2026-03-16 22:02:17.189043,11.54,10.47,11.54,11.54,1016,66,2.18,217,100,0.0,Clouds,overcast clouds,21
Tiszavasvári,47.945278,21.374722,2026-03-16 22:02:18.392880,11.54,9.95,11.54,11.54,1016,46,2.01,217,100,0.0,Clouds,overcast clouds,21
Egyházerdő,47.9725,21.365,2026-03-16 22:02:19.595201,11.56,9.97,11.56,11.56,1016,46,1.86,217,100,0.0,Clouds,overcast clouds,21
Tiszalök,48.013056,21.369167,2026-03-16 22:02:20.789089,11.53,9.94,11.53,11.53,1016,46,1.56,219,100,0.0,Clouds,overcast clouds,21
Hajnalos,47.998889,21.414167,2026-03-16 22:02:21.983431,11.54,9.95,11.54,11.54,1016,46,1.77,216,100,0.0,Clouds,overcast clouds,21
Kisfástanya,47.989167,21.47,2026-03-16 22:02:23.204510,11.51,9.92,11.51,11.51,1016,46,1.82,214,100,0.0,Clouds,overcast clouds,21
Tiszaeszlár,48.010556,21.491944,2026-03-16 22:02:24.523830,11.52,9.93,11.52,11.52,1016,46,1.81,213,100,0.0,Clouds,overcast clouds,21
Bashalom,48.026111,21.514722,2026-03-16 22:02:25.762583,11.49,9.9,11.49,11.49,1016,46,1.73,215,100,0.0,Clouds,overcast clouds,21
Sáránd,47.415556,21.625,2026-03-16 22:02:27.018545,6.01,5.05,6.01,6.01,1017,61,1.54,150,0,0.0,Clear,clear sky,21
Derecske,47.365,21.584167,2026-03-16 22:02:28.219466,6.08,5.13,6.08,6.08,1017,61,1.54,150,0,0.0,Clear,clear sky,21
Derecske-Vásártér,47.352222,21.58,2026-03-16 22:02:29.446693,6.08,5.13,6.08,6.08,1017,61,1.54,150,0,0.0,Clear,clear sky,21
Konyár,47.323611,21.666111,2026-03-16 22:02:30.648022,6.05,5.09,6.05,6.05,1017,61,1.54,150,0,0.0,Clear,clear sky,21
Konyári Sóstófürdő,47.324167,21.744444,2026-03-16 22:02:31.887012,6.06,3.74,6.06,6.06,1017,60,3.06,203,100,0.0,Clouds,overcast clouds,21
Pocsaj-Esztár,47.288333,21.793056,2026-03-16 22:02:33.098343,6.05,3.82,6.05,6.35,1017,61,2.92,208,100,0.0,Clouds,overcast clouds,21
Kismarja,47.243889,21.813889,2026-03-16 22:02:34.306736,6.35,4.21,6.24,6.35,1017,61,2.88,212,100,0.0,Clouds,overcast clouds,21
Nagykereki,47.191667,21.8,2026-03-16 22:02:35.509618,6.34,4.23,6.23,6.34,1017,66,2.84,215,100,0.0,Clouds,overcast clouds,21
Debrecen-Szabadságtelep,47.527778,21.658611,2026-03-16 22:02:36.711967,5.89,4.91,5.89,5.89,1017,61,1.54,150,0,0.0,Clear,clear sky,21
Kondoroskert,47.525556,21.713889,2026-03-16 22:02:37.914061,5.92,4.95,5.92,5.92,1017,61,1.54,150,0,0.0,Clear,clear sky,21
Nagycsere,47.523889,21.763056,2026-03-16 22:02:39.109907,5.9,4.92,5.9,5.9,1017,61,1.54,150,0,0.0,Clear,clear sky,21
Haláp,47.521667,21.818333,2026-03-16 22:02:40.304359,5.9,4.92,5.9,5.9,1017,61,1.54,150,0,0.0,Clear,clear sky,21
Vámospércs,47.518056,21.893889,2026-03-16 22:02:41.506532,5.84,3.47,5.84,5.84,1017,60,3.06,197,100,0.0,Clouds,overcast clouds,21
Szentannapuszta,47.52,21.965833,2026-03-16 22:02:42.713892,5.79,3.49,5.79,5.79,1017,61,2.95,203,100,0.0,Clouds,overcast clouds,21
Nyírábrány,47.523889,22.016944,2026-03-16 22:02:43.927305,6.29,4.12,6.29,6.29,1017,61,2.91,207,100,0.0,Clouds,overcast clouds,21
Dombostanya,47.602778,21.706389,2026-03-16 22:02:45.124694,5.82,4.83,5.82,5.82,1017,61,1.54,150,0,0.0,Clear,clear sky,21
Hajdúsámson,47.608056,21.755278,2026-03-16 22:02:46.320677,5.82,4.83,5.82,5.82,1017,61,1.54,150,0,0.0,Clear,clear sky,21
Tamásipuszta,47.632778,21.796111,2026-03-16 22:02:47.524581,5.77,3.25,5.77,5.77,1017,60,3.26,190,100,0.0,Clouds,overcast clouds,21
Aradványpuszta,47.662778,21.8425,2026-03-16 22:02:48.728047,5.72,3.17,5.72,5.72,1017,60,3.29,190,100,0.0,Clouds,overcast clouds,21
Nyíradony,47.699444,21.903333,2026-03-16 22:02:49.935709,6.24,3.79,6.24,6.24,1017,61,3.31,191,100,0.0,Clouds,overcast clouds,21
Nyírmihálydi,47.7375,21.958889,2026-03-16 22:02:51.133719,6.26,3.8,6.26,6.26,1017,61,3.33,192,100,0.0,Clouds,overcast clouds,21
Nyírgelse,47.750833,21.987778,2026-03-16 22:02:52.331214,6.24,3.78,6.24,6.24,1017,61,3.33,193,100,0.0,Clouds,overcast clouds,21
Nyírbogát,47.793056,22.066389,2026-03-16 22:02:53.535913,6.37,3.93,6.37,6.37,1017,61,3.34,196,100,0.0,Clouds,overcast clouds,21
Nagykálló,47.871111,21.825833,2026-03-16 22:02:54.741509,6.45,4.22,6.45,6.45,1017,61,3.04,194,100,0.0,Clouds,overcast clouds,21
Kállósemjén,47.854722,21.935,2026-03-16 22:02:55.946936,6.42,4.02,6.42,6.42,1017,60,3.29,191,100,0.0,Clouds,overcast clouds,21
Nyírbátor,47.8425,22.131111,2026-03-16 22:02:57.144398,6.35,3.9,6.35,6.35,1017,61,3.34,197,100,0.0,Clouds,overcast clouds,21
Nyírcsászári,47.865556,22.179167,2026-03-16 22:02:58.337641,6.44,4.04,6.44,6.44,1017,62,3.29,198,100,0.0,Clouds,overcast clouds,21
Hodász,47.896111,22.213611,2026-03-16 22:02:59.541741,6.43,4.09,6.43,6.43,1017,62,3.2,199,100,0.0,Clouds,overcast clouds,21
Nyírmeggyes,47.9225,22.256667,2026-03-16 22:03:00.744454,6.51,4.23,6.51,6.51,1017,62,3.13,197,100,0.0,Clouds,overcast clouds,21
Mátészalka,47.951389,22.313333,2026-03-16 22:03:01.947716,6.57,4.35,6.57,6.57,1017,63,3.06,196,100,0.0,Clouds,overcast clouds,21
Kocsord,47.941944,22.375833,2026-03-16 22:03:03.161774,6.75,4.73,6.75,6.75,1017,63,2.83,200,100,0.0,Clouds,overcast clouds,21
Kocsord alsó,47.946389,22.400556,2026-03-16 22:03:04.355606,6.75,4.73,6.75,6.75,1017,63,2.83,200,100,0.0,Clouds,overcast clouds,21
Győrtelek,47.936667,22.424722,2026-03-16 22:03:05.559932,6.79,4.83,6.79,6.79,1017,63,2.75,200,100,0.0,Clouds,overcast clouds,21
Győrtelek alsó,47.921111,22.443333,2026-03-16 22:03:06.765611,6.81,4.9,6.81,6.81,1017,63,2.69,202,100,0.0,Clouds,overcast clouds,21
Ököritófülpös,47.911389,22.495,2026-03-16 22:03:07.968303,6.83,4.98,6.83,6.83,1017,63,2.62,201,100,0.0,Clouds,overcast clouds,21
Porcsalma-Tyukod,47.868056,22.568333,2026-03-16 22:03:09.160855,3.05,0.59,3.05,3.05,1017,63,2.5,196,100,0.0,Clouds,overcast clouds,21
Csenger,47.826111,22.666389,2026-03-16 22:03:10.384850,3.04,0.62,3.04,3.04,1017,64,2.46,186,100,0.0,Clouds,overcast clouds,21
Kisfái,46.888303,19.807366,2026-03-16 22:03:11.584713,10.02,8.38,8.81,10.02,1018,50,3.09,300,0,0.0,Clear,clear sky,21
Nyárlőrinci szőlők,46.8775,19.828333,2026-03-16 22:03:12.792601,10.03,8.39,8.81,10.03,1018,50,3.09,300,0,0.0,Clear,clear sky,21
Nyárlőrinc alsó,46.863889,19.878889,2026-03-16 22:03:13.995099,10.05,8.42,8.83,10.05,1018,50,3.09,300,0,0.0,Clear,clear sky,21
Tiszaug-Tiszahídfő,46.866106,20.052098,2026-03-16 22:03:15.188818,9.27,9.27,8.99,10.2,1018,67,1.27,285,100,0.23,Rain,light rain,21
Csongrádi úti tanyák,46.690278,19.921667,2026-03-16 22:03:16.384629,9.22,9.22,8.94,10.16,1018,72,1.16,305,100,1.0,Rain,light rain,21
Kettőshalom,46.689167,20.0225,2026-03-16 22:03:17.584829,9.52,9.52,8.97,9.52,1018,72,1.27,291,100,0.0,Clouds,overcast clouds,21
Csongrád alsó,46.711389,20.126389,2026-03-16 22:03:18.798283,9.52,9.2,8.97,9.52,1018,69,1.41,273,100,0.0,Clouds,overcast clouds,21
Dónát,46.66988,20.368168,2026-03-16 22:03:19.998651,12.24,10.8,12.24,12.24,1018,49,2.24,15,100,0.0,Clouds,overcast clouds,21
Pusztatemplom,46.676667,20.407222,2026-03-16 22:03:21.196781,12.23,10.79,12.23,12.23,1018,49,2.24,15,100,0.0,Clouds,overcast clouds,21
Előhát,47.364722,20.653611,2026-03-16 22:03:22.390465,8.89,7.88,8.89,8.89,1017,55,2.02,275,100,0.0,Clouds,overcast clouds,21
Polgárdi-Tekerespuszta,47.017778,18.297778,2026-03-16 22:03:23.600117,7.62,5.94,7.62,7.62,1019,62,2.58,312,100,0.0,Clouds,overcast clouds,21
Szatina-Kishajmás,46.202778,18.083611,2026-03-16 22:03:24.804057,9.25,7.21,9.25,9.25,1019,57,3.73,9,100,2.35,Rain,moderate rain,21
Márok,45.886944,18.499167,2026-03-16 22:03:26.005456,8.99,8.68,8.72,11.14,1019,64,1.34,334,98,0.0,Clouds,overcast clouds,21
Nagynyárád,45.953333,18.564722,2026-03-16 22:03:27.201150,10.05,8.68,8.79,11.21,1019,60,3.67,21,100,0.0,Clouds,overcast clouds,21
Szászvár,46.2875,18.369722222222222,2026-03-16 22:03:28.396702,10.8,9.61,10.8,10.8,1019,64,1.81,5,100,1.54,Rain,moderate rain,21
Cikó,46.263514,18.557605,2026-03-16 22:03:29.600471,11.12,9.91,11.12,11.12,1019,62,2.3,342,100,1.85,Rain,moderate rain,21
Gyöngyfa-Magyarmecske,45.983889,17.958889,2026-03-16 22:03:30.810525,9.57,6.95,9.57,9.57,1019,58,5.28,28,99,0.6,Rain,light rain,21
Nagyhát,47.581389,21.445,2026-03-16 22:03:32.013653,5.92,4.95,5.92,5.92,1016,61,1.54,150,0,0.0,Clear,clear sky,21
Balmazújváros,47.613889,21.348056,2026-03-16 22:03:33.209177,6.1,3.73,6.1,6.1,1016,65,3.14,245,100,0.0,Clouds,overcast clouds,21
Kónya,47.600833,21.2375,2026-03-16 22:03:34.414592,6.55,4.24,6.55,6.55,1016,66,3.19,249,100,0.0,Clouds,overcast clouds,21
Hortobágy,47.586111,21.154722,2026-03-16 22:03:35.618545,6.55,4.31,6.55,6.55,1016,67,3.08,246,100,0.0,Clouds,overcast clouds,21
Hortobágyi Halastó,47.604167,21.074167,2026-03-16 22:03:36.815178,6.52,4.35,6.52,6.52,1016,68,2.97,242,100,0.0,Clouds,overcast clouds,21
Ohat-Pusztakócs,47.623333,20.951111,2026-03-16 22:03:38.016853,6.5,4.57,6.5,6.5,1016,68,2.64,233,100,0.0,Clouds,overcast clouds,21
Egyek,47.616944,20.883611,2026-03-16 22:03:39.211112,8.86,7.56,8.86,8.86,1016,68,2.38,237,100,0.0,Clouds,overcast clouds,21
Tiszafüred,47.627778,20.756111,2026-03-16 22:03:40.414009,8.86,7.63,8.86,8.86,1016,68,2.29,245,100,0.0,Clouds,overcast clouds,21
