station_name,station_lat,station_lon,observation_time,temp,feels_like,temp_min,temp_max,pressure,humidity,wind_speed,wind_deg,clouds,precipitation_1h,weather_main,weather_description,collection_hour
Búcsúszentlászló,46.793056,16.932778,2026-03-11 09:53:35.098469,13.71,12.6,13.71,13.71,1022,56,3.75,212,12,0.0,Clouds,few clouds,9
Angyalföld,47.549722,19.09,2026-03-11 09:53:36.369684,13.76,12.47,13.76,13.76,1023,49,2.28,134,28,0.0,Clouds,scattered clouds,9
Felsőjánosfa,46.841389,16.544167,2026-03-11 09:53:37.633858,13.85,12.83,13.85,13.85,1021,59,3.1,208,9,0.0,Clear,clear sky,9
Pankasz,46.835833,16.496111,2026-03-11 09:53:38.900094,13.6,12.56,13.6,13.6,1021,59,3.14,207,9,0.0,Clear,clear sky,9
Nagyrákos,46.827222,16.455556,2026-03-11 09:53:40.166301,13.58,12.53,13.58,13.58,1021,59,3.16,207,9,0.0,Clear,clear sky,9
Őriszentpéter,46.828889,16.415278,2026-03-11 09:53:41.447426,13.7,12.67,13.7,13.7,1021,59,3.16,207,9,0.0,Clear,clear sky,9
Törökbálint,47.45,18.908611,2026-03-11 09:53:42.717156,13.59,12.31,13.59,13.59,1023,50,2.96,140,30,0.0,Clouds,scattered clouds,9
Bicske alsó,47.486389,18.642778,2026-03-11 09:53:43.980540,13.53,12.3,13.53,13.53,1023,52,4.42,146,25,0.0,Clouds,scattered clouds,9
Bajánsenye,46.818056,16.358056,2026-03-11 09:53:45.252359,13.83,12.81,13.83,13.83,1021,59,3.26,208,8,0.0,Clear,clear sky,9
Aquincum,47.566218,19.048273,2026-03-11 09:53:46.514761,13.33,12.0,13.33,13.33,1023,49,2.39,132,30,0.0,Clouds,scattered clouds,9
Piliscsév,47.673889,18.791389,2026-03-11 09:53:47.783099,13.3,12.02,13.3,13.3,1023,51,3.3,135,31,0.0,Clouds,scattered clouds,9
Tát,47.741201,18.64783,2026-03-11 09:53:49.057876,13.84,12.64,13.84,13.84,1023,52,3.6,143,24,0.0,Clouds,few clouds,9
Süttő felső,47.756667,18.437222,2026-03-11 09:53:50.326851,13.81,12.6,13.81,13.81,1023,52,4.4,151,15,0.0,Clouds,few clouds,9
Budatétény,47.405,19.016389,2026-03-11 09:53:51.589654,13.81,12.5,13.81,13.81,1023,48,2.62,142,29,0.0,Clouds,scattered clouds,9
Seregélyes-Szőlőhegy,47.119444,18.612222,2026-03-11 09:53:52.858690,13.66,12.39,13.66,13.66,1023,50,3.92,181,18,0.0,Clouds,few clouds,9
Gödöllő-Állami telepek,47.564444,19.375556,2026-03-11 09:53:54.129474,13.09,11.76,13.09,13.09,1023,50,2.96,134,22,0.0,Clouds,few clouds,9
Dunakeszi alsó,47.607778,19.128889,2026-03-11 09:53:55.399085,13.69,12.39,13.69,13.69,1023,49,2.4,131,28,0.0,Clouds,scattered clouds,9
Vác-Alsóváros,47.773056,19.149722,2026-03-11 09:53:56.665246,13.62,12.37,13.62,13.62,1023,51,3.15,132,28,0.0,Clouds,scattered clouds,9
Szob alsó,47.816667,18.8725,2026-03-11 09:53:57.934159,13.81,12.58,13.81,13.81,1023,51,2.76,129,32,0.0,Clouds,scattered clouds,9
Zalaszentmihály-Pacsa,46.7225,16.951944,2026-03-11 09:53:59.199800,13.71,12.6,13.71,13.71,1022,56,3.86,214,11,0.0,Clouds,few clouds,9
Pötréte,46.682778,16.9575,2026-03-11 09:54:00.466049,13.75,12.62,13.75,13.75,1022,55,4.02,216,10,0.0,Clear,clear sky,9
Felsőrajk,46.667222,16.982778,2026-03-11 09:54:01.732712,13.65,12.51,13.65,13.65,1022,55,4.22,215,11,0.0,Clouds,few clouds,9
Gelse,46.600556,16.982778,2026-03-11 09:54:03.011067,13.73,12.59,13.73,13.73,1022,55,4.66,217,11,0.0,Clouds,few clouds,9
Őrtilos,46.297778,16.887778,2026-03-11 09:54:04.276796,14.28,13.15,14.28,14.28,1021,53,6.05,219,12,0.0,Clouds,few clouds,9
Zákány,46.251944,16.9425,2026-03-11 09:54:05.555884,14.03,12.9,14.03,14.03,1022,54,6.63,220,16,0.0,Clouds,few clouds,9
Berzence,46.201389,17.143611,2026-03-11 09:54:06.828958,14.26,13.13,14.26,14.26,1022,53,6.76,221,18,0.0,Clouds,few clouds,9
Somogyudvarhely,46.163333,17.179722,2026-03-11 09:54:08.093115,14.25,13.11,14.25,14.25,1022,53,6.6,221,19,0.0,Clouds,few clouds,9
Bélavár,46.122778,17.207778,2026-03-11 09:54:09.363295,14.39,13.27,14.39,14.39,1022,53,6.2,222,19,0.0,Clouds,few clouds,9
Vízvár,46.101389,17.239444,2026-03-11 09:54:10.631541,14.33,13.18,14.33,14.33,1022,52,5.95,221,19,0.0,Clouds,few clouds,9
Babócsa,46.028359,17.342276,2026-03-11 09:54:11.899356,14.43,13.29,14.43,14.43,1022,52,5.47,221,20,0.0,Clouds,few clouds,9
Péterhida-Komlósd,46.006667,17.358056,2026-03-11 09:54:13.166325,14.53,13.37,14.53,14.53,1022,51,5.28,222,21,0.0,Clouds,few clouds,9
Barcs,45.951944,17.446944,2026-03-11 09:54:14.431052,14.66,13.49,14.66,14.66,1023,50,4.82,224,25,0.0,Clouds,scattered clouds,9
Barcs felső,45.958333,17.486389,2026-03-11 09:54:15.705640,14.57,13.39,14.57,14.57,1023,50,4.7,224,28,0.0,Clouds,scattered clouds,9
Középrigóc,45.970556,17.525,2026-03-11 09:54:16.982382,14.49,13.3,14.49,14.49,1023,50,4.56,223,32,0.0,Clouds,scattered clouds,9
Darány,45.992222,17.598611,2026-03-11 09:54:18.261495,14.43,13.26,14.43,14.43,1023,51,4.14,214,44,0.0,Clouds,scattered clouds,9
Kisdobsza,46.012222,17.668056,2026-03-11 09:54:19.542409,14.41,13.26,14.41,14.41,1023,52,3.99,205,50,0.0,Clouds,scattered clouds,9
Nemeske,46.023333,17.705278,2026-03-11 09:54:20.815010,14.43,13.29,14.43,14.43,1023,52,3.85,202,54,0.0,Clouds,broken clouds,9
Molvány,46.035278,17.748611,2026-03-11 09:54:22.079541,14.34,13.21,14.34,14.34,1023,53,3.88,197,56,0.0,Clouds,broken clouds,9
Szigetvár,46.043333,17.801944,2026-03-11 09:54:23.353028,14.31,13.18,14.31,14.31,1023,53,3.79,195,58,0.0,Clouds,broken clouds,9
Nagypeterd,46.039444,17.871667,2026-03-11 09:54:24.618745,14.3,13.17,14.3,14.3,1023,53,3.62,191,60,0.0,Clouds,broken clouds,9
Szentdénes,46.036667,17.926944,2026-03-11 09:54:25.891566,14.23,13.12,14.23,14.23,1023,54,3.53,190,60,0.0,Clouds,broken clouds,9
Háros,47.412222,19.035,2026-03-11 09:54:27.161197,13.81,12.5,13.81,13.81,1023,48,2.62,142,29,0.0,Clouds,scattered clouds,9
Nagytétény-Diósd,47.398333,18.974444,2026-03-11 09:54:28.431041,14.07,12.81,14.07,14.07,1023,49,2.76,144,29,0.0,Clouds,scattered clouds,9
Érdliget,47.390278,18.937778,2026-03-11 09:54:29.693251,13.97,12.7,13.97,13.97,1023,49,2.86,144,29,0.0,Clouds,scattered clouds,9
Érd felső,47.381111,18.922222,2026-03-11 09:54:30.959970,13.63,12.33,13.63,13.63,1023,49,2.99,144,29,0.0,Clouds,scattered clouds,9
Érd,47.369722,18.900833,2026-03-11 09:54:32.229500,13.78,12.49,13.78,13.78,1023,49,3.0,146,28,0.0,Clouds,scattered clouds,9
Százhalombatta,47.322222,18.899167,2026-03-11 09:54:33.502930,13.79,12.53,13.79,13.79,1023,50,3.03,150,27,0.0,Clouds,scattered clouds,9
Dunai Finomító,47.294444,18.878889,2026-03-11 09:54:34.786316,13.67,12.4,13.67,13.67,1023,50,3.12,154,27,0.0,Clouds,scattered clouds,9
Ercsi,47.247222,18.875278,2026-03-11 09:54:36.050133,13.79,12.53,13.79,13.79,1023,50,3.11,156,26,0.0,Clouds,scattered clouds,9
Iváncsa,47.177778,18.811944,2026-03-11 09:54:37.350752,13.72,12.45,13.72,13.72,1023,50,3.21,168,25,0.0,Clouds,scattered clouds,9
Pusztaszabolcs,47.139722,18.761667,2026-03-11 09:54:38.622516,13.76,12.47,13.76,13.76,1023,49,3.37,174,23,0.0,Clouds,few clouds,9
Szabadegyháza,47.082778,18.704167,2026-03-11 09:54:39.894012,13.7,12.43,13.7,13.7,1023,50,3.68,181,21,0.0,Clouds,few clouds,9
Sárosd,47.039722,18.660278,2026-03-11 09:54:41.165293,13.67,12.4,13.67,13.67,1023,50,3.95,185,19,0.0,Clouds,few clouds,9
Nagylók,46.979444,18.635833,2026-03-11 09:54:42.431666,13.51,12.25,13.51,13.51,1023,51,4.04,188,18,0.0,Clouds,few clouds,9
Sárbogárd,46.896944,18.611944,2026-03-11 09:54:43.704143,13.66,12.41,13.66,13.66,1023,51,4.12,192,16,0.0,Clouds,few clouds,9
Rétszilas,46.814167,18.601389,2026-03-11 09:54:44.975130,13.72,12.48,13.72,13.72,1023,51,4.02,196,15,0.0,Clouds,few clouds,9
Nagyatád,46.228611,17.354167,2026-03-11 09:54:46.240798,14.06,12.88,14.06,14.06,1022,52,6.4,220,21,0.0,Clouds,few clouds,9
Budapest-Keleti,47.500278,19.084167,2026-03-11 09:54:47.505182,13.89,12.59,13.89,13.89,1023,48,2.37,137,30,0.0,Clouds,scattered clouds,9
Ferencváros,47.468611,19.088056,2026-03-11 09:54:48.776123,14.03,12.74,14.03,14.03,1023,48,2.42,139,29,0.0,Clouds,scattered clouds,9
Budapest-Nyugati,47.510833,19.0575,2026-03-11 09:54:50.041238,13.85,12.57,13.85,13.85,1023,49,2.33,135,30,0.0,Clouds,scattered clouds,9
Kőbánya felső,47.491944,19.133889,2026-03-11 09:54:51.312215,13.79,12.48,13.79,13.79,1023,48,2.3,139,27,0.0,Clouds,scattered clouds,9
Rákos,47.488889,19.174722,2026-03-11 09:54:52.586222,13.72,12.4,13.72,13.72,1023,48,2.33,140,26,0.0,Clouds,scattered clouds,9
Rákosrendező,47.525556,19.089444,2026-03-11 09:54:53.853659,13.81,12.5,13.81,13.81,1023,48,2.27,136,28,0.0,Clouds,scattered clouds,9
Zugló,47.511389,19.101389,2026-03-11 09:54:55.123043,13.81,12.5,13.81,13.81,1023,48,2.27,136,28,0.0,Clouds,scattered clouds,9
Mezőtárkány,47.725,20.480278,2026-03-11 09:54:56.388371,13.0,11.53,13.0,13.0,1024,45,3.84,174,48,0.0,Clouds,scattered clouds,9
Istvántelek,47.550278,19.106389,2026-03-11 09:54:57.659461,13.76,12.47,13.76,13.76,1023,49,2.28,134,28,0.0,Clouds,scattered clouds,9
Rákospalota-Újpest,47.565833,19.111944,2026-03-11 09:54:58.926288,13.69,12.39,13.69,13.69,1023,49,2.31,132,28,0.0,Clouds,scattered clouds,9
Kőbánya alsó,47.483056,19.127222,2026-03-11 09:55:00.197845,13.79,12.48,13.79,13.79,1023,48,2.3,139,27,0.0,Clouds,scattered clouds,9
Kőbánya-Kispest,47.463889,19.149444,2026-03-11 09:55:01.462672,13.83,12.52,13.83,13.83,1023,48,2.33,141,27,0.0,Clouds,scattered clouds,9
Pestszentlőrinc,47.454722,19.182778,2026-03-11 09:55:02.726521,13.75,12.43,13.75,13.75,1023,48,2.4,144,26,0.0,Clouds,scattered clouds,9
Kispest,47.448135,19.157552,2026-03-11 09:55:03.995493,13.88,12.58,13.88,13.88,1023,48,2.38,143,27,0.0,Clouds,scattered clouds,9
Újpest,47.558889,19.079722,2026-03-11 09:55:05.262347,13.78,12.49,13.78,13.78,1023,49,2.32,133,30,0.0,Clouds,scattered clouds,9
Pestszentimre felső,47.413611,19.173333,2026-03-11 09:55:06.531784,13.77,12.46,13.77,13.77,1023,48,2.46,146,26,0.0,Clouds,scattered clouds,9
Dunakeszi,47.626111,19.136111,2026-03-11 09:55:07.801101,13.62,12.32,13.62,13.62,1023,49,2.49,130,28,0.0,Clouds,scattered clouds,9
Dunakeszi-Gyártelep,47.643611,19.135,2026-03-11 09:55:09.065048,13.66,12.39,13.66,13.66,1023,50,2.59,129,28,0.0,Clouds,scattered clouds,9
Alsógöd,47.676944,19.134444,2026-03-11 09:55:10.335288,13.67,12.4,13.67,13.67,1023,50,2.7,128,28,0.0,Clouds,scattered clouds,9
Göd,47.687778,19.1375,2026-03-11 09:55:11.601125,13.67,12.4,13.67,13.67,1023,50,2.7,128,28,0.0,Clouds,scattered clouds,9
Felsőgöd,47.705556,19.143333,2026-03-11 09:55:12.870840,13.73,12.46,13.73,13.73,1023,50,2.81,129,28,0.0,Clouds,scattered clouds,9
Sződ-Sződliget,47.728056,19.154722,2026-03-11 09:55:14.143892,13.75,12.51,13.75,13.75,1023,51,2.93,129,28,0.0,Clouds,scattered clouds,9
Vác,47.782778,19.133056,2026-03-11 09:55:15.416845,13.62,12.37,13.62,13.62,1023,51,3.15,132,28,0.0,Clouds,scattered clouds,9
Verőce,47.823889,19.029444,2026-03-11 09:55:16.687618,12.96,11.67,12.96,12.96,1023,52,2.93,130,31,0.0,Clouds,scattered clouds,9
Kismaros,47.8275,19.010278,2026-03-11 09:55:17.950394,12.21,10.84,12.21,12.21,1023,52,2.84,129,32,0.0,Clouds,scattered clouds,9
Nagymaros-Visegrád,47.791389,18.959167,2026-03-11 09:55:19.214772,12.62,11.27,12.62,12.62,1023,51,2.71,127,32,0.0,Clouds,scattered clouds,9
Nagymaros,47.780278,18.952222,2026-03-11 09:55:20.483386,12.62,11.27,12.62,12.62,1023,51,2.71,127,32,0.0,Clouds,scattered clouds,9
Zebegény,47.801389,18.908889,2026-03-11 09:55:21.749062,13.35,12.07,13.35,13.35,1023,51,2.72,127,32,0.0,Clouds,scattered clouds,9
Szob,47.821111,18.861944,2026-03-11 09:55:23.017420,13.25,11.96,13.25,13.25,1023,51,2.74,129,33,0.0,Clouds,scattered clouds,9
Alagimajor,47.601944,19.153889,2026-03-11 09:55:24.283086,13.69,12.39,13.69,13.69,1023,49,2.4,131,28,0.0,Clouds,scattered clouds,9
Fót,47.611389,19.181667,2026-03-11 09:55:25.563476,13.45,12.13,13.45,13.45,1023,49,2.57,130,27,0.0,Clouds,scattered clouds,9
Fótújfalu,47.615,19.192778,2026-03-11 09:55:26.833860,13.45,12.13,13.45,13.45,1023,49,2.57,130,27,0.0,Clouds,scattered clouds,9
Csomád,47.635556,19.222778,2026-03-11 09:55:28.103999,12.7,11.31,12.7,12.7,1023,49,2.67,131,26,0.0,Clouds,scattered clouds,9
Veresegyház,47.649167,19.288611,2026-03-11 09:55:29.367522,13.3,11.99,13.3,13.3,1023,50,3.16,131,24,0.0,Clouds,few clouds,9
Erdőkertes,47.662222,19.295833,2026-03-11 09:55:30.632031,13.3,11.99,13.3,13.3,1023,50,3.16,131,24,0.0,Clouds,few clouds,9
Őrbottyán,47.685833,19.283611,2026-03-11 09:55:31.902324,13.12,11.79,13.12,13.12,1023,50,3.29,130,24,0.0,Clouds,few clouds,9
Váchartyán,47.725833,19.248889,2026-03-11 09:55:33.172030,13.2,11.91,13.2,13.2,1023,51,3.42,131,26,0.0,Clouds,scattered clouds,9
Magyarkút-Verőce,47.826111,19.044444,2026-03-11 09:55:34.437839,12.96,11.67,12.96,12.96,1023,52,2.93,130,31,0.0,Clouds,scattered clouds,9
Szokolya,47.871111,19.030556,2026-03-11 09:55:35.714673,12.28,10.92,12.28,12.28,1023,52,3.07,132,32,0.0,Clouds,scattered clouds,9
Berkenye,47.885278,19.071944,2026-03-11 09:55:36.979608,12.99,11.73,12.99,12.99,1023,53,3.2,133,31,0.0,Clouds,scattered clouds,9
Nógrád,47.901944,19.0475,2026-03-11 09:55:38.252937,12.64,11.34,12.64,12.64,1023,53,3.16,132,33,0.0,Clouds,scattered clouds,9
Diósjenő,47.94,19.049444,2026-03-11 09:55:39.518056,12.27,10.94,12.27,12.27,1023,53,3.25,133,34,0.0,Clouds,scattered clouds,9
Borsosberény,47.971389,19.093056,2026-03-11 09:55:40.786676,12.98,11.72,12.98,12.98,1023,53,3.73,139,31,0.0,Clouds,scattered clouds,9
Nagyoroszi,47.993611,19.101111,2026-03-11 09:55:42.077803,12.83,11.55,12.83,12.83,1023,53,3.81,138,32,0.0,Clouds,scattered clouds,9
Drégelyvár,48.001944,19.079444,2026-03-11 09:55:43.345815,13.11,11.86,13.11,13.11,1023,53,3.67,133,35,0.0,Clouds,scattered clouds,9
Drégely,48.042222,19.056111,2026-03-11 09:55:44.613620,13.49,12.3,13.49,13.49,1023,54,3.77,132,36,0.0,Clouds,scattered clouds,9
Drégelypalánk,48.055,19.046111,2026-03-11 09:55:45.881832,13.66,12.49,13.66,13.66,1023,54,3.8,128,38,0.0,Clouds,scattered clouds,9
Ipolyvece,48.056944,19.106389,2026-03-11 09:55:47.151109,13.63,12.46,13.63,13.63,1023,54,4.0,134,35,0.0,Clouds,scattered clouds,9
Dejtár,48.045556,19.196389,2026-03-11 09:55:48.417371,13.51,12.3,13.51,13.51,1023,53,4.02,140,31,0.0,Clouds,scattered clouds,9
Ipolyszög,48.054444,19.221944,2026-03-11 09:55:49.694841,13.55,12.34,13.55,13.55,1023,53,3.99,140,32,0.0,Clouds,scattered clouds,9
Iklad-Domony,47.658056,19.444444,2026-03-11 09:55:50.960033,13.51,12.25,13.51,13.51,1023,51,3.57,129,21,0.0,Clouds,few clouds,9
Iklad-Domony felső,47.667778,19.428056,2026-03-11 09:55:52.228214,13.47,12.2,13.47,13.47,1023,51,3.65,129,22,0.0,Clouds,few clouds,9
Galgamácsa,47.693889,19.3925,2026-03-11 09:55:53.499060,13.2,11.91,13.2,13.2,1023,51,3.62,130,24,0.0,Clouds,few clouds,9
Vácrátót,47.732778,19.217778,2026-03-11 09:55:54.770357,13.45,12.18,13.45,13.45,1023,51,3.17,131,27,0.0,Clouds,scattered clouds,9
Csörög,47.735833,19.196389,2026-03-11 09:55:56.035984,13.69,12.45,13.69,13.69,1023,51,3.04,130,28,0.0,Clouds,scattered clouds,9
Galgagyörk,47.735278,19.372222,2026-03-11 09:55:57.315912,13.27,11.98,13.27,13.27,1023,51,3.72,131,24,0.0,Clouds,few clouds,9
Püspökhatvan,47.768611,19.366944,2026-03-11 09:55:58.582798,13.27,12.01,13.27,13.27,1023,52,3.84,133,24,0.0,Clouds,few clouds,9
Acsa-Erdőkürt,47.801111,19.386111,2026-03-11 09:55:59.856600,13.11,11.83,13.11,13.11,1023,52,3.88,135,25,0.0,Clouds,scattered clouds,9
Galgaguta,47.848611,19.385556,2026-03-11 09:56:01.128140,12.82,11.52,12.82,12.82,1023,52,3.86,140,25,0.0,Clouds,scattered clouds,9
Nógrádkövesd,47.879444,19.371111,2026-03-11 09:56:02.407512,12.99,11.7,12.99,12.99,1023,52,3.84,142,25,0.0,Clouds,scattered clouds,9
Magyarnándor,47.970833,19.356667,2026-03-11 09:56:03.674391,12.9,11.6,12.9,12.9,1023,52,3.82,147,27,0.0,Clouds,scattered clouds,9
Mohora,47.995556,19.347778,2026-03-11 09:56:04.949803,13.02,11.74,13.02,13.02,1023,52,3.76,147,28,0.0,Clouds,scattered clouds,9
Szügy,48.036389,19.333056,2026-03-11 09:56:06.219978,13.29,12.03,13.29,13.29,1024,52,3.58,146,30,0.0,Clouds,scattered clouds,9
Balassagyarmat,48.071111,19.293611,2026-03-11 09:56:07.483429,13.43,12.21,13.43,13.43,1024,53,3.68,143,31,0.0,Clouds,scattered clouds,9
Őrhalom,48.078773,19.403936,2026-03-11 09:56:08.749779,13.15,11.88,13.15,13.15,1024,52,2.62,140,39,0.0,Clouds,scattered clouds,9
Hugyag,48.083056,19.421111,2026-03-11 09:56:10.018459,13.15,11.88,13.15,13.15,1024,52,2.62,140,39,0.0,Clouds,scattered clouds,9
Szécsény,48.093056,19.521111,2026-03-11 09:56:11.284975,13.33,12.05,13.33,13.33,1024,51,1.92,139,43,0.0,Clouds,scattered clouds,9
Ludányhalászi,48.1325,19.529444,2026-03-11 09:56:12.556660,13.36,12.08,13.36,13.36,1024,51,1.78,125,50,0.0,Clouds,scattered clouds,9
Nógrádszakál,48.178333,19.521667,2026-03-11 09:56:13.833949,13.35,12.1,13.35,13.35,1024,52,1.79,118,53,0.0,Clouds,broken clouds,9
Ráróspuszta,48.207222,19.541389,2026-03-11 09:56:15.097260,12.87,11.57,12.87,12.87,1024,52,1.92,107,58,0.0,Clouds,broken clouds,9
Litke,48.215833,19.598611,2026-03-11 09:56:16.365379,13.34,12.09,13.34,13.34,1024,52,1.6,103,60,0.0,Clouds,broken clouds,9
Nyíregyháza külső,47.943056,21.740278,2026-03-11 09:56:17.638239,13.41,11.8,13.41,13.41,1025,38,2.5,168,24,0.0,Clouds,few clouds,9
Oros,47.945833,21.806389,2026-03-11 09:56:18.916362,13.5,11.9,13.5,13.5,1025,38,2.5,164,18,0.0,Clouds,few clouds,9
Napkor,47.948889,21.873056,2026-03-11 09:56:20.182399,13.55,11.95,13.55,13.55,1025,38,2.54,161,15,0.0,Clouds,few clouds,9
Apagy,47.953775,21.939044,2026-03-11 09:56:21.454337,13.59,12.0,13.59,13.59,1025,38,2.53,160,14,0.0,Clouds,few clouds,9
Levelek-Magy,47.948056,21.993611,2026-03-11 09:56:22.720326,13.62,12.03,13.62,13.62,1025,38,2.52,157,13,0.0,Clouds,few clouds,9
Ófehértó,47.940556,22.041389,2026-03-11 09:56:23.993419,13.6,11.98,13.6,13.6,1025,37,2.54,153,12,0.0,Clouds,few clouds,9
Ligettanya,47.951667,22.071389,2026-03-11 09:56:25.262343,13.58,11.99,13.58,13.58,1025,38,2.5,153,13,0.0,Clouds,few clouds,9
Baktalórántháza,47.988611,22.083333,2026-03-11 09:56:26.527451,13.57,11.97,13.57,13.57,1025,38,2.47,156,14,0.0,Clouds,few clouds,9
Vaja-Rohod,48.006389,22.164167,2026-03-11 09:56:27.799716,13.65,12.06,13.65,13.65,1025,38,2.47,154,13,0.0,Clouds,few clouds,9
Rákóczitanya,48.022222,22.178333,2026-03-11 09:56:29.068568,13.67,12.08,13.67,13.67,1025,38,2.5,152,12,0.0,Clouds,few clouds,9
Nyírmada,48.059167,22.203056,2026-03-11 09:56:30.339108,13.66,12.1,13.66,13.66,1025,39,2.56,156,13,0.0,Clouds,few clouds,9
Tunyogmatolcs,47.960244,22.442247,2026-03-11 09:56:31.619756,14.19,12.6,14.19,14.19,1025,36,3.08,142,12,0.0,Clouds,few clouds,9
Tunyogmatolcs alsó,47.966025,22.464713,2026-03-11 09:56:32.883661,14.21,12.63,14.21,14.21,1025,36,3.18,142,14,0.0,Clouds,few clouds,9
Fehérgyarmat,47.979167,22.524444,2026-03-11 09:56:34.154966,14.27,12.69,14.27,14.27,1025,36,3.62,142,19,0.0,Clouds,few clouds,9
Penyige,47.995278,22.566944,2026-03-11 09:56:35.420029,14.33,12.76,14.33,14.33,1025,36,3.7,142,23,0.0,Clouds,few clouds,9
Nagyszekeres,47.976111,22.6125,2026-03-11 09:56:36.690347,14.36,12.77,14.36,14.36,1025,35,3.78,142,28,0.0,Clouds,scattered clouds,9
Kisszekeres,47.965833,22.629444,2026-03-11 09:56:37.958525,14.38,12.79,14.38,14.38,1025,35,3.64,142,31,0.0,Clouds,scattered clouds,9
Jánkmajtis,47.941944,22.657222,2026-03-11 09:56:39.234247,14.43,12.84,14.43,14.43,1025,35,3.53,142,40,0.0,Clouds,scattered clouds,9
Gacsály,47.926111,22.745,2026-03-11 09:56:40.496507,14.5,12.89,14.5,14.5,1025,34,3.67,141,59,0.0,Clouds,broken clouds,9
Zajta,47.9025,22.796111,2026-03-11 09:56:41.759494,14.57,12.97,14.57,14.57,1025,34,3.66,141,75,0.0,Clouds,broken clouds,9
Eperjeske alsó,48.360556,22.19,2026-03-11 09:56:43.023980,13.68,12.17,13.68,13.68,1025,41,3.57,156,39,0.0,Clouds,scattered clouds,9
Mándok,48.326944,22.196389,2026-03-11 09:56:44.291659,13.65,12.14,13.65,13.65,1025,41,3.45,156,33,0.0,Clouds,scattered clouds,9
Tornyospálca,48.268333,22.201944,2026-03-11 09:56:45.559459,13.67,12.14,13.67,13.67,1025,40,3.29,157,28,0.0,Clouds,scattered clouds,9
Aranyosapáti,48.211303,22.253534,2026-03-11 09:56:46.830496,13.81,12.26,13.81,13.81,1025,39,3.47,156,13,0.0,Clouds,few clouds,9
Gyüre,48.171389,22.269167,2026-03-11 09:56:48.099245,13.82,12.28,13.82,13.82,1025,39,3.25,155,10,0.0,Clear,clear sky,9
Varsány,48.151722,22.290047,2026-03-11 09:56:49.366688,13.88,12.34,13.88,13.88,1025,39,3.24,153,7,0.0,Clear,clear sky,9
Vásárosnamény,48.126667,22.306111,2026-03-11 09:56:50.630769,13.9,12.34,13.9,13.9,1025,38,3.12,152,6,0.0,Clear,clear sky,9
Vitka,48.095556,22.308056,2026-03-11 09:56:51.903294,13.91,12.35,13.91,13.91,1025,38,3.01,151,6,0.0,Clear,clear sky,9
Nagydobos,48.054167,22.311111,2026-03-11 09:56:53.174065,13.86,12.29,13.86,13.86,1025,38,2.91,150,6,0.0,Clear,clear sky,9
Ópályi,47.997778,22.318333,2026-03-11 09:56:54.441929,13.91,12.35,13.91,13.91,1025,38,2.75,145,9,0.0,Clear,clear sky,9
Nyírcsaholy,47.908056,22.348333,2026-03-11 09:56:55.711835,14.09,12.49,14.09,14.09,1025,36,2.8,141,15,0.0,Clouds,few clouds,9
Nagyecsed,47.864722,22.385556,2026-03-11 09:56:56.984355,14.22,12.64,14.22,14.22,1025,36,2.85,138,24,0.0,Clouds,few clouds,9
Tiborszállás,47.815278,22.402778,2026-03-11 09:56:58.258357,14.27,12.67,14.27,14.27,1025,35,2.84,136,31,0.0,Clouds,scattered clouds,9
Kiskunhalas,46.434444,19.493611,2026-03-11 09:56:59.524894,14.47,13.17,14.47,14.47,1023,46,3.21,176,14,0.0,Clouds,few clouds,9
Kecskemét alsó,46.895833,19.692222,2026-03-11 09:57:00.792505,14.59,13.31,14.59,14.59,1024,46,3.92,168,36,0.0,Clouds,scattered clouds,9
Putnok,48.286667,20.4375,2026-03-11 09:57:02.056081,12.72,11.27,12.72,12.72,1024,47,1.19,155,73,0.0,Clouds,broken clouds,9
Bánréve,48.299722,20.351944,2026-03-11 09:57:03.321095,12.89,11.49,12.89,12.89,1024,48,1.66,165,72,0.0,Clouds,broken clouds,9
Ipolytarnóc,48.236667,19.629167,2026-03-11 09:57:04.594302,13.3,12.04,13.3,13.3,1024,52,1.64,101,62,0.0,Clouds,broken clouds,9
Rákosliget,47.486111,19.257778,2026-03-11 09:57:05.864379,13.38,12.05,13.38,13.38,1023,49,2.52,141,24,0.0,Clouds,few clouds,9
Ikrény,47.657778,17.524167,2026-03-11 09:57:07.128594,13.89,12.77,13.89,13.89,1022,55,4.52,186,12,0.0,Clouds,few clouds,9
Rábapatona,47.648889,17.461944,2026-03-11 09:57:08.401282,13.9,12.83,13.9,13.9,1021,57,4.58,187,12,0.0,Clouds,few clouds,9
Enese,47.644167,17.425278,2026-03-11 09:57:09.673151,13.91,12.84,13.91,13.91,1021,57,4.46,187,12,0.0,Clouds,few clouds,9
Kóny,47.632222,17.357222,2026-03-11 09:57:10.936033,13.88,12.84,13.88,13.88,1021,58,4.41,187,12,0.0,Clouds,few clouds,9
Farád,47.595278,17.195833,2026-03-11 09:57:12.199833,13.92,12.91,13.92,13.92,1021,59,3.95,182,11,0.0,Clouds,few clouds,9
Rábatamási,47.592778,17.161389,2026-03-11 09:57:13.464651,13.92,12.91,13.92,13.92,1021,59,3.95,182,11,0.0,Clouds,few clouds,9
Szárföld,47.589167,17.123889,2026-03-11 09:57:14.734220,13.93,12.92,13.93,13.93,1021,59,3.84,182,11,0.0,Clouds,few clouds,9
Veszkény,47.586944,17.101389,2026-03-11 09:57:16.000601,13.94,12.93,13.94,13.94,1021,59,3.72,182,11,0.0,Clouds,few clouds,9
Kapuvár,47.581944,17.046944,2026-03-11 09:57:17.264225,13.92,12.91,13.92,13.92,1021,59,3.44,183,11,0.0,Clouds,few clouds,9
Vitnyéd-Csermajor,47.5825,16.987222,2026-03-11 09:57:18.536384,13.93,12.92,13.93,13.93,1021,59,3.14,185,12,0.0,Clouds,few clouds,9
Petőháza,47.595278,16.893056,2026-03-11 09:57:19.805734,13.95,12.94,13.95,13.95,1021,59,2.34,187,12,0.0,Clouds,few clouds,9
Fertőszentmiklós,47.6,16.858889,2026-03-11 09:57:21.081140,13.93,12.92,13.93,13.93,1021,59,2.03,188,12,0.0,Clouds,few clouds,9
Pinnye,47.600278,16.768611,2026-03-11 09:57:22.352941,13.79,12.77,13.79,13.79,1021,59,0.62,186,12,0.0,Clouds,few clouds,9
Fertőboz,47.625,16.691667,2026-03-11 09:57:23.622552,13.7,12.69,13.7,13.7,1021,60,0.52,31,11,0.0,Clouds,few clouds,9
Sopron,47.677778,16.587222,2026-03-11 09:57:24.891639,13.37,12.33,13.37,13.37,1021,60,1.93,25,11,0.0,Clouds,few clouds,9
Fertőszéplak-Fertőd,47.618889,16.850833,2026-03-11 09:57:26.162987,13.99,13.01,13.99,13.99,1021,60,1.41,188,12,0.0,Clouds,few clouds,9
Nyúl,47.587778,17.698056,2026-03-11 09:57:27.431864,13.86,12.69,13.86,13.86,1022,53,4.26,178,12,0.0,Clouds,few clouds,9
Pannonhalma,47.547778,17.740833,2026-03-11 09:57:28.701533,13.65,12.43,13.65,13.65,1022,52,4.47,173,11,0.0,Clouds,few clouds,9
Tarjánpuszta,47.504722,17.789167,2026-03-11 09:57:29.969936,13.53,12.32,13.53,13.53,1022,53,4.72,173,11,0.0,Clouds,few clouds,9
Győrasszonyfa,47.4925,17.799167,2026-03-11 09:57:31.245482,13.53,12.32,13.53,13.53,1022,53,4.72,173,11,0.0,Clouds,few clouds,9
Veszprémvarsány,47.443333,17.818333,2026-03-11 09:57:32.518331,13.37,12.17,13.37,13.37,1022,54,5.0,173,11,0.0,Clouds,few clouds,9
Bakonyszentlászló,47.395556,17.8175,2026-03-11 09:57:33.783269,12.94,11.7,12.94,12.94,1022,54,5.17,174,12,0.0,Clouds,few clouds,9
Porva-Csesznek,47.326944,17.841111,2026-03-11 09:57:35.046963,11.52,10.16,11.52,11.52,1022,55,5.28,175,12,0.0,Clouds,few clouds,9
Zirc,47.266667,17.878056,2026-03-11 09:57:36.317189,11.43,10.12,11.43,11.43,1022,57,5.29,176,13,0.0,Clouds,few clouds,9
Eplény,47.192778,17.921667,2026-03-11 09:57:37.590468,11.7,10.44,11.7,11.7,1022,58,4.97,180,12,0.0,Clouds,few clouds,9
Marcaltő,47.4275,17.348889,2026-03-11 09:57:38.862455,13.81,12.76,13.81,13.81,1021,58,4.66,185,13,0.0,Clouds,few clouds,9
Szany-Rábaszentandrás,47.460833,17.315278,2026-03-11 09:57:40.126033,13.83,12.78,13.83,13.83,1021,58,4.58,186,12,0.0,Clouds,few clouds,9
Egyed-Rábacsanak,47.521944,17.316389,2026-03-11 09:57:41.396616,13.83,12.78,13.83,13.83,1021,58,4.5,186,12,0.0,Clouds,few clouds,9
Rábapordány,47.557222,17.315,2026-03-11 09:57:42.667047,13.87,12.83,13.87,13.87,1021,58,4.46,186,12,0.0,Clouds,few clouds,9
Albertfalva,47.440784,19.033965,2026-03-11 09:57:43.944431,14.03,12.74,14.03,14.03,1023,48,2.56,140,29,0.0,Clouds,scattered clouds,9
Budafok,47.425833,19.041389,2026-03-11 09:57:45.214033,13.81,12.5,13.81,13.81,1023,48,2.62,142,29,0.0,Clouds,scattered clouds,9
Tétényliget,47.384722,18.955278,2026-03-11 09:57:46.489125,13.97,12.7,13.97,13.97,1023,49,2.86,144,29,0.0,Clouds,scattered clouds,9
Érd alsó,47.379722,18.923056,2026-03-11 09:57:47.749066,13.63,12.33,13.63,13.63,1023,49,2.99,144,29,0.0,Clouds,scattered clouds,9
Tárnok,47.365556,18.873889,2026-03-11 09:57:49.024649,13.92,12.67,13.92,13.92,1023,50,3.23,147,28,0.0,Clouds,scattered clouds,9
Martonvásár,47.321389,18.781667,2026-03-11 09:57:50.295715,13.82,12.56,13.82,13.82,1023,50,3.31,154,26,0.0,Clouds,scattered clouds,9
Baracska,47.297222,18.753333,2026-03-11 09:57:51.564544,13.87,12.62,13.87,13.87,1023,50,3.32,158,25,0.0,Clouds,scattered clouds,9
Pettend,47.26,18.708889,2026-03-11 09:57:52.833750,13.72,12.45,13.72,13.72,1023,50,3.46,164,23,0.0,Clouds,few clouds,9
Kápolnásnyék,47.245556,18.692222,2026-03-11 09:57:54.102450,13.75,12.49,13.75,13.75,1023,50,3.54,168,21,0.0,Clouds,few clouds,9
Velence,47.226944,18.663889,2026-03-11 09:57:55.369197,13.8,12.54,13.8,13.8,1023,50,3.67,170,20,0.0,Clouds,few clouds,9
Velencefürdő,47.218611,18.648056,2026-03-11 09:57:56.632631,13.78,12.52,13.78,13.78,1023,50,3.68,173,19,0.0,Clouds,few clouds,9
Gárdony,47.205833,18.624722,2026-03-11 09:57:57.899072,13.79,12.53,13.79,13.79,1023,50,3.81,174,18,0.0,Clouds,few clouds,9
Agárd,47.197666,18.604907,2026-03-11 09:57:59.164159,13.79,12.53,13.79,13.79,1023,50,3.81,174,18,0.0,Clouds,few clouds,9
Dinnyés,47.179722,18.560833,2026-03-11 09:58:00.433286,13.74,12.48,13.74,13.74,1023,50,4.07,179,15,0.0,Clouds,few clouds,9
Székesfehérvár,47.183611,18.424722,2026-03-11 09:58:01.705241,13.57,12.34,13.57,13.57,1022,52,4.36,186,10,0.0,Clear,clear sky,9
Szabadbattyán,47.105278,18.388333,2026-03-11 09:58:02.979277,13.4,12.15,13.4,13.4,1022,52,4.49,193,10,0.0,Clear,clear sky,9
Kiscséripuszta,47.048056,18.355,2026-03-11 09:58:04.248994,13.09,11.84,13.09,13.09,1022,53,4.6,197,11,0.0,Clouds,few clouds,9
Lepsény,46.9875,18.248056,2026-03-11 09:58:05.512067,13.15,11.93,13.15,13.15,1022,54,4.72,201,12,0.0,Clouds,few clouds,9
Balatonaliga,46.984444,18.171389,2026-03-11 09:58:06.784010,12.81,11.61,12.81,12.81,1022,56,4.63,202,11,0.0,Clouds,few clouds,9
Balatonvilágos,46.964167,18.157222,2026-03-11 09:58:08.054242,13.06,11.91,13.06,13.06,1022,57,4.67,204,12,0.0,Clouds,few clouds,9
Szabadifürdő,46.926111,18.103333,2026-03-11 09:58:09.325465,12.96,11.83,12.96,12.96,1022,58,4.85,206,12,0.0,Clouds,few clouds,9
Ózd alsó,48.227778,20.306111,2026-03-11 09:58:10.589837,12.7,11.31,12.7,12.7,1024,49,2.24,167,67,0.0,Clouds,broken clouds,9
Ózd,48.2225,20.294722,2026-03-11 09:58:11.853153,12.7,11.31,12.7,12.7,1024,49,2.24,167,67,0.0,Clouds,broken clouds,9
Alsóboldva,48.212778,20.792222,2026-03-11 09:58:13.121952,12.29,10.78,12.29,12.29,1024,46,4.28,171,78,0.0,Clouds,broken clouds,9
Boldva,48.223333,20.790278,2026-03-11 09:58:14.395965,12.29,10.78,12.29,12.29,1024,46,4.28,171,78,0.0,Clouds,broken clouds,9
Borsodszirák,48.259167,20.770556,2026-03-11 09:58:15.665599,12.43,10.93,12.43,12.43,1024,46,3.86,167,78,0.0,Clouds,broken clouds,9
Edelény alsó,48.279167,20.760833,2026-03-11 09:58:16.931611,12.43,10.93,12.43,12.43,1024,46,3.86,167,78,0.0,Clouds,broken clouds,9
Edelény,48.299722,20.749444,2026-03-11 09:58:18.203150,12.46,10.96,12.46,12.46,1024,46,3.75,166,79,0.0,Clouds,broken clouds,9
Szendrőlád,48.334444,20.731944,2026-03-11 09:58:19.473049,11.55,9.99,11.55,11.55,1024,47,3.12,159,80,0.0,Clouds,broken clouds,9
Szendrő,48.400725,20.721346,2026-03-11 09:58:20.737980,12.59,11.13,12.59,12.59,1024,47,2.81,154,83,0.0,Clouds,broken clouds,9
Szendrő felső,48.409907,20.720148,2026-03-11 09:58:22.002694,12.59,11.13,12.59,12.59,1024,47,2.81,154,83,0.0,Clouds,broken clouds,9
Szalonna,48.449444,20.722222,2026-03-11 09:58:23.278606,12.75,11.31,12.75,12.75,1024,47,2.53,150,85,0.0,Clouds,overcast clouds,9
Perkupa,48.471389,20.691111,2026-03-11 09:58:24.549507,12.12,10.64,12.12,12.12,1024,48,2.15,138,85,0.0,Clouds,overcast clouds,9
Szemeretelep,47.443056,19.214167,2026-03-11 09:58:25.815318,13.66,12.33,13.66,13.66,1023,48,2.42,145,26,0.0,Clouds,scattered clouds,9
Jósvafő-Aggtelek,48.489722,20.693889,2026-03-11 09:58:27.085257,12.49,11.05,12.49,12.49,1024,48,2.12,139,86,0.0,Clouds,overcast clouds,9
Bódvaszilas,48.5375,20.738056,2026-03-11 09:58:28.352639,12.12,10.64,12.12,12.12,1024,48,2.26,149,87,0.0,Clouds,overcast clouds,9
Komjáti,48.5475,20.759722,2026-03-11 09:58:29.625214,11.71,10.19,11.71,11.71,1024,48,2.34,156,88,0.0,Clouds,overcast clouds,9
Tornanádaska,48.558333,20.787222,2026-03-11 09:58:30.895707,12.85,11.42,12.85,12.85,1024,47,2.51,161,88,0.0,Clouds,overcast clouds,9
Onga,48.121111,20.906667,2026-03-11 09:58:32.161146,12.25,10.73,12.25,12.25,1024,46,4.17,174,79,0.0,Clouds,broken clouds,9
Szikszó-Vásártér,48.193056,20.934722,2026-03-11 09:58:33.443129,12.32,10.81,12.32,12.32,1024,46,4.59,172,81,0.0,Clouds,broken clouds,9
Szikszó,48.201667,20.941667,2026-03-11 09:58:34.711241,12.41,10.91,12.41,12.41,1024,46,4.52,172,82,0.0,Clouds,broken clouds,9
Aszaló,48.219867,20.961466,2026-03-11 09:58:35.976465,12.3,10.79,12.3,12.3,1024,46,4.64,173,83,0.0,Clouds,broken clouds,9
Halmaj,48.246667,20.991667,2026-03-11 09:58:37.249032,12.52,11.0,12.52,12.52,1024,45,4.65,173,84,0.0,Clouds,broken clouds,9
Csobád,48.277222,21.033889,2026-03-11 09:58:38.519929,12.61,11.1,12.61,12.61,1024,45,4.62,174,85,0.0,Clouds,overcast clouds,9
Ináncs,48.291111,21.057778,2026-03-11 09:58:39.790517,12.62,11.11,12.62,12.62,1024,45,4.35,176,86,0.0,Clouds,overcast clouds,9
Forró-Encs,48.3275,21.117778,2026-03-11 09:58:41.059025,12.64,11.13,12.64,12.64,1024,45,4.2,177,86,0.0,Clouds,overcast clouds,9
Méra,48.363056,21.140278,2026-03-11 09:58:42.329593,12.52,11.0,12.52,12.52,1024,45,4.12,182,87,0.0,Clouds,overcast clouds,9
Novajidrány,48.404444,21.170556,2026-03-11 09:58:43.596268,12.78,11.26,12.78,12.78,1024,44,3.96,184,88,0.0,Clouds,overcast clouds,9
Hernádszurdok,48.487222,21.213889,2026-03-11 09:58:44.858588,12.81,11.3,12.81,12.81,1024,44,3.81,190,89,0.0,Clouds,overcast clouds,9
Hidasnémeti,48.508333,21.229722,2026-03-11 09:58:46.124002,12.69,11.16,12.69,12.69,1024,44,3.93,192,90,0.0,Clouds,overcast clouds,9
Mád,48.19,21.268889,2026-03-11 09:58:47.399614,12.39,10.81,12.39,12.39,1024,43,2.72,166,87,0.0,Clouds,overcast clouds,9
Rátka,48.215,21.230278,2026-03-11 09:58:48.667576,12.72,11.2,12.72,12.72,1024,44,2.9,166,86,0.0,Clouds,overcast clouds,9
Tállya,48.226944,21.225278,2026-03-11 09:58:49.933264,12.72,11.2,12.72,12.72,1024,44,2.9,166,86,0.0,Clouds,overcast clouds,9
Golop,48.242778,21.204167,2026-03-11 09:58:51.210862,12.74,11.22,12.74,12.74,1024,44,3.39,169,86,0.0,Clouds,overcast clouds,9
Abaújszántó,48.286944,21.181667,2026-03-11 09:58:52.485247,12.5,10.95,12.5,12.5,1024,44,3.56,173,86,0.0,Clouds,overcast clouds,9
Abaújszántói fürdő,48.268333,21.179722,2026-03-11 09:58:53.761024,12.74,11.22,12.74,12.74,1024,44,3.47,171,86,0.0,Clouds,overcast clouds,9
Abaújkér,48.309444,21.198333,2026-03-11 09:58:55.029960,12.53,11.01,12.53,12.53,1024,45,3.65,176,86,0.0,Clouds,overcast clouds,9
Boldogkőváralja,48.345,21.208889,2026-03-11 09:58:56.298519,12.56,11.05,12.56,12.56,1024,45,3.2,176,87,0.0,Clouds,overcast clouds,9
Korlát-Vizsoly,48.365,21.219167,2026-03-11 09:58:57.567556,12.7,11.2,12.7,12.7,1024,45,3.3,179,87,0.0,Clouds,overcast clouds,9
Fony,48.411389,21.242778,2026-03-11 09:58:58.837140,12.81,11.3,12.81,12.81,1024,44,3.55,185,88,0.0,Clouds,overcast clouds,9
Hejce-Vilmány,48.419444,21.245556,2026-03-11 09:59:00.101512,12.81,11.3,12.81,12.81,1024,44,3.55,185,88,0.0,Clouds,overcast clouds,9
Göncruszka,48.445,21.246944,2026-03-11 09:59:01.366324,12.81,11.3,12.81,12.81,1024,44,3.68,188,89,0.0,Clouds,overcast clouds,9
Gönc,48.470556,21.261389,2026-03-11 09:59:02.634712,12.8,11.28,12.8,12.8,1024,44,3.58,189,89,0.0,Clouds,overcast clouds,9
Zsujta,48.4925,21.265,2026-03-11 09:59:03.910032,12.81,11.3,12.81,12.81,1024,44,3.7,191,90,0.0,Clouds,overcast clouds,9
Bodrogkeresztúr,48.175556,21.354167,2026-03-11 09:59:05.177234,12.08,10.41,12.08,12.08,1024,41,2.54,168,88,0.0,Clouds,overcast clouds,9
Szegi,48.201944,21.387778,2026-03-11 09:59:06.448230,12.63,11.05,12.63,12.63,1024,42,2.46,169,87,0.0,Clouds,overcast clouds,9
Erdőbénye,48.218056,21.401944,2026-03-11 09:59:07.720451,13.02,11.47,13.02,13.02,1024,42,2.43,169,87,0.0,Clouds,overcast clouds,9
Olaszliszka-Tolcsva,48.258333,21.448056,2026-03-11 09:59:08.989358,13.04,11.55,13.04,13.04,1024,44,2.38,169,87,0.0,Clouds,overcast clouds,9
Bodrogolaszi,48.286944,21.512778,2026-03-11 09:59:10.259979,11.74,10.14,11.74,11.74,1024,45,2.37,170,87,0.0,Clouds,overcast clouds,9
Sárospatak,48.325833,21.566111,2026-03-11 09:59:11.529352,13.08,11.64,13.08,13.08,1024,46,2.36,171,87,0.0,Clouds,overcast clouds,9
Sátoraljaújhely,48.385833,21.657778,2026-03-11 09:59:12.793065,12.58,11.2,12.58,12.58,1024,50,2.48,170,89,0.0,Clouds,overcast clouds,9
Vecsés,47.40855,19.25652,2026-03-11 09:59:14.069941,13.68,12.36,13.68,13.68,1023,48,2.56,148,24,0.0,Clouds,few clouds,9
Vecsés-Kertekalja,47.403333,19.271389,2026-03-11 09:59:15.340996,13.68,12.36,13.68,13.68,1023,48,2.56,148,24,0.0,Clouds,few clouds,9
Üllő,47.390833,19.348889,2026-03-11 09:59:16.617550,13.72,12.43,13.72,13.72,1023,49,2.68,151,24,0.0,Clouds,few clouds,9
Monor,47.34545,19.43701,2026-03-11 09:59:17.881073,13.64,12.31,13.64,13.64,1023,48,2.97,156,25,0.0,Clouds,scattered clouds,9
Pilis,47.279722,19.536389,2026-03-11 09:59:19.145383,13.62,12.29,13.62,13.62,1023,48,3.18,159,29,0.0,Clouds,scattered clouds,9
Albertirsa,47.240278,19.606389,2026-03-11 09:59:20.411928,13.75,12.41,13.75,13.75,1023,47,3.4,162,37,0.0,Clouds,scattered clouds,9
Ceglédbercel-Cserő,47.210278,19.686944,2026-03-11 09:59:21.676790,13.87,12.54,13.87,13.87,1024,47,3.54,163,40,0.0,Clouds,scattered clouds,9
Cegléd,47.182778,19.806111,2026-03-11 09:59:22.946621,13.99,12.65,13.99,13.99,1024,46,3.79,166,43,0.0,Clouds,scattered clouds,9
Abony,47.173056,20.016389,2026-03-11 09:59:24.220458,13.97,12.6,13.97,13.97,1024,45,4.28,171,36,0.0,Clouds,scattered clouds,9
Szolnok,47.179167,20.175833,2026-03-11 09:59:25.483545,13.91,12.51,13.91,13.91,1024,44,4.69,175,24,0.0,Clouds,few clouds,9
Szajol,47.170556,20.295278,2026-03-11 09:59:26.755971,13.92,12.49,13.92,13.92,1024,43,5.01,176,19,0.0,Clouds,few clouds,9
Törökszentmiklós,47.170278,20.413611,2026-03-11 09:59:28.024958,13.98,12.53,13.98,13.98,1024,42,5.32,177,19,0.0,Clouds,few clouds,9
Rákoscsaba-Újtelep,47.4875,19.271944,2026-03-11 09:59:29.287992,13.38,12.05,13.38,13.38,1023,49,2.52,141,24,0.0,Clouds,few clouds,9
Rákoscsaba,47.492222,19.284722,2026-03-11 09:59:30.553063,13.44,12.12,13.44,13.44,1023,49,2.58,141,23,0.0,Clouds,few clouds,9
Pécel,47.493889,19.338889,2026-03-11 09:59:31.822295,13.32,11.99,13.32,13.32,1023,49,2.64,141,22,0.0,Clouds,few clouds,9
Isaszeg,47.537719,19.388955,2026-03-11 09:59:33.091448,13.12,11.77,13.12,13.12,1023,49,2.85,137,22,0.0,Clouds,few clouds,9
Gödöllő,47.592222,19.358611,2026-03-11 09:59:34.357325,12.96,11.62,12.96,12.96,1023,50,3.09,133,22,0.0,Clouds,few clouds,9
Máriabesnyő,47.595556,19.389722,2026-03-11 09:59:35.629676,12.96,11.62,12.96,12.96,1023,50,3.09,133,22,0.0,Clouds,few clouds,9
Bag,47.641111,19.471667,2026-03-11 09:59:36.900726,13.51,12.25,13.51,13.51,1023,51,3.57,129,21,0.0,Clouds,few clouds,9
Aszód,47.647467,19.492882,2026-03-11 09:59:38.166133,13.37,12.09,13.37,13.37,1024,51,3.62,129,21,0.0,Clouds,few clouds,9
Hévízgyörk,47.638611,19.526667,2026-03-11 09:59:39.435399,13.34,12.06,13.34,13.34,1024,51,3.64,129,20,0.0,Clouds,few clouds,9
Galgahévíz,47.6325,19.558333,2026-03-11 09:59:40.699649,13.54,12.28,13.54,13.54,1024,51,3.51,130,18,0.0,Clouds,few clouds,9
Tura,47.626389,19.5975,2026-03-11 09:59:41.968887,13.44,12.17,13.44,13.44,1024,51,3.48,130,17,0.0,Clouds,few clouds,9
Hatvan,47.663611,19.671389,2026-03-11 09:59:43.240720,13.42,12.15,13.42,13.42,1024,51,3.51,128,18,0.0,Clouds,few clouds,9
Vámosgyörk,47.686111,19.927778,2026-03-11 09:59:44.507116,13.25,11.91,13.25,13.25,1024,49,2.77,142,27,0.0,Clouds,scattered clouds,9
Adács,47.696389,19.975278,2026-03-11 09:59:45.773736,13.2,11.83,13.2,13.2,1024,48,2.7,147,32,0.0,Clouds,scattered clouds,9
Karácsond,47.718056,20.048611,2026-03-11 09:59:47.043903,13.03,11.64,13.03,13.03,1024,48,2.69,148,35,0.0,Clouds,scattered clouds,9
Ludas,47.723889,20.095556,2026-03-11 09:59:48.314337,13.19,11.79,13.19,13.19,1024,47,2.82,157,38,0.0,Clouds,scattered clouds,9
Nagyút,47.72666666666667,20.161388888888887,2026-03-11 09:59:49.581225,13.14,11.74,13.14,13.14,1024,47,2.9,160,39,0.0,Clouds,scattered clouds,9
Kál-Kápolna,47.734167,20.254167,2026-03-11 09:59:50.844848,13.09,11.66,13.09,13.09,1024,46,3.29,166,41,0.0,Clouds,scattered clouds,9
Füzesabony,47.751389,20.415278,2026-03-11 09:59:52.108380,12.96,11.51,12.96,12.96,1024,46,3.69,172,48,0.0,Clouds,scattered clouds,9
Szihalom,47.766944,20.491944,2026-03-11 09:59:53.379799,12.78,11.31,12.78,12.78,1024,46,3.72,174,51,0.0,Clouds,broken clouds,9
Mezőkövesd,47.797222,20.5675,2026-03-11 09:59:54.650923,12.71,11.24,12.71,12.71,1024,46,3.75,177,55,0.0,Clouds,broken clouds,9
Mezőkövesd felső,47.807222,20.591389,2026-03-11 09:59:55.915405,12.71,11.24,12.71,12.71,1024,46,3.75,177,55,0.0,Clouds,broken clouds,9
Mezőkeresztes-Mezőnyárád,47.845556,20.670278,2026-03-11 09:59:57.186446,12.49,11.0,12.49,12.49,1024,46,3.75,182,61,0.0,Clouds,broken clouds,9
Csincse,47.890833,20.764167,2026-03-11 09:59:58.459982,12.46,10.96,12.46,12.46,1024,46,3.79,185,65,0.0,Clouds,broken clouds,9
Emőd,47.930556,20.822778,2026-03-11 09:59:59.727608,12.11,10.58,12.11,12.11,1024,46,3.79,185,69,0.0,Clouds,broken clouds,9
Nyékládháza,47.9925,20.840556,2026-03-11 10:00:00.995024,12.27,10.75,12.27,12.27,1024,46,3.82,183,72,0.0,Clouds,broken clouds,9
Miskolc-Tiszai,48.098611,20.811389,2026-03-11 10:00:02.258941,11.92,10.39,11.92,11.92,1024,47,4.12,178,74,0.0,Clouds,broken clouds,9
Felsőzsolca,48.083611,20.866111,2026-03-11 10:00:03.521729,12.13,10.6,12.13,12.13,1024,46,4.16,177,76,0.0,Clouds,broken clouds,9
Hernádnémeti-Bőcs,48.051389,20.985,2026-03-11 10:00:04.827552,12.35,10.82,12.35,12.35,1024,45,3.65,174,78,0.0,Clouds,broken clouds,9
Tiszalúc,48.039722,21.0575,2026-03-11 10:00:06.092777,12.49,10.94,12.49,12.49,1024,44,3.24,174,80,0.0,Clouds,broken clouds,9
Taktaharkány,48.091667,21.128611,2026-03-11 10:00:07.357193,12.6,11.06,12.6,12.6,1024,44,3.28,170,83,0.0,Clouds,broken clouds,9
Taktaszada,48.1125,21.149444,2026-03-11 10:00:08.623071,12.64,11.11,12.64,12.64,1024,44,3.22,169,85,0.0,Clouds,overcast clouds,9
Szerencs,48.155556,21.214444,2026-03-11 10:00:09.902531,12.82,11.28,12.82,12.82,1024,43,2.84,166,87,0.0,Clouds,overcast clouds,9
Mezőzombor,48.156944,21.267778,2026-03-11 10:00:11.173338,12.78,11.24,12.78,12.78,1024,43,2.72,166,87,0.0,Clouds,overcast clouds,9
Tarcal,48.125,21.34,2026-03-11 10:00:12.450114,12.95,11.37,12.95,12.95,1024,41,2.61,171,87,0.0,Clouds,overcast clouds,9
Tokaj,48.112778,21.406667,2026-03-11 10:00:13.713727,12.49,10.84,12.49,12.49,1024,40,2.58,175,85,0.0,Clouds,overcast clouds,9
Rakamaz,48.12,21.475,2026-03-11 10:00:14.982327,13.05,11.48,13.05,13.05,1024,41,2.6,176,83,0.0,Clouds,broken clouds,9
Görögszállás,48.04,21.555,2026-03-11 10:00:16.251938,13.15,11.57,13.15,13.15,1024,40,2.71,181,70,0.0,Clouds,broken clouds,9
Nyírtelek,48.005,21.615556,2026-03-11 10:00:17.517886,13.24,11.66,13.24,13.24,1024,40,2.66,178,53,0.0,Clouds,broken clouds,9
Rákoshegy,47.468611,19.245556,2026-03-11 10:00:18.799086,13.5,12.16,13.5,13.5,1023,48,2.5,143,24,0.0,Clouds,few clouds,9
Ecser,47.439444,19.318056,2026-03-11 10:00:20.060211,13.62,12.32,13.62,13.62,1023,49,2.57,146,23,0.0,Clouds,few clouds,9
Maglód,47.438889,19.340833,2026-03-11 10:00:21.324484,13.42,12.1,13.42,13.42,1023,49,2.62,146,23,0.0,Clouds,few clouds,9
Maglódi nyaraló,47.434167,19.363611,2026-03-11 10:00:22.587018,13.18,11.83,13.18,13.18,1023,49,2.66,146,22,0.0,Clouds,few clouds,9
Gyömrő,47.429722,19.393333,2026-03-11 10:00:23.848055,13.18,11.83,13.18,13.18,1023,49,2.66,146,22,0.0,Clouds,few clouds,9
Mende,47.426944,19.439722,2026-03-11 10:00:25.113725,13.16,11.81,13.16,13.16,1023,49,2.8,149,22,0.0,Clouds,few clouds,9
Szőlősnyaraló,47.450278,19.561111,2026-03-11 10:00:26.378048,13.52,12.21,13.52,13.52,1023,49,2.93,148,20,0.0,Clouds,few clouds,9
Sülysáp,47.451944,19.5275,2026-03-11 10:00:27.648841,13.42,12.1,13.42,13.42,1023,49,2.87,147,20,0.0,Clouds,few clouds,9
Tápiószecső,47.443056,19.614722,2026-03-11 10:00:28.913297,13.57,12.26,13.57,13.57,1024,49,2.96,149,20,0.0,Clouds,few clouds,9
Szentmártonkáta,47.431944,19.680556,2026-03-11 10:00:30.175467,13.54,12.23,13.54,13.54,1024,49,3.01,151,20,0.0,Clouds,few clouds,9
Nagykáta,47.409722,19.737778,2026-03-11 10:00:31.441095,13.61,12.28,13.61,13.61,1024,48,3.08,154,22,0.0,Clouds,few clouds,9
Farmos,47.355278,19.8375,2026-03-11 10:00:32.705698,13.76,12.42,13.76,13.76,1024,47,3.39,162,29,0.0,Clouds,scattered clouds,9
Tápiószele,47.346313,19.873504,2026-03-11 10:00:33.976026,13.77,12.43,13.77,13.77,1024,47,3.53,164,32,0.0,Clouds,scattered clouds,9
Tápiógyörgye,47.325,19.95,2026-03-11 10:00:35.251014,13.79,12.43,13.79,13.79,1024,46,3.76,168,32,0.0,Clouds,scattered clouds,9
Újszász,47.285833,20.066944,2026-03-11 10:00:36.517532,13.88,12.5,13.88,13.88,1024,45,4.18,173,29,0.0,Clouds,scattered clouds,9
Szurdokpüspöki,47.851944,19.690278,2026-03-11 10:00:37.792606,13.19,11.9,13.19,13.19,1024,51,2.89,134,28,0.0,Clouds,scattered clouds,9
Lőrinci,47.739444,19.673611,2026-03-11 10:00:39.056699,13.32,12.04,13.32,13.32,1024,51,3.54,127,21,0.0,Clouds,few clouds,9
Selyp,47.759167,19.670833,2026-03-11 10:00:40.329663,13.28,12.0,13.28,13.28,1024,51,3.49,127,23,0.0,Clouds,few clouds,9
Apc-Zagyvaszántó,47.791328,19.66822,2026-03-11 10:00:41.604366,13.28,12.0,13.28,13.28,1024,51,3.39,128,24,0.0,Clouds,few clouds,9
Pásztó,47.918889,19.688889,2026-03-11 10:00:42.868139,13.06,11.75,13.06,13.06,1024,51,2.5,141,31,0.0,Clouds,scattered clouds,9
Mátraszőlős-Hasznos,47.938506,19.706122,2026-03-11 10:00:44.132035,13.05,11.72,13.05,13.05,1024,50,2.27,145,34,0.0,Clouds,scattered clouds,9
Tar,47.956111,19.746389,2026-03-11 10:00:45.400453,12.62,11.24,12.62,12.62,1024,50,2.15,148,38,0.0,Clouds,scattered clouds,9
Mátraverebély,47.968333,19.778611,2026-03-11 10:00:46.674394,12.62,11.24,12.62,12.62,1024,50,2.15,148,38,0.0,Clouds,scattered clouds,9
Nagybátony,47.981111,19.82,2026-03-11 10:00:47.946135,12.78,11.42,12.78,12.78,1024,50,2.11,151,41,0.0,Clouds,scattered clouds,9
Kisterenye,48.009444,19.831944,2026-03-11 10:00:49.211882,12.88,11.56,12.88,12.88,1024,51,2.14,152,44,0.0,Clouds,scattered clouds,9
Kisterenye-Bányatelep,48.021389,19.831944,2026-03-11 10:00:50.487659,12.88,11.56,12.88,12.88,1024,51,2.14,152,44,0.0,Clouds,scattered clouds,9
Salgótarján külső,48.089444,19.790833,2026-03-11 10:00:51.758720,12.47,11.1,12.47,12.47,1024,51,1.72,149,48,0.0,Clouds,scattered clouds,9
Balatonfenyves GV,46.7125,17.479167,2026-03-11 10:00:53.036375,13.46,12.32,13.46,13.46,1022,56,5.82,212,32,0.0,Clouds,scattered clouds,9
Várhegyalja,47.737778,18.366667,2026-03-11 10:00:54.308695,13.72,12.51,13.72,13.72,1022,52,4.79,152,12,0.0,Clouds,few clouds,9
Imremajor,46.680556,17.499722,2026-03-11 10:00:55.578246,13.52,12.36,13.52,13.52,1022,55,5.91,213,33,0.0,Clouds,scattered clouds,9
Rákospalota-Kertváros,47.578333,19.122778,2026-03-11 10:00:56.841714,13.69,12.39,13.69,13.69,1023,49,2.31,132,28,0.0,Clouds,scattered clouds,9
Vicziántelep,47.675833,19.286111,2026-03-11 10:00:58.107053,13.12,11.79,13.12,13.12,1023,50,3.29,130,24,0.0,Clouds,few clouds,9
Pálmajor,46.662831,17.457526,2026-03-11 10:00:59.376896,13.57,12.42,13.57,13.57,1022,55,5.95,213,34,0.0,Clouds,scattered clouds,9
Somogyszentpál felső,46.649758,17.471404,2026-03-11 10:01:00.656779,13.53,12.37,13.53,13.53,1022,55,5.98,213,34,0.0,Clouds,scattered clouds,9
Somogyszentpál,46.638611,17.478611,2026-03-11 10:01:01.923645,13.49,12.3,13.49,13.49,1022,54,6.04,214,35,0.0,Clouds,scattered clouds,9
Rudnaykert,47.7175,19.257778,2026-03-11 10:01:03.191506,13.2,11.91,13.2,13.2,1023,51,3.42,131,26,0.0,Clouds,scattered clouds,9
Maroshegy,47.158333,18.406667,2026-03-11 10:01:04.485028,13.52,12.29,13.52,13.52,1022,52,4.38,188,10,0.0,Clear,clear sky,9
Bánhida,47.573703,18.371737,2026-03-11 10:01:05.775054,13.43,12.19,13.43,13.43,1022,52,5.1,154,13,0.0,Clouds,few clouds,9
Magyarkút,47.850278,19.045,2026-03-11 10:01:07.042407,12.95,11.66,12.95,12.95,1023,52,3.01,131,31,0.0,Clouds,scattered clouds,9
Becske alsó,47.897222,19.364722,2026-03-11 10:01:08.308674,12.47,11.13,12.47,12.47,1023,52,3.81,145,26,0.0,Clouds,scattered clouds,9
Hosszúberek-Péteri,47.370556,19.389722,2026-03-11 10:01:09.576627,13.7,12.38,13.7,13.7,1023,48,2.78,153,24,0.0,Clouds,few clouds,9
Monorierdő,47.308889,19.499167,2026-03-11 10:01:10.855749,13.61,12.28,13.61,13.61,1023,48,3.08,157,27,0.0,Clouds,scattered clouds,9
Ceglédbercel,47.215833,19.658611,2026-03-11 10:01:12.119713,13.81,12.47,13.81,13.81,1024,47,3.5,163,40,0.0,Clouds,scattered clouds,9
Budai út,47.208333,19.731389,2026-03-11 10:01:13.392781,13.79,12.45,13.79,13.79,1024,47,3.59,164,41,0.0,Clouds,scattered clouds,9
Büdöskútpuszta,48.373056,20.726111,2026-03-11 10:01:14.672557,12.67,11.22,12.67,12.67,1024,47,2.96,157,82,0.0,Clouds,broken clouds,9
Bánrévei Vízmű,48.282778,20.368333,2026-03-11 10:01:15.944927,12.8,11.39,12.8,12.8,1024,48,1.46,162,72,0.0,Clouds,broken clouds,9
Rákoskert,47.456389,19.296111,2026-03-11 10:01:17.218972,13.41,12.09,13.41,13.41,1023,49,2.56,144,23,0.0,Clouds,few clouds,9
Szirmabesenyő,48.146944,20.783056,2026-03-11 10:01:18.486401,11.38,9.8,11.38,11.38,1024,47,4.07,175,75,0.0,Clouds,broken clouds,9
Kitérőgyár,47.766944,19.935278,2026-03-11 10:01:19.759550,12.86,11.48,12.86,12.86,1024,49,2.73,138,34,0.0,Clouds,scattered clouds,9
Tápiószentmárton,47.373333,19.797778,2026-03-11 10:01:21.028239,13.67,12.32,13.67,13.67,1024,47,3.33,161,28,0.0,Clouds,scattered clouds,9
Zagyvarékas,47.244229,20.097435,2026-03-11 10:01:22.299089,13.91,12.53,13.91,13.91,1024,45,4.39,173,28,0.0,Clouds,scattered clouds,9
Abonyi út,47.206401,20.125204,2026-03-11 10:01:23.570785,13.94,12.56,13.94,13.94,1024,45,4.45,173,29,0.0,Clouds,scattered clouds,9
Jászkisér felső,47.438056,20.202222,2026-03-11 10:01:24.835846,13.65,12.25,13.65,13.65,1024,45,4.07,173,25,0.0,Clouds,scattered clouds,9
Szellőhát,47.425556,20.188889,2026-03-11 10:01:26.098622,13.69,12.29,13.69,13.69,1024,45,4.13,174,25,0.0,Clouds,scattered clouds,9
Szilvásvárad-Szalajkavölgy,48.0956,20.38272,2026-03-11 10:01:27.370136,11.2,9.68,11.2,11.2,1024,50,2.87,164,60,0.0,Clouds,broken clouds,9
Vásárosnamény külső,48.084444,22.255556,2026-03-11 10:01:28.643776,13.77,12.22,13.77,13.77,1025,39,2.89,152,8,0.0,Clear,clear sky,9
Újváros,46.660556,20.536111,2026-03-11 10:01:29.920129,14.8,13.38,14.8,14.8,1024,40,5.83,176,35,0.0,Clouds,scattered clouds,9
Városi park,46.697778,19.864722,2026-03-11 10:01:31.185283,14.84,13.55,14.84,14.84,1024,45,4.29,171,19,0.0,Clouds,few clouds,9
Belsőkamaráspuszta,46.341944,20.848889,2026-03-11 10:01:32.457891,14.98,13.5,14.98,14.98,1025,37,5.72,177,55,0.0,Clouds,broken clouds,9
Sajószöged,47.945278,20.981667,2026-03-11 10:01:33.737660,12.6,11.06,12.6,12.6,1024,44,3.36,183,71,0.0,Clouds,broken clouds,9
Kazincbarcika alsó,48.255278,20.649167,2026-03-11 10:01:35.013106,12.21,10.71,12.21,12.21,1024,47,2.47,165,74,0.0,Clouds,broken clouds,9
Nyárjas,46.857778,19.923611,2026-03-11 10:01:36.283526,14.5,13.18,14.5,14.5,1024,45,4.46,171,25,0.0,Clouds,scattered clouds,9
Pogonyipuszta,48.296389,20.381667,2026-03-11 10:01:37.549700,12.8,11.39,12.8,12.8,1024,48,1.46,162,72,0.0,Clouds,broken clouds,9
Sióvölgy,46.911103,18.076964,2026-03-11 10:01:38.831496,12.96,11.85,12.96,12.96,1022,59,4.78,207,11,0.0,Clouds,few clouds,9
Répáspuszta,46.430278,17.847222,2026-03-11 10:01:40.102651,13.26,12.05,13.26,13.26,1022,54,6.22,212,30,0.0,Clouds,scattered clouds,9
Virányos,48.066667,21.527222,2026-03-11 10:01:41.373696,13.14,11.58,13.14,13.14,1024,41,2.68,180,73,0.0,Clouds,broken clouds,9
Füzesbokor,47.988611,21.6475,2026-03-11 10:01:42.642880,13.31,11.71,13.31,13.31,1024,39,2.63,176,44,0.0,Clouds,scattered clouds,9
Kunfehértó,46.355833,19.417222,2026-03-11 10:01:43.911292,14.4,13.12,14.4,14.4,1023,47,3.01,179,13,0.0,Clouds,few clouds,9
Erdőszél,46.329444,19.395,2026-03-11 10:01:45.180092,14.28,13.02,14.28,14.28,1023,48,2.91,182,13,0.0,Clouds,few clouds,9
Jánoshalma,46.293056,19.330278,2026-03-11 10:01:46.455713,14.39,13.16,14.39,14.39,1023,49,2.84,184,13,0.0,Clouds,few clouds,9
Mélykút,46.213056,19.370556,2026-03-11 10:01:47.728271,14.47,13.25,14.47,14.47,1023,49,2.78,184,14,0.0,Clouds,few clouds,9
Bácsalmás,46.118056,19.346389,2026-03-11 10:01:49.009473,14.54,13.33,14.54,14.54,1023,49,2.72,187,14,0.0,Clouds,few clouds,9
Almás,46.116216,19.328803,2026-03-11 10:01:50.281576,14.54,13.33,14.54,14.54,1023,49,2.72,187,14,0.0,Clouds,few clouds,9
Bácsbokod-Bácsborsód,46.115833,19.16,2026-03-11 10:01:51.553405,14.46,13.29,14.46,14.46,1023,51,2.61,187,13,0.0,Clouds,few clouds,9
Baja,46.187014,18.957602,2026-03-11 10:01:52.831328,14.53,13.37,14.53,14.53,1023,51,2.53,186,9,0.0,Clear,clear sky,9
Harkakötöny,46.458333,19.601944,2026-03-11 10:01:54.095506,14.6,13.29,14.6,14.6,1024,45,3.47,172,17,0.0,Clouds,few clouds,9
Tajó,46.473056,19.650556,2026-03-11 10:01:55.367669,14.64,13.33,14.64,14.64,1024,45,3.55,171,18,0.0,Clouds,few clouds,9
Kiskunmajsa,46.501667,19.728056,2026-03-11 10:01:56.638294,14.72,13.42,14.72,14.72,1024,45,3.76,171,19,0.0,Clouds,few clouds,9
Jászszentlászló,46.565833,19.753611,2026-03-11 10:01:57.903988,14.78,13.49,14.78,14.78,1024,45,4.0,170,17,0.0,Clouds,few clouds,9
Galambos,46.625,19.801111,2026-03-11 10:01:59.182587,14.8,13.51,14.8,14.8,1024,45,4.11,170,17,0.0,Clouds,few clouds,9
Pestszentimre,47.402222,19.188611,2026-03-11 10:02:00.458707,13.86,12.55,13.86,13.86,1023,48,2.53,148,26,0.0,Clouds,scattered clouds,9
Gyál felső,47.390278,19.204722,2026-03-11 10:02:01.725575,13.78,12.47,13.78,13.78,1023,48,2.55,149,26,0.0,Clouds,scattered clouds,9
Gyál,47.376667,19.219444,2026-03-11 10:02:02.991918,13.78,12.47,13.78,13.78,1023,48,2.55,149,26,0.0,Clouds,scattered clouds,9
Ócsa,47.301389,19.232222,2026-03-11 10:02:04.271013,13.88,12.6,13.88,13.88,1023,49,2.81,155,27,0.0,Clouds,scattered clouds,9
Inárcs-Kakucs,47.247222,19.317778,2026-03-11 10:02:05.540099,13.9,12.63,13.9,13.9,1023,49,3.03,159,29,0.0,Clouds,scattered clouds,9
Dabas,47.194722,19.328889,2026-03-11 10:02:06.813353,13.88,12.6,13.88,13.88,1023,49,3.17,162,34,0.0,Clouds,scattered clouds,9
Gyón,47.178333,19.355556,2026-03-11 10:02:08.081126,13.92,12.65,13.92,13.92,1023,49,3.21,163,36,0.0,Clouds,scattered clouds,9
Hernád,47.161389,19.4025,2026-03-11 10:02:09.352262,13.86,12.55,13.86,13.86,1023,48,3.34,164,40,0.0,Clouds,scattered clouds,9
Bakonygyirót,47.416389,17.811944,2026-03-11 10:02:10.626866,13.38,12.18,13.38,13.38,1022,54,5.0,175,12,0.0,Clouds,few clouds,9
Vinye,47.360317,17.819635,2026-03-11 10:02:11.895384,12.83,11.6,12.83,12.83,1022,55,5.23,175,12,0.0,Clouds,few clouds,9
Nemesgörzsöny,47.402924,17.376385,2026-03-11 10:02:13.165210,13.8,12.72,13.8,13.8,1021,57,4.76,186,12,0.0,Clouds,few clouds,9
Rábahíd,47.438618,17.337525,2026-03-11 10:02:14.435651,13.82,12.77,13.82,13.82,1021,58,4.62,185,12,0.0,Clouds,few clouds,9
Öskü,47.162222,18.076389,2026-03-11 10:02:15.706198,12.83,11.66,12.83,12.83,1022,57,4.73,186,11,0.0,Clouds,few clouds,9
Márkó,47.1275,17.813889,2026-03-11 10:02:16.996085,11.93,10.69,11.93,11.93,1022,58,4.72,185,12,0.0,Clouds,few clouds,9
Nemeskocs,47.203333,17.188889,2026-03-11 10:02:18.270436,13.72,12.66,13.72,13.72,1021,58,4.11,185,19,0.0,Clouds,few clouds,9
Zalagyömörő,47.011111,17.220833,2026-03-11 10:02:19.539616,13.55,12.45,13.55,13.55,1021,57,4.14,193,27,0.0,Clouds,scattered clouds,9
Rigács,47.061667,17.199167,2026-03-11 10:02:20.807579,13.52,12.42,13.52,13.52,1021,57,4.15,192,26,0.0,Clouds,scattered clouds,9
Kemenespálfa,47.139722,17.183056,2026-03-11 10:02:22.072727,13.66,12.6,13.66,13.66,1021,58,4.09,188,23,0.0,Clouds,few clouds,9
Lentiszombathely,46.611389,16.5725,2026-03-11 10:02:23.340697,14.15,13.08,14.15,14.15,1021,56,3.26,223,9,0.0,Clear,clear sky,9
Ortaháza,46.626667,16.685833,2026-03-11 10:02:24.604326,13.86,12.76,13.86,13.86,1021,56,2.99,222,10,0.0,Clear,clear sky,9
Rádiháza,46.654722,16.765833,2026-03-11 10:02:25.871193,13.72,12.61,13.72,13.72,1021,56,3.0,220,11,0.0,Clouds,few clouds,9
Baktüttös,46.690833,16.826389,2026-03-11 10:02:27.139540,13.7,12.59,13.7,13.7,1021,56,3.27,218,10,0.0,Clear,clear sky,9
Budafa,46.851667,16.624722,2026-03-11 10:02:28.413700,13.85,12.83,13.85,13.85,1021,59,3.12,209,10,0.0,Clear,clear sky,9
Zalapatakalja,46.845556,16.603889,2026-03-11 10:02:29.685449,13.88,12.86,13.88,13.88,1021,59,3.1,208,9,0.0,Clear,clear sky,9
Tormásliget,47.430556,16.781667,2026-03-11 10:02:30.953626,13.69,12.66,13.69,13.69,1021,59,2.77,192,12,0.0,Clouds,few clouds,9
Belecska,46.64,18.411389,2026-03-11 10:02:32.223823,13.59,12.36,13.59,13.59,1023,52,4.62,213,22,0.0,Clouds,few clouds,9
Almár,47.956111,20.356944,2026-03-11 10:02:33.486205,11.83,10.37,11.83,11.83,1024,50,3.7,162,55,0.0,Clouds,broken clouds,9
Vasútmúzeum,47.543889,19.099444,2026-03-11 10:02:34.752529,13.76,12.47,13.76,13.76,1023,49,2.28,134,28,0.0,Clouds,scattered clouds,9
Abda,47.690833,17.540556,2026-03-11 10:02:36.015017,13.91,12.82,13.91,13.91,1022,56,4.44,184,12,0.0,Clouds,few clouds,9
Vadaspark,47.526111,18.949167,2026-03-11 10:02:37.291740,12.22,10.8,12.22,12.22,1023,50,2.69,135,31,0.0,Clouds,scattered clouds,9
Barosstelep,47.398889,18.989167,2026-03-11 10:02:38.561397,14.07,12.81,14.07,14.07,1023,49,2.76,144,29,0.0,Clouds,scattered clouds,9
Fegyvernek-Örményes,47.194444,20.5575,2026-03-11 10:02:39.829295,13.94,12.46,13.94,13.94,1024,41,5.47,178,19,0.0,Clouds,few clouds,9
Zagyvapálfalva,48.068889,19.785,2026-03-11 10:02:41.091629,12.66,11.31,12.66,12.66,1023,51,1.81,151,47,0.0,Clouds,scattered clouds,9
Salgótarján,48.105556,19.807222,2026-03-11 10:02:42.366964,12.05,10.64,12.05,12.05,1024,51,1.64,145,50,0.0,Clouds,scattered clouds,9
Szabadisóstó,46.933889,18.118056,2026-03-11 10:02:43.634452,13.0,11.87,13.0,13.0,1022,58,4.73,205,12,0.0,Clouds,few clouds,9
Siófok,46.907778,18.053889,2026-03-11 10:02:44.899952,12.96,11.85,12.96,12.96,1022,59,4.78,207,11,0.0,Clouds,few clouds,9
Balatonszéplak felső,46.898056,18.018056,2026-03-11 10:02:46.176386,12.84,11.69,12.84,12.84,1022,58,4.91,208,10,0.0,Clear,clear sky,9
Balatonszéplak alsó,46.891944,17.993333,2026-03-11 10:02:47.446651,12.86,11.72,12.86,12.86,1022,58,4.89,208,10,0.0,Clear,clear sky,9
Zamárdi felső,46.886111,17.969444,2026-03-11 10:02:48.722756,12.78,11.6,12.78,12.78,1022,57,4.89,207,9,0.0,Clear,clear sky,9
Zamárdi,46.88,17.944722,2026-03-11 10:02:49.992541,12.78,11.6,12.78,12.78,1022,57,4.89,207,9,0.0,Clear,clear sky,9
Szántód,46.861944,17.899167,2026-03-11 10:02:51.262462,12.76,11.58,12.76,12.76,1022,57,5.1,208,10,0.0,Clear,clear sky,9
Szőny-Déli,47.735278,18.141944,2026-03-11 10:02:52.531564,13.84,12.66,13.84,13.84,1022,53,5.58,154,12,0.0,Clouds,few clouds,9
Várpalota,47.194444,18.149167,2026-03-11 10:02:53.808034,12.73,11.52,12.73,12.73,1022,56,4.75,184,10,0.0,Clear,clear sky,9
Pétfürdő,47.1675,18.121389,2026-03-11 10:02:55.074043,13.08,11.91,13.08,13.08,1022,56,4.74,185,11,0.0,Clouds,few clouds,9
Hajmáskér,47.141111,18.009444,2026-03-11 10:02:56.341657,12.57,11.4,12.57,12.57,1022,58,4.76,185,12,0.0,Clouds,few clouds,9
Veszprém,47.118889,17.91,2026-03-11 10:02:57.612039,12.41,11.22,12.41,12.41,1022,58,4.67,185,12,0.0,Clouds,few clouds,9
Herend,47.136944,17.760278,2026-03-11 10:02:58.883116,11.87,10.6,11.87,11.87,1022,57,4.75,184,12,0.0,Clouds,few clouds,9
Városlőd,47.144167,17.652778,2026-03-11 10:03:00.149325,11.82,10.55,11.82,11.82,1022,57,4.98,183,12,0.0,Clouds,few clouds,9
Városlőd-Kislőd,47.133889,17.631111,2026-03-11 10:03:01.418437,12.22,10.99,12.22,12.22,1022,57,4.92,184,12,0.0,Clouds,few clouds,9
Ajka,47.105902,17.572938,2026-03-11 10:03:02.684468,12.68,11.49,12.68,12.68,1022,57,4.93,184,15,0.0,Clouds,few clouds,9
Ajka-Gyártelep,47.096806,17.555219,2026-03-11 10:03:03.962699,12.68,11.49,12.68,12.68,1022,57,4.93,184,15,0.0,Clouds,few clouds,9
Devecser,47.1125,17.435278,2026-03-11 10:03:05.225578,13.16,12.02,13.16,13.16,1022,57,4.87,184,18,0.0,Clouds,few clouds,9
Somlóvásárhely,47.124444,17.369167,2026-03-11 10:03:06.498435,13.32,12.2,13.32,13.32,1021,57,4.68,184,21,0.0,Clouds,few clouds,9
Tüskevár,47.128611,17.331389,2026-03-11 10:03:07.768021,13.45,12.34,13.45,13.45,1021,57,4.58,184,22,0.0,Clouds,few clouds,9
Karakószörcsök,47.133611,17.287778,2026-03-11 10:03:09.032565,13.53,12.43,13.53,13.53,1021,57,4.48,185,23,0.0,Clouds,few clouds,9
Kerta,47.151944,17.237222,2026-03-11 10:03:10.301700,13.69,12.63,13.69,13.69,1021,58,4.19,186,22,0.0,Clouds,few clouds,9
Boba,47.183333,17.191389,2026-03-11 10:03:11.575535,13.69,12.63,13.69,13.69,1021,58,4.11,186,21,0.0,Clouds,few clouds,9
Börgönd,47.140278,18.515,2026-03-11 10:03:12.844288,13.53,12.27,13.53,13.53,1023,51,4.22,184,14,0.0,Clouds,few clouds,9
Belsőbáránd,47.102778,18.499722,2026-03-11 10:03:14.116001,13.43,12.16,13.43,13.43,1022,51,4.33,188,13,0.0,Clouds,few clouds,9
Zichyújfalu,47.124444,18.6725,2026-03-11 10:03:15.382299,13.65,12.38,13.65,13.65,1023,50,3.67,178,21,0.0,Clouds,few clouds,9
Seregélyes,47.121111,18.580556,2026-03-11 10:03:16.651947,13.7,12.43,13.7,13.7,1023,50,4.14,183,15,0.0,Clouds,few clouds,9
Polgárdi-Ipartelepek,47.079167,18.314444,2026-03-11 10:03:17.916951,12.92,11.65,12.92,12.92,1022,53,4.55,196,10,0.0,Clear,clear sky,9
Polgárdi,47.07,18.284167,2026-03-11 10:03:19.189857,12.92,11.65,12.92,12.92,1022,53,4.55,196,10,0.0,Clear,clear sky,9
Füle,47.05,18.255278,2026-03-11 10:03:20.456156,12.81,11.56,12.81,12.81,1022,54,4.6,199,10,0.0,Clear,clear sky,9
Zánka-Erzsébettábor,46.8775,17.709167,2026-03-11 10:03:21.720664,12.99,11.83,12.99,12.99,1022,57,5.21,204,16,0.0,Clouds,few clouds,9
Csajág,47.033889,18.186389,2026-03-11 10:03:22.992770,12.81,11.61,12.81,12.81,1022,56,4.57,201,11,0.0,Clouds,few clouds,9
Balatonakarattya,47.017222,18.167778,2026-03-11 10:03:24.258146,12.81,11.61,12.81,12.81,1022,56,4.57,201,11,0.0,Clouds,few clouds,9
Csittényhegy,47.025278,18.1375,2026-03-11 10:03:25.529693,13.01,11.85,13.01,13.01,1022,57,4.53,201,11,0.0,Clouds,few clouds,9
Balatonkenese,47.0325,18.105556,2026-03-11 10:03:26.803259,13.09,11.94,13.09,13.09,1022,57,4.49,201,11,0.0,Clouds,few clouds,9
Balatonfűzfő,47.060278,18.0425,2026-03-11 10:03:28.074432,12.81,11.66,12.81,12.81,1022,58,4.38,197,12,0.0,Clouds,few clouds,9
Balatonalmádi,47.028333,18.015,2026-03-11 10:03:29.346946,12.96,11.83,12.96,12.96,1022,58,4.39,200,11,0.0,Clouds,few clouds,9
Káptalanfüred,47.008889,18.003889,2026-03-11 10:03:30.619279,12.0,10.77,12.0,12.0,1022,58,4.4,202,11,0.0,Clouds,few clouds,9
Alsóörs,46.985278,17.974722,2026-03-11 10:03:31.887648,12.0,10.77,12.0,12.0,1022,58,4.4,202,11,0.0,Clouds,few clouds,9
Csopak,46.974722,17.931111,2026-03-11 10:03:33.158691,12.85,11.65,12.85,12.85,1022,56,4.49,202,10,0.0,Clear,clear sky,9
Balatonarács,46.9625,17.8975,2026-03-11 10:03:34.423371,12.85,11.65,12.85,12.85,1022,56,4.49,202,10,0.0,Clear,clear sky,9
Balatonfüred,46.955833,17.883056,2026-03-11 10:03:35.692471,13.18,11.99,13.18,13.18,1022,55,4.63,203,10,0.0,Clear,clear sky,9
Aszófő,46.925556,17.8325,2026-03-11 10:03:36.962719,13.15,11.93,13.15,13.15,1022,54,4.79,204,11,0.0,Clouds,few clouds,9
Örvényes,46.9125,17.818056,2026-03-11 10:03:38.236626,13.15,11.93,13.15,13.15,1022,54,4.79,204,11,0.0,Clouds,few clouds,9
Balatonudvari,46.904722,17.808056,2026-03-11 10:03:39.498768,12.72,11.48,12.72,12.72,1022,55,4.82,203,11,0.0,Clouds,few clouds,9
Fövenyes,46.893611,17.789444,2026-03-11 10:03:40.769528,13.36,12.19,13.36,13.36,1022,55,4.98,205,12,0.0,Clouds,few clouds,9
Balatonakali-Dörgicse,46.88,17.747778,2026-03-11 10:03:42.035007,13.07,11.87,13.07,13.07,1022,55,5.01,204,13,0.0,Clouds,few clouds,9
Zánka-Köveskál,46.872778,17.687778,2026-03-11 10:03:43.303598,13.25,12.09,13.25,13.25,1022,56,5.23,204,18,0.0,Clouds,few clouds,9
Balatonszepezd,46.851111,17.663056,2026-03-11 10:03:44.572988,13.65,12.53,13.65,13.65,1022,56,5.39,206,19,0.0,Clouds,few clouds,9
Szepezdfürdő,46.839722,17.649444,2026-03-11 10:03:45.848256,12.67,11.45,12.67,12.67,1022,56,5.39,205,20,0.0,Clouds,few clouds,9
Révfülöp,46.829167,17.632222,2026-03-11 10:03:47.117791,12.67,11.45,12.67,12.67,1022,56,5.39,205,20,0.0,Clouds,few clouds,9
Balatonrendes,46.824722,17.582778,2026-03-11 10:03:48.387257,13.43,12.29,13.43,13.43,1022,56,5.45,206,26,0.0,Clouds,scattered clouds,9
Ábrahámhegy,46.815,17.572222,2026-03-11 10:03:49.654463,13.43,12.29,13.43,13.43,1022,56,5.45,206,26,0.0,Clouds,scattered clouds,9
Badacsonyörs,46.805556,17.531667,2026-03-11 10:03:50.918140,13.72,12.61,13.72,13.72,1022,56,5.39,206,27,0.0,Clouds,scattered clouds,9
Kisújszállás,47.223889,20.751111,2026-03-11 10:03:52.183798,13.97,12.52,13.97,13.97,1024,42,5.35,178,19,0.0,Clouds,few clouds,9
Karcag,47.303333,20.928056,2026-03-11 10:03:53.454654,13.9,12.42,13.9,13.9,1024,41,4.96,178,23,0.0,Clouds,few clouds,9
Püspökladány,47.3275,21.128889,2026-03-11 10:03:54.721262,13.97,12.44,13.97,13.97,1024,39,4.13,173,23,0.0,Clouds,few clouds,9
Kaba,47.368889,21.259444,2026-03-11 10:03:55.996214,14.03,12.48,14.03,14.03,1025,38,3.3,168,21,0.0,Clouds,few clouds,9
Hajdúszoboszló,47.429444,21.406944,2026-03-11 10:03:57.263721,14.07,12.5,14.07,14.07,1025,37,2.55,169,20,0.0,Clouds,few clouds,9
Ebes,47.462778,21.488889,2026-03-11 10:03:58.529091,14.12,12.53,14.12,14.12,1025,36,2.35,172,19,0.0,Clouds,few clouds,9
Debrecen,47.520278,21.628611,2026-03-11 10:03:59.799585,14.17,12.56,14.17,14.17,1025,35,2.07,174,18,0.0,Clouds,few clouds,9
Debrecen-Csapókert,47.540556,21.648056,2026-03-11 10:04:01.063465,14.0,12.37,14.0,14.0,1025,35,2.01,173,17,0.0,Clouds,few clouds,9
Apafa,47.584045,21.655858,2026-03-11 10:04:02.336446,13.92,12.31,13.92,13.92,1025,36,2.01,173,17,0.0,Clouds,few clouds,9
Bocskaikert,47.6425,21.666389,2026-03-11 10:04:03.604644,13.63,12.01,13.63,13.63,1025,37,2.04,173,17,0.0,Clouds,few clouds,9
Hajdúhadház,47.686944,21.679167,2026-03-11 10:04:04.879979,13.69,12.08,13.69,13.69,1025,37,2.01,170,16,0.0,Clouds,few clouds,9
Téglás,47.714722,21.684722,2026-03-11 10:04:06.150300,13.69,12.08,13.69,13.69,1025,37,2.04,170,17,0.0,Clouds,few clouds,9
Újfehértó,47.814444,21.706389,2026-03-11 10:04:07.428639,13.71,12.1,13.71,13.71,1024,37,2.22,171,20,0.0,Clouds,few clouds,9
Nyíregyháza,47.946667,21.705556,2026-03-11 10:04:08.697057,13.64,12.05,13.64,13.64,1024,38,2.53,173,32,0.0,Clouds,scattered clouds,9
Sóstó,47.998051,21.729047,2026-03-11 10:04:09.964434,13.62,12.03,13.62,13.62,1024,38,2.57,170,30,0.0,Clouds,scattered clouds,9
Sóstóhegy,48.012222,21.742778,2026-03-11 10:04:11.232552,13.69,12.11,13.69,13.69,1024,38,2.58,171,33,0.0,Clouds,scattered clouds,9
Kemecse,48.065556,21.801667,2026-03-11 10:04:12.496470,13.75,12.17,13.75,13.75,1024,38,2.53,171,35,0.0,Clouds,scattered clouds,9
Nyírbogdány,48.082222,21.855278,2026-03-11 10:04:13.767834,13.74,12.16,13.74,13.74,1024,38,2.49,171,37,0.0,Clouds,scattered clouds,9
Kék,48.093333,21.883889,2026-03-11 10:04:15.031085,13.79,12.22,13.79,13.79,1024,38,2.48,169,33,0.0,Clouds,scattered clouds,9
Demecser,48.111667,21.926667,2026-03-11 10:04:16.296513,13.83,12.26,13.83,13.83,1024,38,2.45,168,36,0.0,Clouds,scattered clouds,9
Gégény,48.128333,21.951944,2026-03-11 10:04:17.567130,13.83,12.26,13.83,13.83,1024,38,2.44,167,39,0.0,Clouds,scattered clouds,9
Pátroha,48.158611,21.996667,2026-03-11 10:04:18.840566,13.87,12.3,13.87,13.87,1024,38,2.47,165,41,0.0,Clouds,scattered clouds,9
Ajak,48.1865,22.048972,2026-03-11 10:04:20.106631,13.88,12.32,13.88,13.88,1024,38,2.55,163,42,0.0,Clouds,scattered clouds,9
Kisvárda,48.208333,22.078333,2026-03-11 10:04:21.376823,13.91,12.35,13.91,13.91,1024,38,2.75,160,37,0.0,Clouds,scattered clouds,9
Kisvárda-Hármasút,48.228333,22.091944,2026-03-11 10:04:22.651006,13.91,12.35,13.91,13.91,1024,38,2.75,160,37,0.0,Clouds,scattered clouds,9
Fényeslitke,48.267222,22.107222,2026-03-11 10:04:23.920961,13.89,12.33,13.89,13.89,1024,38,3.02,158,38,0.0,Clouds,scattered clouds,9
Komoró,48.305278,22.118056,2026-03-11 10:04:25.186201,13.91,12.35,13.91,13.91,1024,38,3.09,158,41,0.0,Clouds,scattered clouds,9
Tuzsér,48.342222,22.131667,2026-03-11 10:04:26.449223,13.87,12.3,13.87,13.87,1024,38,3.23,157,46,0.0,Clouds,scattered clouds,9
Tiszabezdéd,48.371389,22.145,2026-03-11 10:04:27.719330,13.91,12.35,13.91,13.91,1024,38,3.43,156,44,0.0,Clouds,scattered clouds,9
Záhony,48.402222,22.183611,2026-03-11 10:04:28.988843,13.92,12.33,13.92,13.92,1024,37,3.61,156,43,0.0,Clouds,scattered clouds,9
Karcag-Vásártér,47.3225,20.9075,2026-03-11 10:04:30.259746,13.9,12.42,13.9,13.9,1024,41,4.96,178,23,0.0,Clouds,few clouds,9
Berekfürdő,47.374722,20.827222,2026-03-11 10:04:31.523703,13.81,12.34,13.81,13.81,1024,42,5.18,179,28,0.0,Clouds,scattered clouds,9
Kunmadaras,47.415278,20.793056,2026-03-11 10:04:32.789145,13.73,12.28,13.73,13.73,1024,43,5.15,180,33,0.0,Clouds,scattered clouds,9
Tiszaszentimre,47.490833,20.733056,2026-03-11 10:04:34.045713,13.46,11.96,13.46,13.46,1024,42,4.98,181,38,0.0,Clouds,scattered clouds,9
Tiszaszőlős,47.555556,20.728056,2026-03-11 10:04:35.315676,13.58,12.14,13.58,13.58,1024,44,4.8,182,43,0.0,Clouds,scattered clouds,9
Hosszúhát,47.235556,21.101944,2026-03-11 10:04:36.591426,14.07,12.52,14.07,14.07,1025,38,4.16,174,21,0.0,Clouds,few clouds,9
Szerep,47.234444,21.145833,2026-03-11 10:04:37.863959,14.1,12.56,14.1,14.1,1025,38,3.98,174,21,0.0,Clouds,few clouds,9
Sárrétudvari,47.231667,21.180833,2026-03-11 10:04:39.130129,14.11,12.57,14.11,14.11,1025,38,3.82,173,21,0.0,Clouds,few clouds,9
Biharnagybajom,47.208889,21.221944,2026-03-11 10:04:40.395843,14.14,12.58,14.14,14.14,1025,37,3.53,172,23,0.0,Clouds,few clouds,9
Füzesgyarmat,47.113056,21.194444,2026-03-11 10:04:41.672031,14.24,12.69,14.24,14.24,1025,37,3.87,176,27,0.0,Clouds,scattered clouds,9
Füzesgyarmatfürdő,47.093787,21.201582,2026-03-11 10:04:42.941772,14.24,12.69,14.24,14.24,1025,37,3.87,176,27,0.0,Clouds,scattered clouds,9
Báránd,47.299722,21.235278,2026-03-11 10:04:44.206899,14.07,12.52,14.07,14.07,1025,38,3.49,170,21,0.0,Clouds,few clouds,9
Sáp,47.259722,21.360556,2026-03-11 10:04:45.479683,14.16,12.57,14.16,14.16,1025,36,3.09,169,21,0.0,Clouds,few clouds,9
Berettyóújfalu,47.211944,21.535556,2026-03-11 10:04:46.750792,14.29,12.69,14.29,14.29,1025,35,2.39,173,24,0.0,Clouds,few clouds,9
Mezőpeterd,47.176111,21.625278,2026-03-11 10:04:48.032152,14.36,12.74,14.36,14.36,1025,34,2.1,175,27,0.0,Clouds,scattered clouds,9
Biharkeresztes,47.135556,21.721389,2026-03-11 10:04:49.299374,14.46,12.82,14.46,14.46,1025,33,1.85,184,44,0.0,Clouds,scattered clouds,9
Tócóvölgy,47.529444,21.588889,2026-03-11 10:04:50.569575,14.16,12.57,14.16,14.16,1025,36,2.14,175,18,0.0,Clouds,few clouds,9
Sáregres,46.7825,18.588889,2026-03-11 10:04:51.841418,13.83,12.65,13.83,13.83,1023,53,3.98,197,14,0.0,Clouds,few clouds,9
Simontornya,46.756582,18.540674,2026-03-11 10:04:53.109283,13.71,12.55,13.71,13.71,1022,54,4.27,201,14,0.0,Clouds,few clouds,9
Tolnanémedi,46.727778,18.475833,2026-03-11 10:04:54.379544,13.77,12.61,13.77,13.77,1022,54,4.35,203,15,0.0,Clouds,few clouds,9
Pincehely,46.681389,18.43,2026-03-11 10:04:55.656765,13.61,12.46,13.61,13.61,1022,55,4.7,209,21,0.0,Clouds,few clouds,9
Keszőhidegkút-Gyönk,46.597778,18.426111,2026-03-11 10:04:56.926432,13.73,12.57,13.73,13.73,1023,54,4.57,215,22,0.0,Clouds,few clouds,9
Szárazd,46.575556,18.420833,2026-03-11 10:04:58.193866,13.79,12.63,13.79,13.79,1023,54,4.5,216,22,0.0,Clouds,few clouds,9
Regöly,46.568889,18.396111,2026-03-11 10:04:59.459872,13.79,12.63,13.79,13.79,1023,54,4.5,216,22,0.0,Clouds,few clouds,9
Szakály-Hőgyész,46.523611,18.389444,2026-03-11 10:05:00.735112,13.74,12.58,13.74,13.74,1023,54,4.52,219,25,0.0,Clouds,scattered clouds,9
Dúzs,46.493889,18.377222,2026-03-11 10:05:02.013639,13.82,12.64,13.82,13.82,1023,53,4.46,220,25,0.0,Clouds,scattered clouds,9
Csibrák,46.466667,18.336389,2026-03-11 10:05:03.276152,13.9,12.73,13.9,13.9,1023,53,4.51,221,28,0.0,Clouds,scattered clouds,9
Kurd,46.449167,18.319167,2026-03-11 10:05:04.545461,13.6,12.4,13.6,13.6,1023,53,4.41,221,28,0.0,Clouds,scattered clouds,9
Döbrököz,46.418889,18.255,2026-03-11 10:05:05.811642,13.89,12.72,13.89,13.89,1023,53,4.54,221,33,0.0,Clouds,scattered clouds,9
Dombóvár,46.37,18.149722,2026-03-11 10:05:07.084156,13.93,12.79,13.93,13.93,1023,54,4.67,219,44,0.0,Clouds,scattered clouds,9
Dombóvár alsó,46.363889,18.134167,2026-03-11 10:05:08.347765,13.93,12.79,13.93,13.93,1023,54,4.67,219,44,0.0,Clouds,scattered clouds,9
Somoskőújfalu,48.154722,19.815556,2026-03-11 10:05:09.613857,11.13,9.6,11.13,11.13,1023,50,1.55,135,54,0.0,Clouds,broken clouds,9
Jászfényszaru,47.593056,19.754444,2026-03-11 10:05:10.883906,13.55,12.24,13.55,13.55,1023,49,3.09,139,16,0.0,Clouds,few clouds,9
Pusztamonostor,47.564444,19.794167,2026-03-11 10:05:12.152719,13.55,12.21,13.55,13.55,1023,48,3.02,144,16,0.0,Clouds,few clouds,9
Jászberény,47.494444,19.893333,2026-03-11 10:05:13.422649,13.66,12.33,13.66,13.66,1023,48,3.12,157,20,0.0,Clouds,few clouds,9
Meggyespele,47.441944,19.938889,2026-03-11 10:05:14.694994,13.73,12.39,13.73,13.73,1024,47,3.47,166,25,0.0,Clouds,scattered clouds,9
Portelek,47.418056,19.958889,2026-03-11 10:05:15.967671,13.75,12.41,13.75,13.75,1024,47,3.54,167,26,0.0,Clouds,scattered clouds,9
Jászboldogháza-Jánoshida,47.366944,20.001389,2026-03-11 10:05:17.240011,13.78,12.44,13.78,13.78,1024,47,3.77,169,29,0.0,Clouds,scattered clouds,9
Jászárokszállás,47.635556,19.971111,2026-03-11 10:05:18.520017,13.56,12.2,13.56,13.56,1024,47,2.85,152,25,0.0,Clouds,scattered clouds,9
Jászdózsa,47.563056,20.028056,2026-03-11 10:05:19.790887,13.61,12.25,13.61,13.61,1024,47,3.11,162,25,0.0,Clouds,scattered clouds,9
Jászapáti,47.513611,20.155,2026-03-11 10:05:21.060377,13.63,12.25,13.63,13.63,1024,46,3.68,171,27,0.0,Clouds,scattered clouds,9
Jászkisér,47.456111,20.203333,2026-03-11 10:05:22.323981,13.7,12.33,13.7,13.7,1024,46,3.98,173,26,0.0,Clouds,scattered clouds,9
Jászladány,47.373333,20.159167,2026-03-11 10:05:23.592426,13.82,12.46,13.82,13.82,1024,46,4.19,174,25,0.0,Clouds,scattered clouds,9
Szászberek,47.320556,20.090833,2026-03-11 10:05:24.865647,13.85,12.49,13.85,13.85,1024,46,4.22,173,27,0.0,Clouds,scattered clouds,9
Gyöngyöshalász,47.743056,19.932222,2026-03-11 10:05:26.138155,13.27,11.88,13.27,13.27,1024,47,2.73,138,33,0.0,Clouds,scattered clouds,9
Gyöngyös,47.783056,19.937222,2026-03-11 10:05:27.415042,12.88,11.45,12.88,12.88,1024,47,2.72,141,36,0.0,Clouds,scattered clouds,9
Erdőtelek,47.683333,20.3025,2026-03-11 10:05:28.682132,13.36,11.95,13.36,13.36,1024,46,3.48,170,39,0.0,Clouds,scattered clouds,9
Heves,47.609444,20.306111,2026-03-11 10:05:29.954723,13.51,12.12,13.51,13.51,1024,46,3.79,172,33,0.0,Clouds,scattered clouds,9
Hevesvezekény,47.562222,20.365833,2026-03-11 10:05:31.228586,13.57,12.18,13.57,13.57,1024,46,4.1,174,33,0.0,Clouds,scattered clouds,9
Tarnaszentmiklós,47.546944,20.390833,2026-03-11 10:05:32.502027,13.6,12.22,13.6,13.6,1024,46,4.2,175,31,0.0,Clouds,scattered clouds,9
Kisköre,47.495556,20.481667,2026-03-11 10:05:33.774897,13.66,12.26,13.66,13.66,1024,45,4.66,177,29,0.0,Clouds,scattered clouds,9
Abádszalók,47.455278,20.553056,2026-03-11 10:05:35.042998,13.67,12.27,13.67,13.67,1024,45,4.8,178,28,0.0,Clouds,scattered clouds,9
Kunhegyes,47.376667,20.641111,2026-03-11 10:05:36.329679,13.76,12.34,13.76,13.76,1024,44,5.21,179,27,0.0,Clouds,scattered clouds,9
Kenderes,47.254444,20.686111,2026-03-11 10:05:37.597706,13.93,12.48,13.93,13.93,1024,42,5.41,178,20,0.0,Clouds,few clouds,9
Maklár,47.808056,20.404722,2026-03-11 10:05:38.870521,13.13,11.73,13.13,13.13,1023,47,3.63,170,50,0.0,Clouds,scattered clouds,9
Andornaktálya,47.852203,20.402295,2026-03-11 10:05:40.139714,12.9,11.47,12.9,12.9,1023,47,3.58,169,52,0.0,Clouds,broken clouds,9
Eger,47.891667,20.381667,2026-03-11 10:05:41.409791,12.81,11.37,12.81,12.81,1023,47,3.64,165,52,0.0,Clouds,broken clouds,9
Egervár,47.908056,20.380556,2026-03-11 10:05:42.672947,12.9,11.5,12.9,12.9,1023,48,3.64,164,53,0.0,Clouds,broken clouds,9
Eger-Felnémet,47.936667,20.370556,2026-03-11 10:05:43.944934,12.82,11.41,12.82,12.82,1023,48,3.63,164,54,0.0,Clouds,broken clouds,9
Szarvaskő,47.988611,20.3325,2026-03-11 10:05:45.226231,12.23,10.76,12.23,12.23,1023,48,3.65,162,56,0.0,Clouds,broken clouds,9
Mónosbél,48.031944,20.33,2026-03-11 10:05:46.491593,12.31,10.85,12.31,12.31,1023,48,3.44,162,58,0.0,Clouds,broken clouds,9
Bélapátfalva,48.055556,20.340556,2026-03-11 10:05:47.755717,12.05,10.56,12.05,12.05,1023,48,3.28,163,59,0.0,Clouds,broken clouds,9
Bélapátfalvi Cementgyár,48.058056,20.355,2026-03-11 10:05:49.018743,12.05,10.56,12.05,12.05,1023,48,3.28,163,59,0.0,Clouds,broken clouds,9
Szilvásvárad,48.11345,20.37919,2026-03-11 10:05:50.296219,11.64,10.11,11.64,11.64,1023,48,2.64,165,62,0.0,Clouds,broken clouds,9
Hejőkeresztúr,47.960278,20.869444,2026-03-11 10:05:51.568527,13.0,11.56,13.0,13.0,1024,46,3.71,183,71,0.0,Clouds,broken clouds,9
Tiszaújváros,47.926111,21.030556,2026-03-11 10:05:52.831637,13.18,11.73,13.18,13.18,1024,45,3.29,183,72,0.0,Clouds,broken clouds,9
Miskolc-Gömöri,48.106667,20.800278,2026-03-11 10:05:54.106734,12.69,11.24,12.69,12.69,1023,47,4.19,176,75,0.0,Clouds,broken clouds,9
Sajókeresztúr,48.168008,20.774014,2026-03-11 10:05:55.379142,12.73,11.29,12.73,12.73,1023,47,4.07,174,75,0.0,Clouds,broken clouds,9
Sajóecseg,48.186111,20.766667,2026-03-11 10:05:56.650627,12.87,11.44,12.87,12.87,1023,47,4.06,172,76,0.0,Clouds,broken clouds,9
Sajószentpéter,48.222222,20.708056,2026-03-11 10:05:57.925324,12.91,11.48,12.91,12.91,1023,47,3.71,170,76,0.0,Clouds,broken clouds,9
Kazincbarcika,48.264444,20.6275,2026-03-11 10:05:59.187981,13.05,11.64,13.05,13.05,1023,47,2.01,158,74,0.0,Clouds,broken clouds,9
Sajókaza,48.272778,20.581944,2026-03-11 10:06:00.461986,13.06,11.65,13.06,13.06,1023,47,1.7,156,73,0.0,Clouds,broken clouds,9
Vadna,48.276389,20.555278,2026-03-11 10:06:01.726923,13.06,11.65,13.06,13.06,1023,47,1.7,156,73,0.0,Clouds,broken clouds,9
Dubicsány,48.280833,20.504722,2026-03-11 10:06:03.004914,13.1,11.69,13.1,13.1,1023,47,1.17,154,72,0.0,Clouds,broken clouds,9
Raposka,46.851389,17.412778,2026-03-11 10:06:04.285305,13.9,12.81,13.9,13.9,1022,56,4.94,203,31,0.0,Clouds,scattered clouds,9
Ivacs,47.641944,19.273889,2026-03-11 10:06:05.561353,13.11,11.78,13.11,13.11,1023,50,3.04,131,25,0.0,Clouds,scattered clouds,9
Kisköre-Tiszahíd,47.480835,20.507698,2026-03-11 10:06:06.839344,13.69,12.29,13.69,13.69,1024,45,4.73,178,28,0.0,Clouds,scattered clouds,9
Rozsály,47.912778,22.7825,2026-03-11 10:06:08.103946,14.53,12.85,14.53,14.53,1025,31,3.59,141,68,0.0,Clouds,broken clouds,9
Pusztakettős,47.453611,20.749722,2026-03-11 10:06:09.371205,13.7,12.27,13.7,13.7,1024,44,5.12,180,34,0.0,Clouds,scattered clouds,9
Kisvác,47.795278,19.113611,2026-03-11 10:06:10.640076,13.58,12.3,13.58,13.58,1023,50,3.15,132,29,0.0,Clouds,scattered clouds,9
Tiszafüred-Gyártelep,47.6075,20.736111,2026-03-11 10:06:11.913608,13.5,12.08,13.5,13.5,1024,45,4.57,182,47,0.0,Clouds,scattered clouds,9
Újkenéz,48.251111,22.221667,2026-03-11 10:06:13.184450,13.91,12.32,13.91,13.91,1025,37,3.45,156,18,0.0,Clouds,few clouds,9
Püspökladány-Vásártér,47.319167,21.096111,2026-03-11 10:06:14.454485,14.0,12.47,14.0,14.0,1024,39,4.15,174,22,0.0,Clouds,few clouds,9
Végegyháza alsó,46.3675,20.866944,2026-03-11 10:06:15.724435,14.9,13.39,14.9,14.9,1025,36,5.58,178,57,0.0,Clouds,broken clouds,9
Orosháza felső,46.553611,20.655278,2026-03-11 10:06:16.989090,14.74,13.26,14.74,14.74,1024,38,5.91,177,48,0.0,Clouds,scattered clouds,9
Ambrózfalva,46.353056,20.740556,2026-03-11 10:06:18.258754,14.87,13.38,14.87,14.87,1025,37,5.93,176,49,0.0,Clouds,scattered clouds,9
Alsónyék,46.199444,18.738056,2026-03-11 10:06:19.524262,14.44,13.3,14.44,14.44,1023,52,2.62,190,12,0.0,Clouds,few clouds,9
Tompapuszta,46.321389,20.966389,2026-03-11 10:06:20.793944,14.96,13.45,14.96,14.96,1025,36,5.3,178,69,0.0,Clouds,broken clouds,9
Halászlak,46.911879,20.56228,2026-03-11 10:06:22.060628,14.34,12.87,14.34,14.34,1024,40,5.77,178,21,0.0,Clouds,few clouds,9
Sirató,46.840556,20.61,2026-03-11 10:06:23.325271,14.45,13.0,14.45,14.45,1024,40,5.81,178,25,0.0,Clouds,scattered clouds,9
Csabacsűd felső,46.829167,20.649167,2026-03-11 10:06:24.601477,14.44,12.96,14.44,14.44,1024,39,5.79,178,27,0.0,Clouds,scattered clouds,9
Orosháza-Üveggyár,46.579979,20.683644,2026-03-11 10:06:25.868462,14.69,13.21,14.69,14.69,1025,38,5.88,177,48,0.0,Clouds,scattered clouds,9
Gyulai városerdő,46.69482,21.32281,2026-03-11 10:06:27.138708,14.72,13.19,14.72,14.72,1025,36,3.49,179,62,0.0,Clouds,broken clouds,9
Kórógyszentgyörgy,46.564377,20.224998,2026-03-11 10:06:28.414659,14.78,13.36,14.78,14.78,1024,40,5.28,173,40,0.0,Clouds,scattered clouds,9
Kunszállás,46.784444,19.767222,2026-03-11 10:06:29.682261,14.39,13.03,14.39,14.39,1024,44,4.09,169,23,0.0,Clouds,few clouds,9
Selymes,46.655321,19.8534,2026-03-11 10:06:30.948634,14.6,13.26,14.6,14.6,1024,44,4.2,170,18,0.0,Clouds,few clouds,9
Petőfiszállási tanyák,46.587805,19.874509,2026-03-11 10:06:32.223122,14.65,13.29,14.65,14.65,1024,43,4.27,171,20,0.0,Clouds,few clouds,9
Kisteleki szőlők,46.514199,19.92868,2026-03-11 10:06:33.495654,14.65,13.29,14.65,14.65,1024,43,4.44,172,27,0.0,Clouds,scattered clouds,9
Kapitányság,46.435336,19.987564,2026-03-11 10:06:34.769896,14.76,13.39,14.76,14.76,1024,42,4.66,172,35,0.0,Clouds,scattered clouds,9
Őszeszék,46.39025,20.016017,2026-03-11 10:06:36.044034,14.8,13.43,14.8,14.8,1024,42,4.76,173,37,0.0,Clouds,scattered clouds,9
Vilmaszállás,46.366389,20.030833,2026-03-11 10:06:37.313363,14.82,13.45,14.82,14.82,1024,42,4.76,173,37,0.0,Clouds,scattered clouds,9
Jánosszállás,46.334359,20.051199,2026-03-11 10:06:38.588637,14.83,13.47,14.83,14.83,1024,42,4.75,173,36,0.0,Clouds,scattered clouds,9
Felsőpakony,47.343056,19.230556,2026-03-11 10:06:39.852332,13.8,12.52,13.8,13.8,1023,49,2.72,153,26,0.0,Clouds,scattered clouds,9
Felsőméntelek,46.987074,19.557745,2026-03-11 10:06:41.130677,13.95,12.63,13.95,13.95,1023,47,3.69,167,47,0.0,Clouds,scattered clouds,9
Alsóméntelek,46.961558,19.579121,2026-03-11 10:06:42.403564,14.0,12.68,14.0,14.0,1023,47,3.71,168,46,0.0,Clouds,scattered clouds,9
Nagynyír,46.943319,19.585447,2026-03-11 10:06:43.676348,14.04,12.73,14.04,14.04,1023,47,3.71,168,44,0.0,Clouds,scattered clouds,9
Úrihegy,46.917778,19.621389,2026-03-11 10:06:44.947764,14.18,12.85,14.18,14.18,1024,46,3.78,168,41,0.0,Clouds,scattered clouds,9
Miklóstelep,46.913412,19.630913,2026-03-11 10:06:46.221745,14.26,12.94,14.26,14.26,1024,46,3.84,168,40,0.0,Clouds,scattered clouds,9
Tiszajenő alsó,47.016944,20.134444,2026-03-11 10:06:47.495500,14.15,12.77,14.15,14.15,1024,44,4.92,174,26,0.0,Clouds,scattered clouds,9
Óbög,46.987222,20.111111,2026-03-11 10:06:48.762403,14.2,12.82,14.2,14.2,1024,44,4.85,174,26,0.0,Clouds,scattered clouds,9
Árpádszállás,46.866456,19.989163,2026-03-11 10:06:50.038280,14.38,13.0,14.38,14.38,1023,43,4.6,172,23,0.0,Clouds,few clouds,9
Tőserdő,46.851111,19.980278,2026-03-11 10:06:51.305219,14.45,13.07,14.45,14.45,1023,43,4.61,172,22,0.0,Clouds,few clouds,9
Tiszaalpár felső,46.836256,19.976753,2026-03-11 10:06:52.579481,14.45,13.07,14.45,14.45,1023,43,4.61,172,22,0.0,Clouds,few clouds,9
Borsihalom,46.773056,19.92,2026-03-11 10:06:53.844949,14.51,13.14,14.51,14.51,1024,43,4.46,171,20,0.0,Clouds,few clouds,9
Petőfiváros,46.725556,19.848611,2026-03-11 10:06:55.110464,14.55,13.21,14.55,14.55,1024,44,4.22,170,19,0.0,Clouds,few clouds,9
Csorna,47.601944,17.248889,2026-03-11 10:06:56.385405,14.1,13.11,14.1,14.1,1021,59,4.11,183,12,0.0,Clouds,few clouds,9
Szorgalmatos,47.986667,21.366389,2026-03-11 10:06:57.657950,13.44,11.91,13.44,13.44,1024,41,2.86,184,76,0.0,Clouds,broken clouds,9
Fótfürdő,47.6225,19.200556,2026-03-11 10:06:58.923083,13.46,12.17,13.46,13.46,1023,50,2.57,130,27,0.0,Clouds,scattered clouds,9
Fenyveshegy,47.818333,19.068056,2026-03-11 10:07:00.190526,13.79,12.53,13.79,13.79,1023,50,2.94,130,30,0.0,Clouds,scattered clouds,9
Hűvösvölgy,47.541202,18.96351,2026-03-11 10:07:01.464091,12.51,11.12,12.51,12.51,1022,50,2.65,134,31,0.0,Clouds,scattered clouds,9
Hárshegy,47.535318,18.961433,2026-03-11 10:07:02.722411,12.51,11.12,12.51,12.51,1022,50,2.65,134,31,0.0,Clouds,scattered clouds,9
Szépjuhászné,47.528277,18.955246,2026-03-11 10:07:03.988636,12.23,10.81,12.23,12.23,1022,50,2.69,135,31,0.0,Clouds,scattered clouds,9
Jánoshegy,47.51433,18.95047,2026-03-11 10:07:05.263637,12.23,10.81,12.23,12.23,1022,50,2.69,135,31,0.0,Clouds,scattered clouds,9
Virágvölgy,47.505965,18.95876,2026-03-11 10:07:06.530390,12.45,11.06,12.45,12.45,1022,50,2.73,137,30,0.0,Clouds,scattered clouds,9
Csillebérc,47.498196,18.961694,2026-03-11 10:07:07.796029,12.45,11.06,12.45,12.45,1022,50,2.73,137,30,0.0,Clouds,scattered clouds,9
Normafa,47.5,18.970558,2026-03-11 10:07:09.075943,12.45,11.06,12.45,12.45,1022,50,2.73,137,30,0.0,Clouds,scattered clouds,9
Széchenyihegy,47.49413,18.977049,2026-03-11 10:07:10.343919,11.64,10.17,11.64,11.64,1022,50,2.57,137,30,0.0,Clouds,scattered clouds,9
Balatonfőkajár felső,47.031389,18.215278,2026-03-11 10:07:11.612145,13.35,12.26,13.35,13.35,1022,58,4.6,201,11,0.0,Clouds,few clouds,9
Piroska,47.148333,20.129722,2026-03-11 10:07:12.883446,13.93,12.55,13.93,13.93,1024,45,4.67,174,27,0.0,Clouds,scattered clouds,9
Somodor,46.4725,17.836667,2026-03-11 10:07:14.155199,13.61,12.46,13.61,13.61,1022,55,6.28,212,29,0.0,Clouds,scattered clouds,9
Középmező,45.995833,18.668889,2026-03-11 10:07:15.455495,14.63,13.56,14.63,14.63,1023,54,2.32,169,14,0.0,Clouds,few clouds,9
Jobbágyi,47.828889,19.6875,2026-03-11 10:07:16.728058,13.32,11.99,13.32,13.32,1023,49,3.09,132,27,0.0,Clouds,scattered clouds,9
Ferihegy,47.437222,19.223889,2026-03-11 10:07:17.999746,13.62,12.32,13.62,13.62,1023,49,2.42,145,26,0.0,Clouds,scattered clouds,9
Máriapócs,47.852778,22.019167,2026-03-11 10:07:19.276505,13.77,12.12,13.77,13.77,1025,35,2.62,144,11,0.0,Clouds,few clouds,9
Máriaudvar,47.751944,19.165,2026-03-11 10:07:20.547441,13.8,12.54,13.8,13.8,1023,50,3.04,130,28,0.0,Clouds,scattered clouds,9
Nagyberki,46.353333,18.004167,2026-03-11 10:07:21.827002,13.75,12.59,13.75,13.75,1023,54,5.26,215,47,0.0,Clouds,scattered clouds,9
Badacsonytomaj,46.804722,17.518056,2026-03-11 10:07:23.096664,13.72,12.61,13.72,13.72,1022,56,5.39,206,27,0.0,Clouds,scattered clouds,9
Badacsony,46.788611,17.506389,2026-03-11 10:07:24.365626,13.83,12.73,13.83,13.83,1022,56,5.47,208,29,0.0,Clouds,scattered clouds,9
Badacsonylábdihegy,46.793889,17.470833,2026-03-11 10:07:25.636125,13.83,12.73,13.83,13.83,1022,56,5.47,208,29,0.0,Clouds,scattered clouds,9
Badacsonytördemic-Szigliget,46.809722,17.469167,2026-03-11 10:07:26.903388,13.81,12.71,13.81,13.81,1022,56,5.33,206,28,0.0,Clouds,scattered clouds,9
Nemesgulács-Kisapáti,46.836944,17.476389,2026-03-11 10:07:28.174233,13.82,12.72,13.82,13.82,1022,56,5.2,203,27,0.0,Clouds,scattered clouds,9
Tapolca,46.877778,17.428611,2026-03-11 10:07:29.437523,13.85,12.75,13.85,13.85,1022,56,4.83,201,30,0.0,Clouds,scattered clouds,9
Uzsabánya alsó,46.898333,17.345278,2026-03-11 10:07:30.709894,12.84,11.64,12.84,12.84,1022,56,4.54,199,31,0.0,Clouds,scattered clouds,9
Uzsa,46.920278,17.331667,2026-03-11 10:07:31.983817,13.63,12.51,13.63,13.63,1022,56,4.48,196,30,0.0,Clouds,scattered clouds,9
Sümegi Bazaltbánya,46.9525,17.2925,2026-03-11 10:07:33.255474,13.67,12.58,13.67,13.67,1022,57,4.36,195,30,0.0,Clouds,scattered clouds,9
Sümeg,46.981111,17.270833,2026-03-11 10:07:34.523532,13.87,12.8,13.87,13.87,1022,57,4.19,195,29,0.0,Clouds,scattered clouds,9
Gógánfa,47.021111,17.207778,2026-03-11 10:07:35.787793,13.88,12.81,13.88,13.88,1021,57,4.14,193,27,0.0,Clouds,scattered clouds,9
Ukk,47.041944,17.195833,2026-03-11 10:07:37.057824,13.95,12.89,13.95,13.95,1021,57,4.08,193,26,0.0,Clouds,scattered clouds,9
Nemeskeresztúr,47.093611,17.183611,2026-03-11 10:07:38.321835,13.88,12.84,13.88,13.88,1021,58,4.08,190,24,0.0,Clouds,few clouds,9
Jánosháza,47.115833,17.171667,2026-03-11 10:07:39.592137,13.95,12.92,13.95,13.95,1021,58,4.09,188,23,0.0,Clouds,few clouds,9
Keszthely,46.758333,17.248056,2026-03-11 10:07:40.868618,13.98,12.87,13.98,13.98,1022,55,4.79,209,28,0.0,Clouds,scattered clouds,9
Alsógyenes,46.765844,17.276435,2026-03-11 10:07:42.149539,14.0,12.89,14.0,14.0,1022,55,5.0,209,31,0.0,Clouds,scattered clouds,9
Gyenesdiás,46.763333,17.292778,2026-03-11 10:07:43.418241,14.0,12.89,14.0,14.0,1022,55,5.0,209,31,0.0,Clouds,scattered clouds,9
Vonyarcvashegy,46.755278,17.318333,2026-03-11 10:07:44.685380,13.41,12.24,13.41,13.41,1022,55,5.11,209,32,0.0,Clouds,scattered clouds,9
Balatongyörök,46.751944,17.354444,2026-03-11 10:07:45.955696,13.96,12.87,13.96,13.96,1022,56,5.22,209,32,0.0,Clouds,scattered clouds,9
Becehegy,46.776111,17.372778,2026-03-11 10:07:47.229299,12.8,11.6,12.8,12.8,1022,56,5.09,207,32,0.0,Clouds,scattered clouds,9
Balatonederics,46.8025,17.385,2026-03-11 10:07:48.500385,12.74,11.53,12.74,12.74,1022,56,4.95,205,32,0.0,Clouds,scattered clouds,9
Dabronc,47.025766,17.167006,2026-03-11 10:07:49.769849,13.94,12.88,13.94,13.94,1021,57,4.06,195,26,0.0,Clouds,scattered clouds,9
Türje,46.994444,17.093611,2026-03-11 10:07:51.034710,13.96,12.9,13.96,13.96,1021,57,3.92,198,24,0.0,Clouds,few clouds,9
Zalabér-Batyk,46.983056,17.040833,2026-03-11 10:07:52.297387,14.1,13.08,14.1,14.1,1021,58,3.77,202,19,0.0,Clouds,few clouds,9
Pakod,46.959167,16.996667,2026-03-11 10:07:53.559666,14.02,12.99,14.02,14.02,1021,58,3.72,203,18,0.0,Clouds,few clouds,9
Pókaszepetk,46.924444,16.972222,2026-03-11 10:07:54.829929,14.13,13.09,14.13,14.13,1021,57,3.72,206,17,0.0,Clouds,few clouds,9
Kemendollár,46.905833,16.946667,2026-03-11 10:07:56.094615,13.85,12.81,13.85,13.85,1021,58,3.67,206,15,0.0,Clouds,few clouds,9
Zalaegerszeg,46.833056,16.848333,2026-03-11 10:07:57.365871,14.0,12.97,14.0,14.0,1021,58,3.34,211,10,0.0,Clear,clear sky,9
Bocfölde,46.780278,16.853611,2026-03-11 10:07:58.636825,14.07,13.02,14.07,14.07,1021,57,3.39,213,10,0.0,Clear,clear sky,9
Sárhida,46.755833,16.851389,2026-03-11 10:07:59.909751,13.31,12.18,13.31,13.31,1021,57,3.26,214,10,0.0,Clear,clear sky,9
Bak,46.7325,16.849167,2026-03-11 10:08:01.190417,13.73,12.65,13.73,13.73,1021,57,3.24,215,10,0.0,Clear,clear sky,9
Tófej,46.670833,16.801944,2026-03-11 10:08:02.474912,13.61,12.51,13.61,13.61,1021,57,3.13,218,10,0.0,Clear,clear sky,9
Gutorfölde,46.646944,16.739722,2026-03-11 10:08:03.740634,13.91,12.84,13.91,13.91,1021,57,3.0,220,11,0.0,Clouds,few clouds,9
Csömödér-Páka,46.608056,16.641111,2026-03-11 10:08:05.006524,14.2,13.19,14.2,14.2,1021,58,3.08,223,10,0.0,Clear,clear sky,9
Iklódbördőce,46.603056,16.604722,2026-03-11 10:08:06.279695,14.03,13.0,14.03,14.03,1021,58,3.18,223,10,0.0,Clear,clear sky,9
Lenti,46.621389,16.528611,2026-03-11 10:08:07.547721,14.22,13.21,14.22,14.22,1021,58,3.28,221,9,0.0,Clear,clear sky,9
Rédics,46.618056,16.471111,2026-03-11 10:08:08.817567,14.23,13.22,14.23,14.23,1021,58,3.36,220,9,0.0,Clear,clear sky,9
Zalalövő,46.845556,16.576389,2026-03-11 10:08:10.090923,13.95,12.94,13.95,13.95,1021,59,3.1,208,9,0.0,Clear,clear sky,9
Zalaegerszeg-Ola,46.849167,16.844722,2026-03-11 10:08:11.362476,14.0,12.97,14.0,14.0,1021,58,3.34,211,10,0.0,Clear,clear sky,9
Andráshida,46.863116,16.7792,2026-03-11 10:08:12.634417,13.97,12.94,13.97,13.97,1021,58,3.31,210,10,0.0,Clear,clear sky,9
Bagod,46.875,16.746111,2026-03-11 10:08:13.904633,14.08,13.06,14.08,14.08,1021,58,3.22,209,10,0.0,Clear,clear sky,9
Zalaszentgyörgy,46.872222,16.7125,2026-03-11 10:08:15.179262,14.05,13.05,14.05,14.05,1021,59,3.2,209,10,0.0,Clear,clear sky,9
Zalacséb-Salomvár,46.858056,16.662222,2026-03-11 10:08:16.459040,13.83,12.81,13.83,13.83,1021,59,3.16,208,10,0.0,Clear,clear sky,9
Kópháza,47.631389,16.6375,2026-03-11 10:08:17.733101,13.71,12.73,13.71,13.71,1021,61,0.91,28,11,0.0,Clouds,few clouds,9
Nagycenk,47.601111,16.690278,2026-03-11 10:08:18.996653,13.88,12.92,13.88,13.88,1021,61,0.24,57,11,0.0,Clouds,few clouds,9
Sopronkövesd,47.548333,16.748056,2026-03-11 10:08:20.259279,13.71,12.73,13.71,13.71,1021,61,1.31,189,12,0.0,Clouds,few clouds,9
Lövő,47.509444,16.7775,2026-03-11 10:08:21.535284,13.68,12.7,13.68,13.68,1021,61,2.22,190,12,0.0,Clouds,few clouds,9
Újkér,47.457778,16.786667,2026-03-11 10:08:22.806240,13.77,12.8,13.77,13.77,1021,61,2.64,191,12,0.0,Clouds,few clouds,9
Bük,47.388611,16.752222,2026-03-11 10:08:24.076070,13.87,12.91,13.87,13.87,1021,61,2.6,196,12,0.0,Clouds,few clouds,9
Acsád,47.308333,16.734722,2026-03-11 10:08:25.358433,13.62,12.63,13.62,13.62,1021,61,2.73,201,11,0.0,Clouds,few clouds,9
Salköveskút-Vassurány,47.291389,16.704167,2026-03-11 10:08:26.635097,13.67,12.69,13.67,13.67,1021,61,2.82,202,11,0.0,Clouds,few clouds,9
Zalaszentiván,46.8875,16.909444,2026-03-11 10:08:27.908435,14.04,13.01,14.04,14.04,1021,58,3.53,209,12,0.0,Clouds,few clouds,9
Alsónemesapáti,46.854167,16.936389,2026-03-11 10:08:29.176017,14.11,13.06,14.11,14.11,1021,57,3.68,209,14,0.0,Clouds,few clouds,9
Józsa,47.600833,21.584444,2026-03-11 10:08:30.441889,13.81,12.21,13.81,13.81,1025,37,2.16,177,19,0.0,Clouds,few clouds,9
Hajdúszentgyörgy,47.608056,21.578333,2026-03-11 10:08:31.708345,13.81,12.21,13.81,13.81,1025,37,2.16,177,19,0.0,Clouds,few clouds,9
Zelemér,47.627778,21.578333,2026-03-11 10:08:32.979999,13.73,12.12,13.73,13.73,1025,37,2.17,178,19,0.0,Clouds,few clouds,9
Hajdúböszörmény,47.668056,21.524167,2026-03-11 10:08:34.241710,13.69,12.11,13.69,13.69,1025,38,2.39,183,23,0.0,Clouds,few clouds,9
Hajdúvid,47.749444,21.508056,2026-03-11 10:08:35.510005,13.69,12.13,13.69,13.69,1024,39,2.61,187,30,0.0,Clouds,scattered clouds,9
Hajdúdorog,47.805556,21.493056,2026-03-11 10:08:36.776819,13.62,12.06,13.62,13.62,1024,39,2.68,188,37,0.0,Clouds,scattered clouds,9
Hajdúnánás,47.831944,21.426667,2026-03-11 10:08:38.043888,13.62,12.08,13.62,13.62,1024,40,2.91,190,47,0.0,Clouds,scattered clouds,9
Hajdúnánás-Vásártér,47.843056,21.407222,2026-03-11 10:08:39.314367,13.62,12.08,13.62,13.62,1024,40,2.91,190,47,0.0,Clouds,scattered clouds,9
Tedej,47.903611,21.404444,2026-03-11 10:08:40.586052,13.54,11.99,13.54,13.54,1024,40,2.92,188,61,0.0,Clouds,broken clouds,9
Tiszavasvári,47.945278,21.374722,2026-03-11 10:08:41.849523,13.47,11.94,13.47,13.47,1024,41,2.96,188,68,0.0,Clouds,broken clouds,9
Egyházerdő,47.9725,21.365,2026-03-11 10:08:43.118445,13.47,11.94,13.47,13.47,1024,41,2.92,186,73,0.0,Clouds,broken clouds,9
Tiszalök,48.013056,21.369167,2026-03-11 10:08:44.391311,13.41,11.88,13.41,13.41,1024,41,2.8,182,79,0.0,Clouds,broken clouds,9
Hajnalos,47.998889,21.414167,2026-03-11 10:08:45.666494,13.48,11.95,13.48,13.48,1024,41,2.83,184,74,0.0,Clouds,broken clouds,9
Kisfástanya,47.989167,21.47,2026-03-11 10:08:46.929277,13.48,11.93,13.48,13.48,1024,40,2.8,184,71,0.0,Clouds,broken clouds,9
Tiszaeszlár,48.010556,21.491944,2026-03-11 10:08:48.203710,13.52,11.97,13.52,13.52,1024,40,2.75,182,71,0.0,Clouds,broken clouds,9
Bashalom,48.026111,21.514722,2026-03-11 10:08:49.470893,13.54,11.99,13.54,13.54,1024,40,2.72,181,74,0.0,Clouds,broken clouds,9
Sáránd,47.415556,21.625,2026-03-11 10:08:50.740949,14.25,12.64,14.25,14.25,1025,35,2.03,174,14,0.0,Clouds,few clouds,9
Derecske,47.365,21.584167,2026-03-11 10:08:52.012071,14.22,12.61,14.22,14.22,1025,35,2.11,173,14,0.0,Clouds,few clouds,9
Derecske-Vásártér,47.352222,21.58,2026-03-11 10:08:53.292292,14.22,12.61,14.22,14.22,1025,35,2.11,173,14,0.0,Clouds,few clouds,9
Konyár,47.323611,21.666111,2026-03-11 10:08:54.560542,14.28,12.68,14.28,14.28,1025,35,1.92,176,14,0.0,Clouds,few clouds,9
Konyári Sóstófürdő,47.324167,21.744444,2026-03-11 10:08:55.829453,14.33,12.71,14.33,14.33,1025,34,1.67,182,16,0.0,Clouds,few clouds,9
Pocsaj-Esztár,47.288333,21.793056,2026-03-11 10:08:57.109514,14.36,12.74,14.36,14.36,1025,34,1.56,190,25,0.0,Clouds,scattered clouds,9
Kismarja,47.243889,21.813889,2026-03-11 10:08:58.375854,14.41,12.77,14.41,14.41,1025,33,1.61,192,33,0.0,Clouds,scattered clouds,9
Nagykereki,47.191667,21.8,2026-03-11 10:08:59.647970,14.43,12.79,14.43,14.43,1025,33,1.7,192,43,0.0,Clouds,scattered clouds,9
Debrecen-Szabadságtelep,47.527778,21.658611,2026-03-11 10:09:00.918241,14.12,12.5,14.12,14.12,1025,35,2.0,173,17,0.0,Clouds,few clouds,9
Kondoroskert,47.525556,21.713889,2026-03-11 10:09:02.187360,14.1,12.48,14.1,14.1,1025,35,1.85,169,16,0.0,Clouds,few clouds,9
Nagycsere,47.523889,21.763056,2026-03-11 10:09:03.454871,14.09,12.47,14.09,14.09,1025,35,1.82,168,15,0.0,Clouds,few clouds,9
Haláp,47.521667,21.818333,2026-03-11 10:09:04.722317,14.06,12.44,14.06,14.06,1025,35,1.79,166,15,0.0,Clouds,few clouds,9
Vámospércs,47.518056,21.893889,2026-03-11 10:09:05.987875,14.04,12.39,14.04,14.04,1025,34,1.71,156,14,0.0,Clouds,few clouds,9
Szentannapuszta,47.52,21.965833,2026-03-11 10:09:07.252506,14.1,12.45,14.1,14.1,1025,34,1.71,147,15,0.0,Clouds,few clouds,9
Nyírábrány,47.523889,22.016944,2026-03-11 10:09:08.516239,14.11,12.46,14.11,14.11,1025,34,1.74,143,16,0.0,Clouds,few clouds,9
Dombostanya,47.602778,21.706389,2026-03-11 10:09:09.792230,13.9,12.29,13.9,13.9,1025,36,1.98,171,17,0.0,Clouds,few clouds,9
Hajdúsámson,47.608056,21.755278,2026-03-11 10:09:11.062563,13.93,12.29,13.93,13.93,1025,35,1.9,162,14,0.0,Clouds,few clouds,9
Tamásipuszta,47.632778,21.796111,2026-03-11 10:09:12.329823,13.85,12.2,13.85,13.85,1025,35,1.94,157,13,0.0,Clouds,few clouds,9
Aradványpuszta,47.662778,21.8425,2026-03-11 10:09:13.593814,13.84,12.19,13.84,13.84,1025,35,2.01,151,12,0.0,Clouds,few clouds,9
Nyíradony,47.699444,21.903333,2026-03-11 10:09:14.867442,13.77,12.12,13.77,13.77,1025,35,2.35,138,11,0.0,Clouds,few clouds,9
Nyírmihálydi,47.7375,21.958889,2026-03-11 10:09:16.138245,13.76,12.11,13.76,13.76,1025,35,2.48,137,11,0.0,Clouds,few clouds,9
Nyírgelse,47.750833,21.987778,2026-03-11 10:09:17.411460,13.72,12.06,13.72,13.72,1025,35,2.6,136,12,0.0,Clouds,few clouds,9
Nyírbogát,47.793056,22.066389,2026-03-11 10:09:18.677441,13.81,12.16,13.81,13.81,1025,35,2.79,137,13,0.0,Clouds,few clouds,9
Nagykálló,47.871111,21.825833,2026-03-11 10:09:19.950444,13.73,12.12,13.73,13.73,1024,37,2.43,158,13,0.0,Clouds,few clouds,9
Kállósemjén,47.854722,21.935,2026-03-11 10:09:21.224447,13.76,12.13,13.76,13.76,1025,36,2.5,149,11,0.0,Clouds,few clouds,9
Nyírbátor,47.8425,22.131111,2026-03-11 10:09:22.487620,13.78,12.13,13.78,13.78,1025,35,2.78,138,13,0.0,Clouds,few clouds,9
Nyírcsászári,47.865556,22.179167,2026-03-11 10:09:23.753190,13.88,12.24,13.88,13.88,1025,35,2.78,139,14,0.0,Clouds,few clouds,9
Hodász,47.896111,22.213611,2026-03-11 10:09:25.015550,13.87,12.23,13.87,13.87,1025,35,2.75,140,15,0.0,Clouds,few clouds,9
Nyírmeggyes,47.9225,22.256667,2026-03-11 10:09:26.287986,13.93,12.29,13.93,13.93,1025,35,2.69,143,13,0.0,Clouds,few clouds,9
Mátészalka,47.951389,22.313333,2026-03-11 10:09:27.564950,14.01,12.38,14.01,14.01,1025,35,2.73,144,11,0.0,Clouds,few clouds,9
Kocsord,47.941944,22.375833,2026-03-11 10:09:28.846940,14.22,12.59,14.22,14.22,1025,34,2.93,141,14,0.0,Clouds,few clouds,9
Kocsord alsó,47.946389,22.400556,2026-03-11 10:09:30.110440,14.22,12.59,14.22,14.22,1025,34,2.93,141,14,0.0,Clouds,few clouds,9
Győrtelek,47.936667,22.424722,2026-03-11 10:09:31.384075,14.26,12.6,14.26,14.26,1025,33,3.01,141,15,0.0,Clouds,few clouds,9
Győrtelek alsó,47.921111,22.443333,2026-03-11 10:09:32.656386,14.31,12.66,14.31,14.31,1025,33,3.0,140,21,0.0,Clouds,few clouds,9
Ököritófülpös,47.911389,22.495,2026-03-11 10:09:33.926429,14.35,12.7,14.35,14.35,1025,33,3.07,141,23,0.0,Clouds,few clouds,9
Porcsalma-Tyukod,47.868056,22.568333,2026-03-11 10:09:35.195668,14.46,12.8,14.46,14.46,1025,32,2.94,141,42,0.0,Clouds,scattered clouds,9
Csenger,47.826111,22.666389,2026-03-11 10:09:36.464493,14.51,12.83,14.51,14.51,1025,31,2.87,141,52,0.0,Clouds,broken clouds,9
Kisfái,46.888303,19.807366,2026-03-11 10:09:37.731848,14.29,12.95,14.29,14.29,1024,45,4.16,169,31,0.0,Clouds,scattered clouds,9
Nyárlőrinci szőlők,46.8775,19.828333,2026-03-11 10:09:38.999555,14.34,12.98,14.34,14.34,1024,44,4.24,170,27,0.0,Clouds,scattered clouds,9
Nyárlőrinc alsó,46.863889,19.878889,2026-03-11 10:09:40.262384,14.31,12.95,14.31,14.31,1024,44,4.31,170,26,0.0,Clouds,scattered clouds,9
Tiszaug-Tiszahídfő,46.866106,20.052098,2026-03-11 10:09:41.526127,14.48,13.11,14.48,14.48,1023,43,4.67,172,23,0.0,Clouds,few clouds,9
Csongrádi úti tanyák,46.690278,19.921667,2026-03-11 10:09:42.791982,14.64,13.28,14.64,14.64,1024,43,4.46,172,20,0.0,Clouds,few clouds,9
Kettőshalom,46.689167,20.0225,2026-03-11 10:09:44.055780,14.7,13.3,14.7,14.7,1023,41,4.69,173,22,0.0,Clouds,few clouds,9
Csongrád alsó,46.711389,20.126389,2026-03-11 10:09:45.321402,14.77,13.32,14.77,14.77,1023,39,4.93,173,24,0.0,Clouds,few clouds,9
Dónát,46.66988,20.368168,2026-03-11 10:09:46.585430,14.7,13.27,14.7,14.7,1024,40,5.59,175,30,0.0,Clouds,scattered clouds,9
Pusztatemplom,46.676667,20.407222,2026-03-11 10:09:47.858673,14.68,13.25,14.68,14.68,1024,40,5.71,176,30,0.0,Clouds,scattered clouds,9
Előhát,47.364722,20.653611,2026-03-11 10:09:49.135098,13.77,12.35,13.77,13.77,1024,44,5.26,179,25,0.0,Clouds,scattered clouds,9
Polgárdi-Tekerespuszta,47.017778,18.297778,2026-03-11 10:09:50.400625,13.41,12.29,13.41,13.41,1022,57,4.66,199,11,0.0,Clouds,few clouds,9
Szatina-Kishajmás,46.202778,18.083611,2026-03-11 10:09:51.671913,13.65,12.48,13.65,13.65,1023,54,3.85,207,54,0.0,Clouds,broken clouds,9
Márok,45.886944,18.499167,2026-03-11 10:09:52.944037,14.4,13.36,14.4,14.4,1023,56,2.59,162,25,0.0,Clouds,scattered clouds,9
Nagynyárád,45.953333,18.564722,2026-03-11 10:09:54.217115,14.43,13.34,14.43,14.43,1023,54,2.5,164,22,0.0,Clouds,few clouds,9
Szászvár,46.2875,18.369722222222222,2026-03-11 10:09:55.482921,13.69,12.47,13.69,13.69,1023,52,3.43,215,28,0.0,Clouds,scattered clouds,9
Cikó,46.263514,18.557605,2026-03-11 10:09:56.753628,14.11,12.91,14.11,14.11,1023,51,2.89,204,19,0.0,Clouds,few clouds,9
Gyöngyfa-Magyarmecske,45.983889,17.958889,2026-03-11 10:09:58.025929,14.53,13.45,14.53,14.53,1023,54,3.18,181,60,0.0,Clouds,broken clouds,9
Nagyhát,47.581389,21.445,2026-03-11 10:09:59.296986,13.85,12.26,13.85,13.85,1025,37,2.47,177,22,0.0,Clouds,few clouds,9
Balmazújváros,47.613889,21.348056,2026-03-11 10:10:00.564706,13.82,12.28,13.82,13.82,1024,39,3.03,182,29,0.0,Clouds,scattered clouds,9
Kónya,47.600833,21.2375,2026-03-11 10:10:01.830448,13.76,12.24,13.76,13.76,1024,40,3.41,182,32,0.0,Clouds,scattered clouds,9
Hortobágy,47.586111,21.154722,2026-03-11 10:10:03.103239,13.71,12.21,13.71,13.71,1024,41,3.85,183,39,0.0,Clouds,scattered clouds,9
Hortobágyi Halastó,47.604167,21.074167,2026-03-11 10:10:04.369389,13.64,12.16,13.64,13.64,1024,42,4.11,185,42,0.0,Clouds,scattered clouds,9
