station_name,station_lat,station_lon,observation_time,temp,feels_like,temp_min,temp_max,pressure,humidity,wind_speed,wind_deg,clouds,precipitation_1h,weather_main,weather_description,collection_hour
Búcsúszentlászló,46.793056,16.932778,2026-03-07 18:43:30.393084,8.99,8.99,8.99,8.99,1026,59,1.17,121,0,0.0,Clear,clear sky,18
Angyalföld,47.549722,19.09,2026-03-07 18:43:31.589191,6.53,5.86,6.53,6.53,1026,47,1.37,70,0,0.0,Clear,clear sky,18
Felsőjánosfa,46.841389,16.544167,2026-03-07 18:43:32.791386,8.64,7.7,8.64,8.64,1026,62,1.9,125,0,0.0,Clear,clear sky,18
Pankasz,46.835833,16.496111,2026-03-07 18:43:33.992707,8.3,7.21,8.3,8.3,1026,62,2.0,125,0,0.0,Clear,clear sky,18
Nagyrákos,46.827222,16.455556,2026-03-07 18:43:35.192058,8.23,7.1,8.23,8.23,1026,62,2.04,126,0,0.0,Clear,clear sky,18
Őriszentpéter,46.828889,16.415278,2026-03-07 18:43:36.388278,8.31,7.16,8.31,8.31,1026,62,2.07,126,0,0.0,Clear,clear sky,18
Törökbálint,47.45,18.908611,2026-03-07 18:43:37.586470,6.47,5.3,6.47,6.47,1026,47,1.78,75,0,0.0,Clear,clear sky,18
Bicske alsó,47.486389,18.642778,2026-03-07 18:43:38.781772,6.67,5.93,6.67,6.67,1026,51,1.44,80,0,0.0,Clear,clear sky,18
Bajánsenye,46.818056,16.358056,2026-03-07 18:43:39.977288,8.35,7.17,8.35,8.35,1026,63,2.12,125,0,0.0,Clear,clear sky,18
Aquincum,47.566218,19.048273,2026-03-07 18:43:41.178540,6.1,6.1,6.1,6.1,1026,49,1.24,68,0,0.0,Clear,clear sky,18
Piliscsév,47.673889,18.791389,2026-03-07 18:43:42.378610,6.4,6.4,6.4,6.4,1026,54,1.11,85,0,0.0,Clear,clear sky,18
Tát,47.741201,18.64783,2026-03-07 18:43:43.585670,7.28,7.28,7.28,7.28,1026,55,1.27,108,0,0.0,Clear,clear sky,18
Süttő felső,47.756667,18.437222,2026-03-07 18:43:44.781279,7.6,6.91,7.6,7.6,1026,53,1.5,117,0,0.0,Clear,clear sky,18
Budatétény,47.405,19.016389,2026-03-07 18:43:45.979774,6.67,5.33,6.67,6.67,1026,47,1.98,75,0,0.0,Clear,clear sky,18
Seregélyes-Szőlőhegy,47.119444,18.612222,2026-03-07 18:43:47.190414,7.19,5.74,7.19,7.19,1026,50,2.2,95,0,0.0,Clear,clear sky,18
Gödöllő-Állami telepek,47.564444,19.375556,2026-03-07 18:43:48.395895,6.18,5.41,6.18,6.18,1026,50,1.41,71,0,0.0,Clear,clear sky,18
Dunakeszi alsó,47.607778,19.128889,2026-03-07 18:43:49.602719,6.54,6.54,6.54,6.54,1026,49,1.17,66,0,0.0,Clear,clear sky,18
Vác-Alsóváros,47.773056,19.149722,2026-03-07 18:43:50.805508,6.78,6.78,6.78,6.78,1027,55,0.5,83,0,0.0,Clear,clear sky,18
Szob alsó,47.816667,18.8725,2026-03-07 18:43:52.006002,7.08,7.08,7.08,7.08,1027,56,0.96,101,0,0.0,Clear,clear sky,18
Zalaszentmihály-Pacsa,46.7225,16.951944,2026-03-07 18:43:53.200833,8.96,8.96,8.96,8.96,1026,59,1.09,123,0,0.0,Clear,clear sky,18
Pötréte,46.682778,16.9575,2026-03-07 18:43:54.396842,8.95,8.95,8.95,8.95,1026,58,1.09,127,0,0.0,Clear,clear sky,18
Felsőrajk,46.667222,16.982778,2026-03-07 18:43:55.598825,8.94,8.94,8.94,8.94,1026,58,1.12,127,0,0.0,Clear,clear sky,18
Gelse,46.600556,16.982778,2026-03-07 18:43:56.796374,8.89,8.89,8.89,8.89,1026,57,1.26,133,0,0.0,Clear,clear sky,18
Őrtilos,46.297778,16.887778,2026-03-07 18:43:58.002188,8.81,7.8,8.81,8.81,1026,55,2.01,133,0,0.0,Clear,clear sky,18
Zákány,46.251944,16.9425,2026-03-07 18:43:59.199796,8.65,7.5,8.65,8.65,1026,53,2.14,127,0,0.0,Clear,clear sky,18
Berzence,46.201389,17.143611,2026-03-07 18:44:00.400555,9.14,8.07,9.14,9.14,1026,49,2.15,120,0,0.0,Clear,clear sky,18
Somogyudvarhely,46.163333,17.179722,2026-03-07 18:44:01.604044,9.11,8.07,9.11,9.11,1026,49,2.1,118,0,0.0,Clear,clear sky,18
Bélavár,46.122778,17.207778,2026-03-07 18:44:02.811781,9.1,8.16,9.1,9.1,1026,50,1.98,116,0,0.0,Clear,clear sky,18
Vízvár,46.101389,17.239444,2026-03-07 18:44:04.012024,8.97,8.04,8.97,8.97,1026,50,1.94,114,0,0.0,Clear,clear sky,18
Babócsa,46.028359,17.342276,2026-03-07 18:44:05.222395,8.93,8.02,8.93,8.93,1026,51,1.92,110,0,0.0,Clear,clear sky,18
Péterhida-Komlósd,46.006667,17.358056,2026-03-07 18:44:06.425940,8.95,8.03,8.95,8.95,1026,52,1.93,109,0,0.0,Clear,clear sky,18
Barcs,45.951944,17.446944,2026-03-07 18:44:07.635669,8.96,8.02,8.96,8.96,1026,52,1.96,112,0,0.0,Clear,clear sky,18
Barcs felső,45.958333,17.486389,2026-03-07 18:44:08.836788,8.9,7.94,8.9,8.9,1026,52,1.97,112,0,0.0,Clear,clear sky,18
Középrigóc,45.970556,17.525,2026-03-07 18:44:10.032726,8.84,7.86,8.84,8.84,1026,52,1.98,112,0,0.0,Clear,clear sky,18
Darány,45.992222,17.598611,2026-03-07 18:44:11.244258,8.96,8.02,8.96,8.96,1026,51,1.96,104,0,0.0,Clear,clear sky,18
Kisdobsza,46.012222,17.668056,2026-03-07 18:44:12.453275,9.07,8.15,9.07,9.07,1026,50,1.95,95,0,0.0,Clear,clear sky,18
Nemeske,46.023333,17.705278,2026-03-07 18:44:13.662105,9.12,8.22,9.12,9.12,1026,50,1.94,93,0,0.0,Clear,clear sky,18
Molvány,46.035278,17.748611,2026-03-07 18:44:14.863097,9.11,8.21,9.11,9.11,1026,50,1.94,86,0,0.0,Clear,clear sky,18
Szigetvár,46.043333,17.801944,2026-03-07 18:44:16.070094,9.11,8.21,9.11,9.11,1026,50,1.94,84,0,0.0,Clear,clear sky,18
Nagypeterd,46.039444,17.871667,2026-03-07 18:44:17.283460,9.12,8.19,9.12,9.12,1026,50,1.97,79,0,0.0,Clear,clear sky,18
Szentdénes,46.036667,17.926944,2026-03-07 18:44:18.487188,9.06,8.12,9.06,9.06,1026,50,1.97,77,0,0.0,Clear,clear sky,18
Háros,47.412222,19.035,2026-03-07 18:44:19.692919,6.67,5.33,6.67,6.67,1026,47,1.98,75,0,0.0,Clear,clear sky,18
Nagytétény-Diósd,47.398333,18.974444,2026-03-07 18:44:20.893547,6.96,5.57,6.96,6.96,1026,47,2.09,76,0,0.0,Clear,clear sky,18
Érdliget,47.390278,18.937778,2026-03-07 18:44:22.087725,6.87,5.51,6.87,6.87,1026,48,2.04,77,0,0.0,Clear,clear sky,18
Érd felső,47.381111,18.922222,2026-03-07 18:44:23.282495,6.53,5.14,6.53,6.53,1026,48,2.01,77,0,0.0,Clear,clear sky,18
Érd,47.369722,18.900833,2026-03-07 18:44:24.492319,6.7,5.23,6.7,6.7,1026,48,2.13,78,0,0.0,Clear,clear sky,18
Százhalombatta,47.322222,18.899167,2026-03-07 18:44:25.691134,6.75,5.14,6.75,6.75,1026,49,2.3,81,0,0.0,Clear,clear sky,18
Dunai Finomító,47.294444,18.878889,2026-03-07 18:44:26.892120,6.67,5.07,6.67,6.67,1026,50,2.27,83,0,0.0,Clear,clear sky,18
Ercsi,47.247222,18.875278,2026-03-07 18:44:28.088596,6.81,5.2,6.81,6.81,1026,50,2.31,85,0,0.0,Clear,clear sky,18
Iváncsa,47.177778,18.811944,2026-03-07 18:44:29.292525,6.89,5.28,6.89,6.89,1026,51,2.33,90,0,0.0,Clear,clear sky,18
Pusztaszabolcs,47.139722,18.761667,2026-03-07 18:44:30.486943,7.05,5.45,7.05,7.05,1026,50,2.35,95,0,0.0,Clear,clear sky,18
Szabadegyháza,47.082778,18.704167,2026-03-07 18:44:31.685647,7.13,5.53,7.13,7.13,1026,49,2.36,98,0,0.0,Clear,clear sky,18
Sárosd,47.039722,18.660278,2026-03-07 18:44:32.882278,7.27,5.69,7.27,7.27,1026,49,2.37,100,0,0.0,Clear,clear sky,18
Nagylók,46.979444,18.635833,2026-03-07 18:44:34.090882,7.25,5.66,7.25,7.25,1026,48,2.38,103,0,0.0,Clear,clear sky,18
Sárbogárd,46.896944,18.611944,2026-03-07 18:44:35.286800,7.61,6.18,7.61,7.61,1026,47,2.26,103,0,0.0,Clear,clear sky,18
Rétszilas,46.814167,18.601389,2026-03-07 18:44:36.485849,7.79,6.57,7.79,7.79,1026,46,2.05,102,0,0.0,Clear,clear sky,18
Nagyatád,46.228611,17.354167,2026-03-07 18:44:37.688371,9.24,8.29,9.24,9.24,1026,47,2.02,112,0,0.0,Clear,clear sky,18
Budapest-Keleti,47.500278,19.084167,2026-03-07 18:44:38.891878,6.71,5.78,6.71,6.71,1026,46,1.6,73,0,0.0,Clear,clear sky,18
Ferencváros,47.468611,19.088056,2026-03-07 18:44:40.088108,6.89,5.83,6.89,6.89,1026,46,1.74,74,0,0.0,Clear,clear sky,18
Budapest-Nyugati,47.510833,19.0575,2026-03-07 18:44:41.282921,6.64,5.84,6.64,6.64,1026,47,1.48,71,0,0.0,Clear,clear sky,18
Kőbánya felső,47.491944,19.133889,2026-03-07 18:44:42.478414,6.68,5.68,6.68,6.68,1026,46,1.66,73,0,0.0,Clear,clear sky,18
Rákos,47.488889,19.174722,2026-03-07 18:44:43.681189,6.65,5.62,6.65,6.65,1026,46,1.68,73,0,0.0,Clear,clear sky,18
Rákosrendező,47.525556,19.089444,2026-03-07 18:44:44.880245,6.63,5.79,6.63,6.63,1026,47,1.51,72,0,0.0,Clear,clear sky,18
Zugló,47.511389,19.101389,2026-03-07 18:44:46.079346,6.63,5.79,6.63,6.63,1026,47,1.51,72,0,0.0,Clear,clear sky,18
Mezőtárkány,47.725,20.480278,2026-03-07 18:44:47.280745,7.64,6.37,7.64,7.64,1027,59,2.08,66,0,0.0,Clear,clear sky,18
Istvántelek,47.550278,19.106389,2026-03-07 18:44:48.478655,6.53,5.86,6.53,6.53,1026,47,1.37,70,0,0.0,Clear,clear sky,18
Rákospalota-Újpest,47.565833,19.111944,2026-03-07 18:44:49.677924,6.44,6.44,6.44,6.44,1026,48,1.26,68,0,0.0,Clear,clear sky,18
Kőbánya alsó,47.483056,19.127222,2026-03-07 18:44:50.877333,6.68,5.68,6.68,6.68,1026,46,1.66,73,0,0.0,Clear,clear sky,18
Kőbánya-Kispest,47.463889,19.149444,2026-03-07 18:44:52.078005,6.74,5.58,6.74,6.74,1026,46,1.81,74,0,0.0,Clear,clear sky,18
Pestszentlőrinc,47.454722,19.182778,2026-03-07 18:44:53.281995,6.71,5.38,6.71,6.71,1026,46,1.98,74,0,0.0,Clear,clear sky,18
Kispest,47.448135,19.157552,2026-03-07 18:44:54.481476,6.81,5.51,6.81,6.81,1026,46,1.96,74,0,0.0,Clear,clear sky,18
Újpest,47.558889,19.079722,2026-03-07 18:44:55.676147,6.53,5.88,6.53,6.53,1026,47,1.35,70,0,0.0,Clear,clear sky,18
Pestszentimre felső,47.413611,19.173333,2026-03-07 18:44:56.883298,6.73,5.25,6.73,6.73,1026,46,2.14,74,0,0.0,Clear,clear sky,18
Dunakeszi,47.626111,19.136111,2026-03-07 18:44:58.084065,6.51,6.51,6.51,6.51,1026,50,1.07,64,0,0.0,Clear,clear sky,18
Dunakeszi-Gyártelep,47.643611,19.135,2026-03-07 18:44:59.291191,6.6,6.6,6.6,6.6,1026,51,0.97,62,0,0.0,Clear,clear sky,18
Alsógöd,47.676944,19.134444,2026-03-07 18:45:00.491162,6.66,6.66,6.66,6.66,1026,52,0.87,61,0,0.0,Clear,clear sky,18
Göd,47.687778,19.1375,2026-03-07 18:45:01.702638,6.66,6.66,6.66,6.66,1026,52,0.87,61,0,0.0,Clear,clear sky,18
Felsőgöd,47.705556,19.143333,2026-03-07 18:45:02.907908,6.76,6.76,6.76,6.76,1026,53,0.78,61,0,0.0,Clear,clear sky,18
Sződ-Sződliget,47.728056,19.154722,2026-03-07 18:45:04.110598,6.82,6.82,6.82,6.82,1026,53,0.68,64,0,0.0,Clear,clear sky,18
Vác,47.782778,19.133056,2026-03-07 18:45:05.310671,6.78,6.78,6.78,6.78,1027,55,0.5,83,0,0.0,Clear,clear sky,18
Verőce,47.823889,19.029444,2026-03-07 18:45:06.516751,6.22,6.22,6.22,6.22,1027,56,0.63,113,0,0.0,Clear,clear sky,18
Kismaros,47.8275,19.010278,2026-03-07 18:45:07.712188,5.47,5.47,5.47,5.47,1027,56,0.68,111,0,0.0,Clear,clear sky,18
Nagymaros-Visegrád,47.791389,18.959167,2026-03-07 18:45:08.909539,5.79,5.79,5.79,5.79,1027,56,0.74,90,0,0.0,Clear,clear sky,18
Nagymaros,47.780278,18.952222,2026-03-07 18:45:10.111365,5.79,5.79,5.79,5.79,1027,56,0.74,90,0,0.0,Clear,clear sky,18
Zebegény,47.801389,18.908889,2026-03-07 18:45:11.314181,6.59,6.59,6.59,6.59,1027,56,0.8,100,0,0.0,Clear,clear sky,18
Szob,47.821111,18.861944,2026-03-07 18:45:12.518413,6.57,6.57,6.57,6.57,1027,56,0.97,107,0,0.0,Clear,clear sky,18
Alagimajor,47.601944,19.153889,2026-03-07 18:45:13.723718,6.54,6.54,6.54,6.54,1026,49,1.17,66,0,0.0,Clear,clear sky,18
Fót,47.611389,19.181667,2026-03-07 18:45:14.925491,6.39,6.39,6.39,6.39,1026,50,1.08,64,0,0.0,Clear,clear sky,18
Fótújfalu,47.615,19.192778,2026-03-07 18:45:16.138735,6.39,6.39,6.39,6.39,1026,50,1.08,64,0,0.0,Clear,clear sky,18
Csomád,47.635556,19.222778,2026-03-07 18:45:17.350578,5.67,5.67,5.67,5.67,1026,50,1.1,65,0,0.0,Clear,clear sky,18
Veresegyház,47.649167,19.288611,2026-03-07 18:45:18.554487,6.38,6.38,6.38,6.38,1026,51,1.04,64,0,0.0,Clear,clear sky,18
Erdőkertes,47.662222,19.295833,2026-03-07 18:45:19.750127,6.38,6.38,6.38,6.38,1026,51,1.04,64,0,0.0,Clear,clear sky,18
Őrbottyán,47.685833,19.283611,2026-03-07 18:45:20.950186,6.23,6.23,6.23,6.23,1026,51,0.94,63,0,0.0,Clear,clear sky,18
Váchartyán,47.725833,19.248889,2026-03-07 18:45:22.152026,6.34,6.34,6.34,6.34,1026,53,0.72,65,0,0.0,Clear,clear sky,18
Magyarkút-Verőce,47.826111,19.044444,2026-03-07 18:45:23.357602,6.22,6.22,6.22,6.22,1027,56,0.63,113,0,0.0,Clear,clear sky,18
Szokolya,47.871111,19.030556,2026-03-07 18:45:24.557385,5.65,5.65,5.65,5.65,1027,56,0.76,133,0,0.0,Clear,clear sky,18
Berkenye,47.885278,19.071944,2026-03-07 18:45:25.767108,6.36,6.36,6.36,6.36,1027,56,0.74,138,0,0.0,Clear,clear sky,18
Nógrád,47.901944,19.0475,2026-03-07 18:45:26.966703,6.07,6.07,6.07,6.07,1027,56,0.84,139,0,0.0,Clear,clear sky,18
Diósjenő,47.94,19.049444,2026-03-07 18:45:28.165351,5.76,5.76,5.76,5.76,1027,55,0.91,143,0,0.0,Clear,clear sky,18
Borsosberény,47.971389,19.093056,2026-03-07 18:45:29.371568,6.51,6.51,6.51,6.51,1027,55,1.0,160,0,0.0,Clear,clear sky,18
Nagyoroszi,47.993611,19.101111,2026-03-07 18:45:30.578269,6.43,6.43,6.43,6.43,1027,55,1.02,161,0,0.0,Clear,clear sky,18
Drégelyvár,48.001944,19.079444,2026-03-07 18:45:31.792530,6.76,6.76,6.76,6.76,1027,55,0.97,148,0,0.0,Clear,clear sky,18
Drégely,48.042222,19.056111,2026-03-07 18:45:32.990723,7.19,7.19,7.19,7.19,1027,55,0.91,144,0,0.0,Clear,clear sky,18
Drégelypalánk,48.055,19.046111,2026-03-07 18:45:34.190968,7.42,7.42,7.42,7.42,1027,55,0.87,132,0,0.0,Clear,clear sky,18
Ipolyvece,48.056944,19.106389,2026-03-07 18:45:35.386959,7.35,7.35,7.35,7.35,1027,56,0.79,155,0,0.0,Clear,clear sky,18
Dejtár,48.045556,19.196389,2026-03-07 18:45:36.590125,7.19,7.19,7.19,7.19,1027,55,0.92,170,0,0.0,Clear,clear sky,18
Ipolyszög,48.054444,19.221944,2026-03-07 18:45:37.799145,7.25,7.25,7.25,7.25,1027,56,0.79,176,0,0.0,Clear,clear sky,18
Iklad-Domony,47.658056,19.444444,2026-03-07 18:45:39.000991,6.72,6.72,6.72,6.72,1026,52,1.18,68,0,0.0,Clear,clear sky,18
Iklad-Domony felső,47.667778,19.428056,2026-03-07 18:45:40.210841,6.69,6.69,6.69,6.69,1026,52,1.03,67,0,0.0,Clear,clear sky,18
Galgamácsa,47.693889,19.3925,2026-03-07 18:45:41.415114,6.41,6.41,6.41,6.41,1026,52,0.87,66,0,0.0,Clear,clear sky,18
Vácrátót,47.732778,19.217778,2026-03-07 18:45:42.621387,6.58,6.58,6.58,6.58,1026,53,0.69,63,0,0.0,Clear,clear sky,18
Csörög,47.735833,19.196389,2026-03-07 18:45:43.827998,6.78,6.78,6.78,6.78,1026,53,0.68,63,0,0.0,Clear,clear sky,18
Galgagyörk,47.735278,19.372222,2026-03-07 18:45:45.025034,6.52,6.52,6.52,6.52,1026,53,0.78,68,0,0.0,Clear,clear sky,18
Püspökhatvan,47.768611,19.366944,2026-03-07 18:45:46.223137,6.59,6.59,6.59,6.59,1027,53,0.59,83,0,0.0,Clear,clear sky,18
Acsa-Erdőkürt,47.801111,19.386111,2026-03-07 18:45:47.427985,6.46,6.46,6.46,6.46,1027,54,0.54,99,0,0.0,Clear,clear sky,18
Galgaguta,47.848611,19.385556,2026-03-07 18:45:48.623566,6.24,6.24,6.24,6.24,1027,54,0.59,133,0,0.0,Clear,clear sky,18
Nógrádkövesd,47.879444,19.371111,2026-03-07 18:45:49.834135,6.45,6.45,6.45,6.45,1027,55,0.67,145,0,0.0,Clear,clear sky,18
Magyarnándor,47.970833,19.356667,2026-03-07 18:45:51.029652,6.45,6.45,6.45,6.45,1027,56,0.93,168,0,0.0,Clear,clear sky,18
Mohora,47.995556,19.347778,2026-03-07 18:45:52.235144,6.61,6.61,6.61,6.61,1027,56,0.94,171,0,0.0,Clear,clear sky,18
Szügy,48.036389,19.333056,2026-03-07 18:45:53.436653,6.95,6.95,6.95,6.95,1027,57,0.82,179,0,0.0,Clear,clear sky,18
Balassagyarmat,48.071111,19.293611,2026-03-07 18:45:54.630519,7.12,7.12,7.12,7.12,1027,57,0.73,185,0,0.0,Clear,clear sky,18
Őrhalom,48.078773,19.403936,2026-03-07 18:45:55.833095,6.87,6.87,6.87,6.87,1027,59,0.42,198,0,0.0,Clear,clear sky,18
Hugyag,48.083056,19.421111,2026-03-07 18:45:57.041124,6.87,6.87,6.87,6.87,1027,59,0.42,198,0,0.0,Clear,clear sky,18
Szécsény,48.093056,19.521111,2026-03-07 18:45:58.238610,7.06,7.06,7.06,7.06,1027,60,0.33,191,0,0.0,Clear,clear sky,18
Ludányhalászi,48.1325,19.529444,2026-03-07 18:45:59.440019,7.13,7.13,7.13,7.13,1027,61,0.27,253,0,0.0,Clear,clear sky,18
Nógrádszakál,48.178333,19.521667,2026-03-07 18:46:00.642254,7.14,7.14,7.14,7.14,1027,61,0.35,280,0,0.0,Clear,clear sky,18
Ráróspuszta,48.207222,19.541389,2026-03-07 18:46:01.848024,6.69,6.69,6.69,6.69,1027,62,0.57,306,0,0.0,Clear,clear sky,18
Litke,48.215833,19.598611,2026-03-07 18:46:03.055386,7.14,7.14,7.14,7.14,1027,64,0.33,301,0,0.0,Clear,clear sky,18
Nyíregyháza külső,47.943056,21.740278,2026-03-07 18:46:04.250712,7.38,6.24,7.38,7.38,1027,59,1.89,44,0,0.0,Clear,clear sky,18
Oros,47.945833,21.806389,2026-03-07 18:46:05.443952,7.42,6.36,7.42,7.42,1027,58,1.82,43,0,0.0,Clear,clear sky,18
Napkor,47.948889,21.873056,2026-03-07 18:46:06.651071,7.45,6.54,7.45,7.45,1027,57,1.68,39,0,0.0,Clear,clear sky,18
Apagy,47.953775,21.939044,2026-03-07 18:46:07.846397,7.47,6.59,7.47,7.47,1027,57,1.65,39,0,0.0,Clear,clear sky,18
Levelek-Magy,47.948056,21.993611,2026-03-07 18:46:09.046910,7.43,6.6,7.43,7.43,1027,56,1.6,38,0,0.0,Clear,clear sky,18
Ófehértó,47.940556,22.041389,2026-03-07 18:46:10.246460,7.36,6.51,7.36,7.36,1027,56,1.61,40,0,0.0,Clear,clear sky,18
Ligettanya,47.951667,22.071389,2026-03-07 18:46:11.443144,7.28,6.52,7.28,7.28,1027,56,1.52,35,0,0.0,Clear,clear sky,18
Baktalórántháza,47.988611,22.083333,2026-03-07 18:46:12.630907,7.27,6.51,7.27,7.27,1027,56,1.52,37,0,0.0,Clear,clear sky,18
Vaja-Rohod,48.006389,22.164167,2026-03-07 18:46:13.832123,7.21,6.58,7.21,7.21,1027,57,1.41,26,0,0.0,Clear,clear sky,18
Rákóczitanya,48.022222,22.178333,2026-03-07 18:46:15.034723,7.15,6.51,7.15,7.15,1027,57,1.41,23,0,0.0,Clear,clear sky,18
Nyírmada,48.059167,22.203056,2026-03-07 18:46:16.242358,7.11,6.55,7.11,7.11,1027,57,1.34,17,0,0.0,Clear,clear sky,18
Tunyogmatolcs,47.960244,22.442247,2026-03-07 18:46:17.443950,7.22,6.45,7.22,7.22,1027,59,1.52,12,0,0.0,Clear,clear sky,18
Tunyogmatolcs alsó,47.966025,22.464713,2026-03-07 18:46:18.646558,7.19,6.39,7.19,7.19,1027,59,1.55,10,0,0.0,Clear,clear sky,18
Fehérgyarmat,47.979167,22.524444,2026-03-07 18:46:19.842314,7.15,6.29,7.15,7.15,1027,59,1.59,3,0,0.0,Clear,clear sky,18
Penyige,47.995278,22.566944,2026-03-07 18:46:21.037867,7.15,6.28,7.15,7.15,1027,59,1.6,3,0,0.0,Clear,clear sky,18
Nagyszekeres,47.976111,22.6125,2026-03-07 18:46:22.249828,7.11,6.23,7.11,7.11,1027,59,1.61,1,0,0.0,Clear,clear sky,18
Kisszekeres,47.965833,22.629444,2026-03-07 18:46:23.450950,7.12,6.23,7.12,7.12,1027,59,1.62,5,0,0.0,Clear,clear sky,18
Jánkmajtis,47.941944,22.657222,2026-03-07 18:46:24.671747,7.1,6.19,7.1,7.1,1027,59,1.63,7,0,0.0,Clear,clear sky,18
Gacsály,47.926111,22.745,2026-03-07 18:46:25.880876,7.07,6.14,7.07,7.07,1027,58,1.65,6,0,0.0,Clear,clear sky,18
Zajta,47.9025,22.796111,2026-03-07 18:46:27.081998,7.02,6.06,7.02,7.02,1027,58,1.67,9,0,0.0,Clear,clear sky,18
Eperjeske alsó,48.360556,22.19,2026-03-07 18:46:28.287255,6.56,5.7,6.56,6.56,1027,61,1.52,0,0,0.0,Clear,clear sky,18
Mándok,48.326944,22.196389,2026-03-07 18:46:29.485997,6.64,5.87,6.64,6.64,1027,61,1.46,358,0,0.0,Clear,clear sky,18
Tornyospálca,48.268333,22.201944,2026-03-07 18:46:30.684650,6.78,6.11,6.78,6.78,1027,60,1.39,358,0,0.0,Clear,clear sky,18
Aranyosapáti,48.211303,22.253534,2026-03-07 18:46:31.883597,6.93,6.23,6.93,6.93,1027,60,1.43,355,0,0.0,Clear,clear sky,18
Gyüre,48.171389,22.269167,2026-03-07 18:46:33.079290,7.01,6.4,7.01,7.01,1027,59,1.37,358,0,0.0,Clear,clear sky,18
Varsány,48.151722,22.290047,2026-03-07 18:46:34.292732,7.04,6.42,7.04,7.04,1027,59,1.38,359,0,0.0,Clear,clear sky,18
Vásárosnamény,48.126667,22.306111,2026-03-07 18:46:35.487566,7.09,6.49,7.09,7.09,1027,59,1.37,2,0,0.0,Clear,clear sky,18
Vitka,48.095556,22.308056,2026-03-07 18:46:36.688097,7.12,6.53,7.12,7.12,1027,59,1.37,5,0,0.0,Clear,clear sky,18
Nagydobos,48.054167,22.311111,2026-03-07 18:46:37.891003,7.09,6.48,7.09,7.09,1027,58,1.38,9,0,0.0,Clear,clear sky,18
Ópályi,47.997778,22.318333,2026-03-07 18:46:39.091887,7.15,6.47,7.15,7.15,1027,58,1.44,17,0,0.0,Clear,clear sky,18
Nyírcsaholy,47.908056,22.348333,2026-03-07 18:46:40.293777,7.23,6.45,7.23,7.23,1027,59,1.53,22,0,0.0,Clear,clear sky,18
Nagyecsed,47.864722,22.385556,2026-03-07 18:46:41.496626,7.27,6.43,7.27,7.27,1027,59,1.59,23,0,0.0,Clear,clear sky,18
Tiborszállás,47.815278,22.402778,2026-03-07 18:46:42.699635,7.28,6.39,7.28,7.28,1027,59,1.64,27,0,0.0,Clear,clear sky,18
Kiskunhalas,46.434444,19.493611,2026-03-07 18:46:43.900442,7.78,6.15,7.78,7.78,1026,50,2.56,72,0,0.0,Clear,clear sky,18
Kecskemét alsó,46.895833,19.692222,2026-03-07 18:46:45.095723,7.7,6.18,7.7,7.7,1026,45,2.4,82,0,0.0,Clear,clear sky,18
Putnok,48.286667,20.4375,2026-03-07 18:46:46.296397,6.85,6.85,6.85,6.85,1027,64,0.62,122,0,0.0,Clear,clear sky,18
Bánréve,48.299722,20.351944,2026-03-07 18:46:47.498275,6.9,6.9,6.9,6.9,1027,64,0.67,122,0,0.0,Clear,clear sky,18
Ipolytarnóc,48.236667,19.629167,2026-03-07 18:46:48.706494,7.1,7.1,7.1,7.1,1027,65,0.33,316,0,0.0,Clear,clear sky,18
Rákosliget,47.486111,19.257778,2026-03-07 18:46:49.909671,6.37,5.25,6.37,6.37,1026,47,1.72,73,0,0.0,Clear,clear sky,18
Ikrény,47.657778,17.524167,2026-03-07 18:46:51.110927,9.46,7.99,9.46,9.46,1026,54,2.79,132,0,0.0,Clear,clear sky,18
Rábapatona,47.648889,17.461944,2026-03-07 18:46:52.310133,9.58,8.16,9.58,9.58,1026,55,2.75,134,0,0.0,Clear,clear sky,18
Enese,47.644167,17.425278,2026-03-07 18:46:53.507833,9.64,8.26,9.64,9.64,1026,56,2.7,136,0,0.0,Clear,clear sky,18
Kóny,47.632222,17.357222,2026-03-07 18:46:54.717766,9.65,8.29,9.65,9.65,1026,56,2.68,138,0,0.0,Clear,clear sky,18
Farád,47.595278,17.195833,2026-03-07 18:46:55.915478,9.86,8.48,9.86,9.86,1026,58,2.78,146,0,0.0,Clear,clear sky,18
Rábatamási,47.592778,17.161389,2026-03-07 18:46:57.115591,9.86,8.48,9.86,9.86,1026,58,2.78,146,0,0.0,Clear,clear sky,18
Szárföld,47.589167,17.123889,2026-03-07 18:46:58.313703,9.9,8.49,9.9,9.9,1026,58,2.83,147,0,0.0,Clear,clear sky,18
Veszkény,47.586944,17.101389,2026-03-07 18:46:59.514949,9.94,8.51,9.94,9.94,1026,58,2.88,149,0,0.0,Clear,clear sky,18
Kapuvár,47.581944,17.046944,2026-03-07 18:47:00.718560,9.94,8.45,9.94,9.94,1026,57,2.98,152,0,0.0,Clear,clear sky,18
Vitnyéd-Csermajor,47.5825,16.987222,2026-03-07 18:47:01.923969,9.99,8.45,9.99,9.99,1026,58,3.09,155,0,0.0,Clear,clear sky,18
Petőháza,47.595278,16.893056,2026-03-07 18:47:03.121453,10.08,8.66,10.08,10.08,1026,58,3.25,159,0,0.0,Clear,clear sky,18
Fertőszentmiklós,47.6,16.858889,2026-03-07 18:47:04.323468,10.08,8.68,10.08,10.08,1026,59,3.27,160,0,0.0,Clear,clear sky,18
Pinnye,47.600278,16.768611,2026-03-07 18:47:05.521948,9.98,8.41,9.98,9.98,1026,59,3.14,166,0,0.0,Clear,clear sky,18
Fertőboz,47.625,16.691667,2026-03-07 18:47:06.727420,9.95,8.43,9.95,9.95,1025,59,3.04,169,0,0.0,Clear,clear sky,18
Sopron,47.677778,16.587222,2026-03-07 18:47:07.933187,9.71,8.23,9.71,9.71,1025,59,2.89,172,1,0.0,Clear,clear sky,18
Fertőszéplak-Fertőd,47.618889,16.850833,2026-03-07 18:47:09.134301,10.18,8.79,10.18,10.18,1026,59,3.32,161,0,0.0,Clear,clear sky,18
Nyúl,47.587778,17.698056,2026-03-07 18:47:10.341496,9.13,7.66,9.13,9.13,1026,52,2.7,127,0,0.0,Clear,clear sky,18
Pannonhalma,47.547778,17.740833,2026-03-07 18:47:11.544373,8.75,7.31,8.75,8.75,1026,51,2.54,127,0,0.0,Clear,clear sky,18
Tarjánpuszta,47.504722,17.789167,2026-03-07 18:47:12.744247,8.55,7.17,8.55,8.55,1026,51,2.41,128,0,0.0,Clear,clear sky,18
Győrasszonyfa,47.4925,17.799167,2026-03-07 18:47:13.948078,8.55,7.17,8.55,8.55,1026,51,2.41,128,0,0.0,Clear,clear sky,18
Veszprémvarsány,47.443333,17.818333,2026-03-07 18:47:15.149175,8.33,7.03,8.33,8.33,1026,51,2.26,130,0,0.0,Clear,clear sky,18
Bakonyszentlászló,47.395556,17.8175,2026-03-07 18:47:16.344459,7.92,6.63,7.92,7.92,1026,52,2.16,131,0,0.0,Clear,clear sky,18
Porva-Csesznek,47.326944,17.841111,2026-03-07 18:47:17.545818,6.54,5.12,6.54,6.54,1026,52,2.04,130,0,0.0,Clear,clear sky,18
Zirc,47.266667,17.878056,2026-03-07 18:47:18.742105,6.47,5.36,6.47,6.47,1026,52,1.73,125,0,0.0,Clear,clear sky,18
Eplény,47.192778,17.921667,2026-03-07 18:47:19.944991,6.83,6.13,6.83,6.83,1027,52,1.42,109,0,0.0,Clear,clear sky,18
Marcaltő,47.4275,17.348889,2026-03-07 18:47:21.148634,9.55,8.08,9.55,9.55,1026,54,2.82,135,0,0.0,Clear,clear sky,18
Szany-Rábaszentandrás,47.460833,17.315278,2026-03-07 18:47:22.347494,9.58,8.15,9.58,9.58,1026,55,2.77,137,0,0.0,Clear,clear sky,18
Egyed-Rábacsanak,47.521944,17.316389,2026-03-07 18:47:23.553389,9.6,8.21,9.6,9.6,1026,55,2.71,138,0,0.0,Clear,clear sky,18
Rábapordány,47.557222,17.315,2026-03-07 18:47:24.764271,9.65,8.28,9.65,9.65,1026,56,2.69,139,0,0.0,Clear,clear sky,18
Albertfalva,47.440784,19.033965,2026-03-07 18:47:25.964528,6.87,5.68,6.87,6.87,1026,46,1.86,74,0,0.0,Clear,clear sky,18
Budafok,47.425833,19.041389,2026-03-07 18:47:27.191041,6.67,5.33,6.67,6.67,1026,47,1.98,75,0,0.0,Clear,clear sky,18
Tétényliget,47.384722,18.955278,2026-03-07 18:47:28.388779,6.87,5.51,6.87,6.87,1026,48,2.04,77,0,0.0,Clear,clear sky,18
Érd alsó,47.379722,18.923056,2026-03-07 18:47:29.577488,6.53,5.14,6.53,6.53,1026,48,2.01,77,0,0.0,Clear,clear sky,18
Tárnok,47.365556,18.873889,2026-03-07 18:47:30.773977,6.85,5.49,6.85,6.85,1026,49,2.03,78,0,0.0,Clear,clear sky,18
Martonvásár,47.321389,18.781667,2026-03-07 18:47:31.974576,6.85,5.43,6.85,6.85,1026,50,2.1,81,0,0.0,Clear,clear sky,18
Baracska,47.297222,18.753333,2026-03-07 18:47:33.173650,6.95,5.54,6.95,6.95,1026,51,2.11,83,0,0.0,Clear,clear sky,18
Pettend,47.26,18.708889,2026-03-07 18:47:34.381011,6.87,5.51,6.87,6.87,1026,51,2.04,84,0,0.0,Clear,clear sky,18
Kápolnásnyék,47.245556,18.692222,2026-03-07 18:47:35.581982,6.99,5.65,6.99,6.99,1026,51,2.04,86,0,0.0,Clear,clear sky,18
Velence,47.226944,18.663889,2026-03-07 18:47:36.788805,7.1,5.84,7.1,7.1,1026,51,1.97,87,0,0.0,Clear,clear sky,18
Velencefürdő,47.218611,18.648056,2026-03-07 18:47:37.994710,7.12,5.8,7.12,7.12,1026,50,2.04,89,0,0.0,Clear,clear sky,18
Gárdony,47.205833,18.624722,2026-03-07 18:47:39.194535,7.18,5.93,7.18,7.18,1026,50,1.98,89,0,0.0,Clear,clear sky,18
Agárd,47.197666,18.604907,2026-03-07 18:47:40.401097,7.18,5.93,7.18,7.18,1026,50,1.98,89,0,0.0,Clear,clear sky,18
Dinnyés,47.179722,18.560833,2026-03-07 18:47:41.605450,7.25,6.03,7.25,7.25,1026,50,1.96,90,0,0.0,Clear,clear sky,18
Székesfehérvár,47.183611,18.424722,2026-03-07 18:47:42.799887,7.42,6.4,7.42,7.42,1026,50,1.78,87,0,0.0,Clear,clear sky,18
Szabadbattyán,47.105278,18.388333,2026-03-07 18:47:43.998899,7.49,6.29,7.49,7.49,1026,49,1.98,95,0,0.0,Clear,clear sky,18
Kiscséripuszta,47.048056,18.355,2026-03-07 18:47:45.202017,7.39,6.09,7.39,7.39,1026,48,2.07,99,0,0.0,Clear,clear sky,18
Lepsény,46.9875,18.248056,2026-03-07 18:47:46.398318,7.8,6.62,7.8,7.8,1026,47,2.01,101,0,0.0,Clear,clear sky,18
Balatonaliga,46.984444,18.171389,2026-03-07 18:47:47.596495,7.72,6.78,7.72,7.72,1026,48,1.75,96,0,0.0,Clear,clear sky,18
Balatonvilágos,46.964167,18.157222,2026-03-07 18:47:48.797913,8.14,7.32,8.14,8.14,1026,48,1.69,95,0,0.0,Clear,clear sky,18
Szabadifürdő,46.926111,18.103333,2026-03-07 18:47:50.000508,8.24,7.5,8.24,8.24,1026,48,1.63,96,0,0.0,Clear,clear sky,18
Ózd alsó,48.227778,20.306111,2026-03-07 18:47:51.202746,6.75,6.75,6.75,6.75,1027,64,0.77,144,0,0.0,Clear,clear sky,18
Ózd,48.2225,20.294722,2026-03-07 18:47:52.402780,6.75,6.75,6.75,6.75,1027,64,0.77,144,0,0.0,Clear,clear sky,18
Alsóboldva,48.212778,20.792222,2026-03-07 18:47:53.606559,7.15,7.15,7.15,7.15,1027,66,1.15,180,0,0.0,Clear,clear sky,18
Boldva,48.223333,20.790278,2026-03-07 18:47:54.817775,7.15,7.15,7.15,7.15,1027,66,1.15,180,0,0.0,Clear,clear sky,18
Borsodszirák,48.259167,20.770556,2026-03-07 18:47:56.013575,7.06,7.06,7.06,7.06,1027,65,1.11,176,0,0.0,Clear,clear sky,18
Edelény alsó,48.279167,20.760833,2026-03-07 18:47:57.217611,7.06,7.06,7.06,7.06,1027,65,1.11,176,0,0.0,Clear,clear sky,18
Edelény,48.299722,20.749444,2026-03-07 18:47:58.427901,6.98,6.98,6.98,6.98,1027,64,1.01,174,0,0.0,Clear,clear sky,18
Szendrőlád,48.334444,20.731944,2026-03-07 18:47:59.628512,5.87,5.87,5.87,5.87,1027,63,0.65,163,0,0.0,Clear,clear sky,18
Szendrő,48.400725,20.721346,2026-03-07 18:48:00.835076,6.73,6.73,6.73,6.73,1027,62,0.28,120,0,0.0,Clear,clear sky,18
Szendrő felső,48.409907,20.720148,2026-03-07 18:48:02.041272,6.73,6.73,6.73,6.73,1027,62,0.28,120,0,0.0,Clear,clear sky,18
Szalonna,48.449444,20.722222,2026-03-07 18:48:03.238408,6.73,6.73,6.73,6.73,1027,62,0.44,36,0,0.0,Clear,clear sky,18
Perkupa,48.471389,20.691111,2026-03-07 18:48:04.438272,5.98,5.98,5.98,5.98,1027,63,0.75,30,0,0.0,Clear,clear sky,18
Szemeretelep,47.443056,19.214167,2026-03-07 18:48:05.633511,6.66,5.3,6.66,6.66,1026,46,2.0,74,0,0.0,Clear,clear sky,18
Jósvafő-Aggtelek,48.489722,20.693889,2026-03-07 18:48:06.837521,6.27,6.27,6.27,6.27,1027,63,0.9,24,0,0.0,Clear,clear sky,18
Bódvaszilas,48.5375,20.738056,2026-03-07 18:48:08.053679,5.86,5.86,5.86,5.86,1027,62,0.93,15,0,0.0,Clear,clear sky,18
Komjáti,48.5475,20.759722,2026-03-07 18:48:09.259510,5.4,5.4,5.4,5.4,1027,62,1.0,10,0,0.0,Clear,clear sky,18
Tornanádaska,48.558333,20.787222,2026-03-07 18:48:10.467897,6.58,6.58,6.58,6.58,1027,62,0.96,10,0,0.0,Clear,clear sky,18
Onga,48.121111,20.906667,2026-03-07 18:48:11.670694,7.31,7.31,7.31,7.31,1027,66,0.69,131,0,0.0,Clear,clear sky,18
Szikszó-Vásártér,48.193056,20.934722,2026-03-07 18:48:12.872869,7.17,7.17,7.17,7.17,1027,65,0.8,160,0,0.0,Clear,clear sky,18
Szikszó,48.201667,20.941667,2026-03-07 18:48:14.072951,7.21,7.21,7.21,7.21,1027,64,0.71,149,0,0.0,Clear,clear sky,18
Aszaló,48.219867,20.961466,2026-03-07 18:48:15.266737,7.03,7.03,7.03,7.03,1027,64,0.72,155,0,0.0,Clear,clear sky,18
Halmaj,48.246667,20.991667,2026-03-07 18:48:16.463976,7.13,7.13,7.13,7.13,1027,63,0.62,148,0,0.0,Clear,clear sky,18
Csobád,48.277222,21.033889,2026-03-07 18:48:17.669310,7.11,7.11,7.11,7.11,1027,62,0.52,137,0,0.0,Clear,clear sky,18
Ináncs,48.291111,21.057778,2026-03-07 18:48:18.871582,7.01,7.01,7.01,7.01,1027,61,0.47,106,0,0.0,Clear,clear sky,18
Forró-Encs,48.3275,21.117778,2026-03-07 18:48:20.068280,6.92,6.92,6.92,6.92,1027,61,0.49,92,0,0.0,Clear,clear sky,18
Méra,48.363056,21.140278,2026-03-07 18:48:21.272575,6.65,6.65,6.65,6.65,1027,60,0.54,83,0,0.0,Clear,clear sky,18
Novajidrány,48.404444,21.170556,2026-03-07 18:48:22.468489,6.83,6.83,6.83,6.83,1027,60,0.58,76,0,0.0,Clear,clear sky,18
Hernádszurdok,48.487222,21.213889,2026-03-07 18:48:23.668893,6.73,6.73,6.73,6.73,1027,59,0.6,57,0,0.0,Clear,clear sky,18
Hidasnémeti,48.508333,21.229722,2026-03-07 18:48:24.871521,6.6,6.6,6.6,6.6,1027,59,0.63,50,0,0.0,Clear,clear sky,18
Mád,48.19,21.268889,2026-03-07 18:48:26.076076,6.74,6.74,6.74,6.74,1027,62,1.04,52,0,0.0,Clear,clear sky,18
Rátka,48.215,21.230278,2026-03-07 18:48:27.273299,7.09,7.09,7.09,7.09,1027,62,0.89,55,0,0.0,Clear,clear sky,18
Tállya,48.226944,21.225278,2026-03-07 18:48:28.471560,7.09,7.09,7.09,7.09,1027,62,0.89,55,0,0.0,Clear,clear sky,18
Golop,48.242778,21.204167,2026-03-07 18:48:29.670339,7.12,7.12,7.12,7.12,1027,62,0.7,69,0,0.0,Clear,clear sky,18
Abaújszántó,48.286944,21.181667,2026-03-07 18:48:30.872479,6.77,6.77,6.77,6.77,1027,61,0.59,71,0,0.0,Clear,clear sky,18
Abaújszántói fürdő,48.268333,21.179722,2026-03-07 18:48:32.068495,7.06,7.06,7.06,7.06,1027,61,0.63,70,0,0.0,Clear,clear sky,18
Abaújkér,48.309444,21.198333,2026-03-07 18:48:33.263442,6.74,6.74,6.74,6.74,1027,61,0.57,73,0,0.0,Clear,clear sky,18
Boldogkőváralja,48.345,21.208889,2026-03-07 18:48:34.473786,6.67,6.67,6.67,6.67,1027,60,0.59,60,0,0.0,Clear,clear sky,18
Korlát-Vizsoly,48.365,21.219167,2026-03-07 18:48:35.680318,6.76,6.76,6.76,6.76,1027,60,0.57,63,0,0.0,Clear,clear sky,18
Fony,48.411389,21.242778,2026-03-07 18:48:36.877353,6.78,6.78,6.78,6.78,1027,59,0.57,65,0,0.0,Clear,clear sky,18
Hejce-Vilmány,48.419444,21.245556,2026-03-07 18:48:38.091034,6.78,6.78,6.78,6.78,1027,59,0.57,65,0,0.0,Clear,clear sky,18
Göncruszka,48.445,21.246944,2026-03-07 18:48:39.288565,6.75,6.75,6.75,6.75,1027,59,0.58,62,0,0.0,Clear,clear sky,18
Gönc,48.470556,21.261389,2026-03-07 18:48:40.490838,6.7,6.7,6.7,6.7,1027,59,0.55,52,0,0.0,Clear,clear sky,18
Zsujta,48.4925,21.265,2026-03-07 18:48:41.694548,6.7,6.7,6.7,6.7,1027,59,0.59,44,0,0.0,Clear,clear sky,18
Bodrogkeresztúr,48.175556,21.354167,2026-03-07 18:48:42.889546,6.37,6.37,6.37,6.37,1027,62,1.22,46,0,0.0,Clear,clear sky,18
Szegi,48.201944,21.387778,2026-03-07 18:48:44.106583,6.81,6.81,6.81,6.81,1027,62,1.16,32,0,0.0,Clear,clear sky,18
Erdőbénye,48.218056,21.401944,2026-03-07 18:48:45.309954,7.12,7.12,7.12,7.12,1027,61,1.11,22,0,0.0,Clear,clear sky,18
Olaszliszka-Tolcsva,48.258333,21.448056,2026-03-07 18:48:46.503554,6.99,6.99,6.99,6.99,1027,61,0.97,6,0,0.0,Clear,clear sky,18
Bodrogolaszi,48.286944,21.512778,2026-03-07 18:48:47.702419,5.61,5.61,5.61,5.61,1027,61,0.92,356,0,0.0,Clear,clear sky,18
Sárospatak,48.325833,21.566111,2026-03-07 18:48:48.912248,6.79,6.79,6.79,6.79,1027,60,0.97,340,0,0.0,Clear,clear sky,18
Sátoraljaújhely,48.385833,21.657778,2026-03-07 18:48:50.108831,6.0,6.0,6.0,6.0,1027,58,1.02,321,0,0.0,Clear,clear sky,18
Vecsés,47.40855,19.25652,2026-03-07 18:48:51.312618,6.69,5.18,6.69,6.69,1026,47,2.17,73,0,0.0,Clear,clear sky,18
Vecsés-Kertekalja,47.403333,19.271389,2026-03-07 18:48:52.515916,6.69,5.18,6.69,6.69,1026,47,2.17,73,0,0.0,Clear,clear sky,18
Üllő,47.390833,19.348889,2026-03-07 18:48:53.715311,6.75,5.14,6.75,6.75,1026,49,2.3,73,0,0.0,Clear,clear sky,18
Monor,47.34545,19.43701,2026-03-07 18:48:54.918752,6.74,5.02,6.74,6.74,1026,50,2.43,73,0,0.0,Clear,clear sky,18
Pilis,47.279722,19.536389,2026-03-07 18:48:56.120723,6.8,5.03,6.8,6.8,1026,49,2.5,75,0,0.0,Clear,clear sky,18
Albertirsa,47.240278,19.606389,2026-03-07 18:48:57.323611,7.03,5.28,7.03,7.03,1026,47,2.53,77,0,0.0,Clear,clear sky,18
Ceglédbercel-Cserő,47.210278,19.686944,2026-03-07 18:48:58.525627,7.24,5.52,7.24,7.24,1026,47,2.55,77,0,0.0,Clear,clear sky,18
Cegléd,47.182778,19.806111,2026-03-07 18:48:59.720521,7.46,5.75,7.46,7.46,1026,46,2.59,77,0,0.0,Clear,clear sky,18
Abony,47.173056,20.016389,2026-03-07 18:49:00.930855,7.68,5.91,7.68,7.68,1026,46,2.72,75,0,0.0,Clear,clear sky,18
Szolnok,47.179167,20.175833,2026-03-07 18:49:02.134883,7.82,6.03,7.82,7.82,1026,45,2.79,72,0,0.0,Clear,clear sky,18
Szajol,47.170556,20.295278,2026-03-07 18:49:03.330732,7.91,6.14,7.91,7.91,1026,46,2.79,70,0,0.0,Clear,clear sky,18
Törökszentmiklós,47.170278,20.413611,2026-03-07 18:49:04.529263,8.03,6.33,8.03,8.03,1027,46,2.72,67,0,0.0,Clear,clear sky,18
Rákoscsaba-Újtelep,47.4875,19.271944,2026-03-07 18:49:05.722020,6.37,5.25,6.37,6.37,1026,47,1.72,73,0,0.0,Clear,clear sky,18
Rákoscsaba,47.492222,19.284722,2026-03-07 18:49:06.924252,6.47,5.35,6.47,6.47,1026,48,1.74,73,0,0.0,Clear,clear sky,18
Pécel,47.493889,19.338889,2026-03-07 18:49:08.142718,6.35,5.2,6.35,6.35,1026,49,1.75,73,0,0.0,Clear,clear sky,18
Isaszeg,47.537719,19.388955,2026-03-07 18:49:09.343737,6.19,5.27,6.19,6.19,1026,50,1.53,72,0,0.0,Clear,clear sky,18
Gödöllő,47.592222,19.358611,2026-03-07 18:49:10.547291,6.06,6.06,6.06,6.06,1026,51,1.3,69,0,0.0,Clear,clear sky,18
Máriabesnyő,47.595556,19.389722,2026-03-07 18:49:11.746393,6.06,6.06,6.06,6.06,1026,51,1.3,69,0,0.0,Clear,clear sky,18
Bag,47.641111,19.471667,2026-03-07 18:49:12.951696,6.72,6.72,6.72,6.72,1026,52,1.18,68,0,0.0,Clear,clear sky,18
Aszód,47.647467,19.492882,2026-03-07 18:49:14.146574,6.62,6.62,6.62,6.62,1027,53,1.21,69,0,0.0,Clear,clear sky,18
Hévízgyörk,47.638611,19.526667,2026-03-07 18:49:15.356702,6.64,6.64,6.64,6.64,1027,53,1.25,70,0,0.0,Clear,clear sky,18
Galgahévíz,47.6325,19.558333,2026-03-07 18:49:16.558979,6.85,6.16,6.85,6.85,1027,53,1.42,73,0,0.0,Clear,clear sky,18
Tura,47.626389,19.5975,2026-03-07 18:49:17.755021,6.8,6.04,6.8,6.8,1027,53,1.47,74,0,0.0,Clear,clear sky,18
Hatvan,47.663611,19.671389,2026-03-07 18:49:18.954580,6.95,6.32,6.95,6.95,1027,53,1.38,70,0,0.0,Clear,clear sky,18
Vámosgyörk,47.686111,19.927778,2026-03-07 18:49:20.156270,7.12,6.15,7.12,7.12,1027,53,1.69,68,0,0.0,Clear,clear sky,18
Adács,47.696389,19.975278,2026-03-07 18:49:21.354917,7.21,6.32,7.21,7.21,1027,54,1.63,65,0,0.0,Clear,clear sky,18
Karácsond,47.718056,20.048611,2026-03-07 18:49:22.559071,7.11,6.32,7.11,7.11,1027,55,1.53,63,0,0.0,Clear,clear sky,18
Ludas,47.723889,20.095556,2026-03-07 18:49:23.762207,7.34,6.47,7.34,7.34,1027,56,1.63,65,0,0.0,Clear,clear sky,18
Nagyút,47.72666666666667,20.161388888888887,2026-03-07 18:49:24.966415,7.32,6.4,7.32,7.32,1027,57,1.67,66,0,0.0,Clear,clear sky,18
Kál-Kápolna,47.734167,20.254167,2026-03-07 18:49:26.166006,7.4,6.33,7.4,7.4,1027,58,1.83,67,0,0.0,Clear,clear sky,18
Füzesabony,47.751389,20.415278,2026-03-07 18:49:27.382566,7.51,6.37,7.51,7.51,1027,59,1.92,65,0,0.0,Clear,clear sky,18
Szihalom,47.766944,20.491944,2026-03-07 18:49:28.581057,7.47,6.39,7.47,7.47,1027,61,1.85,62,0,0.0,Clear,clear sky,18
Mezőkövesd,47.797222,20.5675,2026-03-07 18:49:29.783826,7.54,6.59,7.54,7.54,1027,62,1.73,58,0,0.0,Clear,clear sky,18
Mezőkövesd felső,47.807222,20.591389,2026-03-07 18:49:30.984290,7.54,6.59,7.54,7.54,1027,62,1.73,58,0,0.0,Clear,clear sky,18
Mezőkeresztes-Mezőnyárád,47.845556,20.670278,2026-03-07 18:49:32.202752,7.52,6.98,7.52,7.52,1027,64,1.37,51,0,0.0,Clear,clear sky,18
Csincse,47.890833,20.764167,2026-03-07 18:49:33.407698,7.56,7.56,7.56,7.56,1027,65,1.21,53,0,0.0,Clear,clear sky,18
Emőd,47.930556,20.822778,2026-03-07 18:49:34.605136,7.31,7.31,7.31,7.31,1027,66,0.87,52,0,0.0,Clear,clear sky,18
Nyékládháza,47.9925,20.840556,2026-03-07 18:49:35.808041,7.51,7.51,7.51,7.51,1027,67,0.58,67,0,0.0,Clear,clear sky,18
Miskolc-Tiszai,48.098611,20.811389,2026-03-07 18:49:37.014713,7.26,7.26,7.26,7.26,1027,68,0.48,175,0,0.0,Clear,clear sky,18
Felsőzsolca,48.083611,20.866111,2026-03-07 18:49:38.216824,7.31,7.31,7.31,7.31,1027,67,0.54,145,0,0.0,Clear,clear sky,18
Hernádnémeti-Bőcs,48.051389,20.985,2026-03-07 18:49:39.423042,7.32,7.32,7.32,7.32,1027,65,1.05,92,0,0.0,Clear,clear sky,18
Tiszalúc,48.039722,21.0575,2026-03-07 18:49:40.624651,7.32,6.55,7.32,7.32,1027,64,1.54,80,0,0.0,Clear,clear sky,18
Taktaharkány,48.091667,21.128611,2026-03-07 18:49:41.826076,7.34,6.81,7.34,7.34,1027,64,1.34,81,0,0.0,Clear,clear sky,18
Taktaszada,48.1125,21.149444,2026-03-07 18:49:43.032728,7.29,7.29,7.29,7.29,1027,63,1.24,77,0,0.0,Clear,clear sky,18
Szerencs,48.155556,21.214444,2026-03-07 18:49:44.239504,7.26,7.26,7.26,7.26,1027,62,1.11,60,0,0.0,Clear,clear sky,18
Mezőzombor,48.156944,21.267778,2026-03-07 18:49:45.451447,7.17,7.17,7.17,7.17,1027,62,1.15,55,0,0.0,Clear,clear sky,18
Tarcal,48.125,21.34,2026-03-07 18:49:46.658880,7.29,6.62,7.29,7.29,1027,62,1.45,53,0,0.0,Clear,clear sky,18
Tokaj,48.112778,21.406667,2026-03-07 18:49:47.859155,6.71,5.92,6.71,6.71,1027,62,1.48,43,0,0.0,Clear,clear sky,18
Rakamaz,48.12,21.475,2026-03-07 18:49:49.057737,7.22,6.5,7.22,7.22,1027,61,1.48,40,0,0.0,Clear,clear sky,18
Görögszállás,48.04,21.555,2026-03-07 18:49:50.259563,7.26,6.23,7.26,7.26,1027,61,1.77,46,0,0.0,Clear,clear sky,18
Nyírtelek,48.005,21.615556,2026-03-07 18:49:51.455809,7.26,6.2,7.26,7.26,1027,60,1.8,42,0,0.0,Clear,clear sky,18
Rákoshegy,47.468611,19.245556,2026-03-07 18:49:52.662154,6.51,5.26,6.51,6.51,1026,47,1.87,74,0,0.0,Clear,clear sky,18
Ecser,47.439444,19.318056,2026-03-07 18:49:53.855639,6.64,5.26,6.64,6.64,1026,47,2.02,73,0,0.0,Clear,clear sky,18
Maglód,47.438889,19.340833,2026-03-07 18:49:55.050878,6.45,5.03,6.45,6.45,1026,48,2.03,73,0,0.0,Clear,clear sky,18
Maglódi nyaraló,47.434167,19.363611,2026-03-07 18:49:56.247632,6.23,4.77,6.23,6.23,1026,49,2.03,73,0,0.0,Clear,clear sky,18
Gyömrő,47.429722,19.393333,2026-03-07 18:49:57.448970,6.23,4.77,6.23,6.23,1026,49,2.03,73,0,0.0,Clear,clear sky,18
Mende,47.426944,19.439722,2026-03-07 18:49:58.643705,6.24,4.69,6.24,6.24,1026,51,2.13,73,0,0.0,Clear,clear sky,18
Szőlősnyaraló,47.450278,19.561111,2026-03-07 18:49:59.844272,6.7,5.31,6.7,6.7,1027,52,2.04,77,0,0.0,Clear,clear sky,18
Sülysáp,47.451944,19.5275,2026-03-07 18:50:01.037785,6.56,5.16,6.56,6.56,1027,51,2.03,75,0,0.0,Clear,clear sky,18
Tápiószecső,47.443056,19.614722,2026-03-07 18:50:02.231835,6.79,5.4,6.79,6.79,1027,51,2.06,78,0,0.0,Clear,clear sky,18
Szentmártonkáta,47.431944,19.680556,2026-03-07 18:50:03.439390,6.86,5.42,6.86,6.86,1027,51,2.12,81,0,0.0,Clear,clear sky,18
Nagykáta,47.409722,19.737778,2026-03-07 18:50:04.647708,6.97,5.46,6.97,6.97,1027,50,2.23,81,0,0.0,Clear,clear sky,18
Farmos,47.355278,19.8375,2026-03-07 18:50:05.859384,7.28,5.58,7.28,7.28,1027,48,2.53,81,0,0.0,Clear,clear sky,18
Tápiószele,47.346313,19.873504,2026-03-07 18:50:07.057769,7.34,5.58,7.34,7.34,1027,47,2.62,80,0,0.0,Clear,clear sky,18
Tápiógyörgye,47.325,19.95,2026-03-07 18:50:08.259627,7.45,5.63,7.45,7.45,1027,47,2.73,80,0,0.0,Clear,clear sky,18
Újszász,47.285833,20.066944,2026-03-07 18:50:09.466926,7.64,5.76,7.64,7.64,1027,47,2.87,76,0,0.0,Clear,clear sky,18
Szurdokpüspöki,47.851944,19.690278,2026-03-07 18:50:10.671938,6.91,6.91,6.91,6.91,1027,57,0.61,79,0,0.0,Clear,clear sky,18
Lőrinci,47.739444,19.673611,2026-03-07 18:50:11.870864,6.92,6.92,6.92,6.92,1027,53,1.19,67,0,0.0,Clear,clear sky,18
Selyp,47.759167,19.670833,2026-03-07 18:50:13.067479,6.92,6.92,6.92,6.92,1027,54,1.09,66,0,0.0,Clear,clear sky,18
Apc-Zagyvaszántó,47.791328,19.66822,2026-03-07 18:50:14.265057,6.95,6.95,6.95,6.95,1027,54,0.99,67,0,0.0,Clear,clear sky,18
Pásztó,47.918889,19.688889,2026-03-07 18:50:15.468087,6.8,6.8,6.8,6.8,1027,58,0.43,101,0,0.0,Clear,clear sky,18
Mátraszőlős-Hasznos,47.938506,19.706122,2026-03-07 18:50:16.664143,6.84,6.84,6.84,6.84,1027,60,0.35,117,0,0.0,Clear,clear sky,18
Tar,47.956111,19.746389,2026-03-07 18:50:17.861669,6.45,6.45,6.45,6.45,1027,61,0.33,149,0,0.0,Clear,clear sky,18
Mátraverebély,47.968333,19.778611,2026-03-07 18:50:19.064790,6.45,6.45,6.45,6.45,1027,61,0.33,149,0,0.0,Clear,clear sky,18
Nagybátony,47.981111,19.82,2026-03-07 18:50:20.270107,6.65,6.65,6.65,6.65,1027,62,0.43,169,0,0.0,Clear,clear sky,18
Kisterenye,48.009444,19.831944,2026-03-07 18:50:21.470603,6.76,6.76,6.76,6.76,1027,62,0.55,179,0,0.0,Clear,clear sky,18
Kisterenye-Bányatelep,48.021389,19.831944,2026-03-07 18:50:22.676254,6.76,6.76,6.76,6.76,1027,62,0.55,179,0,0.0,Clear,clear sky,18
Salgótarján külső,48.089444,19.790833,2026-03-07 18:50:23.871538,6.28,6.28,6.28,6.28,1027,64,0.62,182,0,0.0,Clear,clear sky,18
Balatonfenyves GV,46.7125,17.479167,2026-03-07 18:50:25.075442,9.29,8.08,9.29,9.29,1026,50,2.36,111,0,0.0,Clear,clear sky,18
Várhegyalja,47.737778,18.366667,2026-03-07 18:50:26.278137,7.63,6.74,7.63,7.63,1026,52,1.69,115,0,0.0,Clear,clear sky,18
Imremajor,46.680556,17.499722,2026-03-07 18:50:27.482739,9.31,8.1,9.31,9.31,1026,50,2.37,112,0,0.0,Clear,clear sky,18
Rákospalota-Kertváros,47.578333,19.122778,2026-03-07 18:50:28.677784,6.44,6.44,6.44,6.44,1026,48,1.26,68,0,0.0,Clear,clear sky,18
Vicziántelep,47.675833,19.286111,2026-03-07 18:50:29.874281,6.23,6.23,6.23,6.23,1026,51,0.94,63,0,0.0,Clear,clear sky,18
Pálmajor,46.662831,17.457526,2026-03-07 18:50:31.071090,9.29,8.11,9.29,9.29,1026,50,2.32,114,0,0.0,Clear,clear sky,18
Somogyszentpál felső,46.649758,17.471404,2026-03-07 18:50:32.274327,9.28,8.06,9.28,9.28,1026,50,2.37,113,0,0.0,Clear,clear sky,18
Somogyszentpál,46.638611,17.478611,2026-03-07 18:50:33.476512,9.2,7.97,9.2,9.2,1026,50,2.37,114,0,0.0,Clear,clear sky,18
Rudnaykert,47.7175,19.257778,2026-03-07 18:50:34.681264,6.34,6.34,6.34,6.34,1026,53,0.72,65,0,0.0,Clear,clear sky,18
Maroshegy,47.158333,18.406667,2026-03-07 18:50:35.876050,7.42,6.32,7.42,7.42,1026,49,1.86,90,0,0.0,Clear,clear sky,18
Bánhida,47.573703,18.371737,2026-03-07 18:50:37.078146,7.18,6.14,7.18,7.18,1026,51,1.76,107,0,0.0,Clear,clear sky,18
Magyarkút,47.850278,19.045,2026-03-07 18:50:38.285580,6.27,6.27,6.27,6.27,1027,56,0.68,125,0,0.0,Clear,clear sky,18
Becske alsó,47.897222,19.364722,2026-03-07 18:50:39.486768,5.97,5.97,5.97,5.97,1027,55,0.76,154,0,0.0,Clear,clear sky,18
Hosszúberek-Péteri,47.370556,19.389722,2026-03-07 18:50:40.695716,6.74,5.03,6.74,6.74,1026,49,2.41,73,0,0.0,Clear,clear sky,18
Monorierdő,47.308889,19.499167,2026-03-07 18:50:41.905779,6.74,4.98,6.74,6.74,1026,49,2.48,74,0,0.0,Clear,clear sky,18
Ceglédbercel,47.215833,19.658611,2026-03-07 18:50:43.101338,7.14,5.4,7.14,7.14,1026,47,2.55,78,0,0.0,Clear,clear sky,18
Budai út,47.208333,19.731389,2026-03-07 18:50:44.298851,7.18,5.44,7.18,7.18,1026,47,2.56,77,0,0.0,Clear,clear sky,18
Büdöskútpuszta,48.373056,20.726111,2026-03-07 18:50:45.496501,6.9,6.9,6.9,6.9,1027,63,0.45,151,0,0.0,Clear,clear sky,18
Bánrévei Vízmű,48.282778,20.368333,2026-03-07 18:50:46.696735,6.87,6.87,6.87,6.87,1027,64,0.67,122,0,0.0,Clear,clear sky,18
Rákoskert,47.456389,19.296111,2026-03-07 18:50:47.900569,6.44,5.16,6.44,6.44,1026,48,1.88,73,0,0.0,Clear,clear sky,18
Szirmabesenyő,48.146944,20.783056,2026-03-07 18:50:49.105927,6.65,6.65,6.65,6.65,1027,69,0.85,186,0,0.0,Clear,clear sky,18
Kitérőgyár,47.766944,19.935278,2026-03-07 18:50:50.300971,6.88,6.88,6.88,6.88,1027,55,1.17,61,0,0.0,Clear,clear sky,18
Tápiószentmárton,47.373333,19.797778,2026-03-07 18:50:51.501100,7.14,5.45,7.14,7.14,1027,48,2.48,81,0,0.0,Clear,clear sky,18
Zagyvarékas,47.244229,20.097435,2026-03-07 18:50:52.707359,7.72,5.87,7.72,7.72,1026,46,2.85,74,0,0.0,Clear,clear sky,18
Abonyi út,47.206401,20.125204,2026-03-07 18:50:53.915728,7.74,5.92,7.74,7.74,1026,46,2.81,74,0,0.0,Clear,clear sky,18
Jászkisér felső,47.438056,20.202222,2026-03-07 18:50:55.123605,7.63,5.88,7.63,7.63,1027,49,2.68,81,0,0.0,Clear,clear sky,18
Szellőhát,47.425556,20.188889,2026-03-07 18:50:56.322900,7.64,5.85,7.64,7.64,1027,49,2.74,81,0,0.0,Clear,clear sky,18
Szilvásvárad-Szalajkavölgy,48.0956,20.38272,2026-03-07 18:50:57.535134,5.59,5.59,5.59,5.59,1027,63,0.52,138,0,0.0,Clear,clear sky,18
Vásárosnamény külső,48.084444,22.255556,2026-03-07 18:50:58.737560,7.04,6.46,7.04,7.04,1027,58,1.35,8,0,0.0,Clear,clear sky,18
Újváros,46.660556,20.536111,2026-03-07 18:50:59.939281,8.55,7.09,8.55,8.55,1026,51,2.52,71,0,0.0,Clear,clear sky,18
Városi park,46.697778,19.864722,2026-03-07 18:51:01.140780,7.66,6.11,7.66,7.66,1026,46,2.43,66,0,0.0,Clear,clear sky,18
Belsőkamaráspuszta,46.341944,20.848889,2026-03-07 18:51:02.337719,9.11,8.31,9.11,9.11,1026,61,1.83,143,0,0.0,Clear,clear sky,18
Sajószöged,47.945278,20.981667,2026-03-07 18:51:03.550497,7.55,6.66,7.55,7.55,1027,64,1.67,73,0,0.0,Clear,clear sky,18
Kazincbarcika alsó,48.255278,20.649167,2026-03-07 18:51:04.752449,6.87,6.87,6.87,6.87,1027,66,0.93,175,0,0.0,Clear,clear sky,18
Nyárjas,46.857778,19.923611,2026-03-07 18:51:05.953344,7.68,6.24,7.68,7.68,1026,45,2.29,73,0,0.0,Clear,clear sky,18
Pogonyipuszta,48.296389,20.381667,2026-03-07 18:51:07.149951,6.87,6.87,6.87,6.87,1027,64,0.67,122,0,0.0,Clear,clear sky,18
Sióvölgy,46.911103,18.076964,2026-03-07 18:51:08.355976,8.35,7.71,8.35,8.35,1026,48,1.55,91,0,0.0,Clear,clear sky,18
Répáspuszta,46.430278,17.847222,2026-03-07 18:51:09.551294,8.49,7.52,8.49,8.49,1026,48,1.9,100,0,0.0,Clear,clear sky,18
Virányos,48.066667,21.527222,2026-03-07 18:51:10.750793,7.23,6.31,7.23,7.23,1027,61,1.66,43,0,0.0,Clear,clear sky,18
Füzesbokor,47.988611,21.6475,2026-03-07 18:51:11.955556,7.3,6.19,7.3,7.3,1027,60,1.85,43,0,0.0,Clear,clear sky,18
Kunfehértó,46.355833,19.417222,2026-03-07 18:51:13.155699,7.89,6.28,7.89,7.89,1026,51,2.56,70,0,0.0,Clear,clear sky,18
Erdőszél,46.329444,19.395,2026-03-07 18:51:14.350773,7.83,6.2,7.83,7.83,1026,52,2.57,71,0,0.0,Clear,clear sky,18
Jánoshalma,46.293056,19.330278,2026-03-07 18:51:15.548088,8.06,6.5,8.06,8.06,1026,53,2.53,71,0,0.0,Clear,clear sky,18
Mélykút,46.213056,19.370556,2026-03-07 18:51:16.743268,8.22,6.81,8.22,8.22,1026,54,2.38,71,0,0.0,Clear,clear sky,18
Bácsalmás,46.118056,19.346389,2026-03-07 18:51:17.941357,8.43,7.13,8.43,8.43,1026,54,2.28,75,0,0.0,Clear,clear sky,18
Almás,46.116216,19.328803,2026-03-07 18:51:19.136719,8.43,7.13,8.43,8.43,1026,54,2.28,75,0,0.0,Clear,clear sky,18
Bácsbokod-Bácsborsód,46.115833,19.16,2026-03-07 18:51:20.338030,8.52,7.11,8.52,8.52,1026,54,2.44,77,0,0.0,Clear,clear sky,18
Baja,46.187014,18.957602,2026-03-07 18:51:21.533294,8.69,7.52,8.69,8.69,1026,53,2.17,78,0,0.0,Clear,clear sky,18
Harkakötöny,46.458333,19.601944,2026-03-07 18:51:22.737203,7.78,6.22,7.78,7.78,1026,50,2.47,69,0,0.0,Clear,clear sky,18
Tajó,46.473056,19.650556,2026-03-07 18:51:23.942406,7.8,6.26,7.8,7.8,1026,50,2.45,68,0,0.0,Clear,clear sky,18
Kiskunmajsa,46.501667,19.728056,2026-03-07 18:51:25.144076,7.8,6.26,7.8,7.8,1026,50,2.44,68,0,0.0,Clear,clear sky,18
Jászszentlászló,46.565833,19.753611,2026-03-07 18:51:26.346375,7.75,6.19,7.75,7.75,1026,49,2.46,68,0,0.0,Clear,clear sky,18
Galambos,46.625,19.801111,2026-03-07 18:51:27.554432,7.69,6.12,7.69,7.69,1026,47,2.46,67,0,0.0,Clear,clear sky,18
Pestszentimre,47.402222,19.188611,2026-03-07 18:51:28.751022,6.82,5.23,6.82,6.82,1026,47,2.29,75,0,0.0,Clear,clear sky,18
Gyál felső,47.390278,19.204722,2026-03-07 18:51:29.948834,6.77,5.15,6.77,6.77,1026,47,2.31,74,0,0.0,Clear,clear sky,18
Gyál,47.376667,19.219444,2026-03-07 18:51:31.148647,6.77,5.15,6.77,6.77,1026,47,2.31,74,0,0.0,Clear,clear sky,18
Ócsa,47.301389,19.232222,2026-03-07 18:51:32.349701,6.86,4.97,6.86,6.86,1026,49,2.68,76,0,0.0,Clear,clear sky,18
Inárcs-Kakucs,47.247222,19.317778,2026-03-07 18:51:33.546804,6.94,5.0,6.94,6.94,1026,49,2.76,76,0,0.0,Clear,clear sky,18
Dabas,47.194722,19.328889,2026-03-07 18:51:34.745828,6.97,5.02,6.97,6.97,1026,49,2.78,79,0,0.0,Clear,clear sky,18
Gyón,47.178333,19.355556,2026-03-07 18:51:35.944313,7.02,5.08,7.02,7.02,1026,49,2.78,81,0,0.0,Clear,clear sky,18
Hernád,47.161389,19.4025,2026-03-07 18:51:37.146872,7.04,5.15,7.04,7.04,1026,48,2.72,82,0,0.0,Clear,clear sky,18
Bakonygyirót,47.416389,17.811944,2026-03-07 18:51:38.346207,8.43,7.15,8.43,8.43,1026,51,2.26,130,0,0.0,Clear,clear sky,18
Vinye,47.360317,17.819635,2026-03-07 18:51:39.542252,7.83,6.58,7.83,7.83,1026,52,2.1,131,0,0.0,Clear,clear sky,18
Nemesgörzsöny,47.402924,17.376385,2026-03-07 18:51:40.738114,9.51,8.01,9.51,9.51,1026,54,2.86,134,0,0.0,Clear,clear sky,18
Rábahíd,47.438618,17.337525,2026-03-07 18:51:41.931051,9.58,8.14,9.58,9.58,1026,54,2.79,136,0,0.0,Clear,clear sky,18
Öskü,47.162222,18.076389,2026-03-07 18:51:43.128699,7.7,7.22,7.7,7.7,1026,51,1.34,93,0,0.0,Clear,clear sky,18
Márkó,47.1275,17.813889,2026-03-07 18:51:44.327517,7.34,6.56,7.34,7.34,1026,52,1.55,101,0,0.0,Clear,clear sky,18
Nemeskocs,47.203333,17.188889,2026-03-07 18:51:45.533593,9.43,8.08,9.43,9.43,1026,55,2.6,132,0,0.0,Clear,clear sky,18
Zalagyömörő,47.011111,17.220833,2026-03-07 18:51:46.739003,9.18,8.09,9.18,9.18,1026,54,2.18,128,0,0.0,Clear,clear sky,18
Rigács,47.061667,17.199167,2026-03-07 18:51:47.935830,9.16,8.0,9.16,9.16,1026,54,2.27,129,0,0.0,Clear,clear sky,18
Kemenespálfa,47.139722,17.183056,2026-03-07 18:51:49.136728,9.33,8.05,9.33,9.33,1026,54,2.47,131,0,0.0,Clear,clear sky,18
Lentiszombathely,46.611389,16.5725,2026-03-07 18:51:50.336545,8.61,7.64,8.61,8.61,1026,61,1.93,126,0,0.0,Clear,clear sky,18
Ortaháza,46.626667,16.685833,2026-03-07 18:51:51.551557,8.5,7.98,8.5,8.5,1026,60,1.46,124,0,0.0,Clear,clear sky,18
Rádiháza,46.654722,16.765833,2026-03-07 18:51:52.751860,8.51,8.51,8.51,8.51,1026,60,1.25,125,0,0.0,Clear,clear sky,18
Baktüttös,46.690833,16.826389,2026-03-07 18:51:53.952762,8.66,8.66,8.66,8.66,1026,60,1.06,127,0,0.0,Clear,clear sky,18
Budafa,46.851667,16.624722,2026-03-07 18:51:55.155882,8.72,8.0,8.72,8.72,1026,61,1.68,124,0,0.0,Clear,clear sky,18
Zalapatakalja,46.845556,16.603889,2026-03-07 18:51:56.355867,8.71,7.84,8.71,8.71,1026,61,1.83,124,0,0.0,Clear,clear sky,18
Tormásliget,47.430556,16.781667,2026-03-07 18:51:57.562894,9.62,8.16,9.62,9.62,1026,59,2.83,162,0,0.0,Clear,clear sky,18
Belecska,46.64,18.411389,2026-03-07 18:51:58.760709,8.2,7.3,8.2,8.2,1026,45,1.78,95,0,0.0,Clear,clear sky,18
Almár,47.956111,20.356944,2026-03-07 18:51:59.955320,6.21,6.21,6.21,6.21,1027,63,0.64,92,0,0.0,Clear,clear sky,18
Vasútmúzeum,47.543889,19.099444,2026-03-07 18:52:01.154809,6.53,5.86,6.53,6.53,1026,47,1.37,70,0,0.0,Clear,clear sky,18
Abda,47.690833,17.540556,2026-03-07 18:52:02.353933,9.5,7.99,9.5,9.5,1026,55,2.87,131,0,0.0,Clear,clear sky,18
Vadaspark,47.526111,18.949167,2026-03-07 18:52:03.550032,5.16,4.2,5.16,5.16,1026,48,1.45,72,0,0.0,Clear,clear sky,18
Barosstelep,47.398889,18.989167,2026-03-07 18:52:04.747700,6.96,5.57,6.96,6.96,1026,47,2.09,76,0,0.0,Clear,clear sky,18
Fegyvernek-Örményes,47.194444,20.5575,2026-03-07 18:52:05.942270,8.11,6.5,8.11,8.11,1027,48,2.61,63,1,0.0,Clear,clear sky,18
Zagyvapálfalva,48.068889,19.785,2026-03-07 18:52:07.137570,6.48,6.48,6.48,6.48,1027,64,0.61,182,0,0.0,Clear,clear sky,18
Salgótarján,48.105556,19.807222,2026-03-07 18:52:08.348655,5.86,5.86,5.86,5.86,1027,65,0.61,182,0,0.0,Clear,clear sky,18
Szabadisóstó,46.933889,18.118056,2026-03-07 18:52:09.543683,8.24,7.51,8.24,8.24,1026,48,1.62,94,0,0.0,Clear,clear sky,18
Siófok,46.907778,18.053889,2026-03-07 18:52:10.751916,8.35,7.71,8.35,8.35,1026,48,1.55,91,0,0.0,Clear,clear sky,18
Balatonszéplak felső,46.898056,18.018056,2026-03-07 18:52:11.951382,8.35,7.72,8.35,8.35,1026,48,1.54,91,0,0.0,Clear,clear sky,18
Balatonszéplak alsó,46.891944,17.993333,2026-03-07 18:52:13.151063,8.51,7.89,8.51,8.51,1026,49,1.55,90,0,0.0,Clear,clear sky,18
Zamárdi felső,46.886111,17.969444,2026-03-07 18:52:14.354500,8.58,7.96,8.58,8.58,1026,49,1.56,88,0,0.0,Clear,clear sky,18
Zamárdi,46.88,17.944722,2026-03-07 18:52:15.549785,8.58,7.96,8.58,8.58,1026,49,1.56,88,0,0.0,Clear,clear sky,18
Szántód,46.861944,17.899167,2026-03-07 18:52:16.758513,8.66,7.95,8.66,8.66,1026,49,1.66,90,0,0.0,Clear,clear sky,18
Szőny-Déli,47.735278,18.141944,2026-03-07 18:52:17.954433,8.28,6.95,8.28,8.28,1026,51,2.28,119,0,0.0,Clear,clear sky,18
Várpalota,47.194444,18.149167,2026-03-07 18:52:19.154474,7.27,6.63,7.27,7.27,1026,51,1.42,92,0,0.0,Clear,clear sky,18
Pétfürdő,47.1675,18.121389,2026-03-07 18:52:20.349373,7.79,7.26,7.79,7.79,1026,51,1.39,92,0,0.0,Clear,clear sky,18
Hajmáskér,47.141111,18.009444,2026-03-07 18:52:21.547659,7.53,7.53,7.53,7.53,1026,51,1.33,95,0,0.0,Clear,clear sky,18
Veszprém,47.118889,17.91,2026-03-07 18:52:22.747013,7.67,7.15,7.67,7.67,1026,52,1.37,95,0,0.0,Clear,clear sky,18
Herend,47.136944,17.760278,2026-03-07 18:52:23.957349,7.32,6.43,7.32,7.32,1026,52,1.64,103,0,0.0,Clear,clear sky,18
Városlőd,47.144167,17.652778,2026-03-07 18:52:25.154107,7.33,5.91,7.33,7.33,1026,52,2.19,114,0,0.0,Clear,clear sky,18
Városlőd-Kislőd,47.133889,17.631111,2026-03-07 18:52:26.354545,7.76,6.49,7.76,7.76,1026,51,2.11,110,0,0.0,Clear,clear sky,18
Ajka,47.105902,17.572938,2026-03-07 18:52:27.556155,8.3,6.94,8.3,8.3,1026,51,2.33,111,0,0.0,Clear,clear sky,18
Ajka-Gyártelep,47.096806,17.555219,2026-03-07 18:52:28.758344,8.3,6.94,8.3,8.3,1026,51,2.33,111,0,0.0,Clear,clear sky,18
Devecser,47.1125,17.435278,2026-03-07 18:52:29.956739,8.82,7.43,8.82,8.82,1026,51,2.5,116,0,0.0,Clear,clear sky,18
Somlóvásárhely,47.124444,17.369167,2026-03-07 18:52:31.160261,8.99,7.55,8.99,8.99,1026,52,2.61,123,0,0.0,Clear,clear sky,18
Tüskevár,47.128611,17.331389,2026-03-07 18:52:32.365939,9.13,7.73,9.13,9.13,1026,52,2.59,124,0,0.0,Clear,clear sky,18
Karakószörcsök,47.133611,17.287778,2026-03-07 18:52:33.572265,9.21,7.85,9.21,9.21,1026,53,2.56,126,0,0.0,Clear,clear sky,18
Kerta,47.151944,17.237222,2026-03-07 18:52:34.772825,9.37,8.05,9.37,9.37,1026,54,2.54,130,0,0.0,Clear,clear sky,18
Boba,47.183333,17.191389,2026-03-07 18:52:35.969151,9.37,8.04,9.37,9.37,1026,55,2.56,132,0,0.0,Clear,clear sky,18
Börgönd,47.140278,18.515,2026-03-07 18:52:37.174234,7.21,5.86,7.21,7.21,1026,49,2.09,94,0,0.0,Clear,clear sky,18
Belsőbáránd,47.102778,18.499722,2026-03-07 18:52:38.376469,7.24,5.86,7.24,7.24,1026,49,2.13,96,0,0.0,Clear,clear sky,18
Zichyújfalu,47.124444,18.6725,2026-03-07 18:52:39.571814,7.05,5.51,7.05,7.05,1026,50,2.28,95,0,0.0,Clear,clear sky,18
Seregélyes,47.121111,18.580556,2026-03-07 18:52:40.771291,7.3,5.94,7.3,7.3,1026,50,2.12,95,0,0.0,Clear,clear sky,18
Polgárdi-Ipartelepek,47.079167,18.314444,2026-03-07 18:52:41.977948,7.28,6.08,7.28,7.28,1026,48,1.94,97,0,0.0,Clear,clear sky,18
Polgárdi,47.07,18.284167,2026-03-07 18:52:43.177803,7.28,6.08,7.28,7.28,1026,48,1.94,97,0,0.0,Clear,clear sky,18
Füle,47.05,18.255278,2026-03-07 18:52:44.372991,7.35,6.17,7.35,7.35,1026,48,1.93,98,0,0.0,Clear,clear sky,18
Zánka-Erzsébettábor,46.8775,17.709167,2026-03-07 18:52:45.575116,8.98,7.99,8.98,8.98,1026,50,2.02,93,0,0.0,Clear,clear sky,18
Csajág,47.033889,18.186389,2026-03-07 18:52:46.772171,7.66,6.73,7.66,7.66,1026,48,1.73,95,0,0.0,Clear,clear sky,18
Balatonakarattya,47.017222,18.167778,2026-03-07 18:52:47.973598,7.66,6.73,7.66,7.66,1026,48,1.73,95,0,0.0,Clear,clear sky,18
Csittényhegy,47.025278,18.1375,2026-03-07 18:52:49.179814,7.97,7.18,7.97,7.97,1026,49,1.64,92,0,0.0,Clear,clear sky,18
Balatonkenese,47.0325,18.105556,2026-03-07 18:52:50.383884,8.17,7.48,8.17,8.17,1026,49,1.57,89,0,0.0,Clear,clear sky,18
Balatonfűzfő,47.060278,18.0425,2026-03-07 18:52:51.581096,8.06,7.52,8.06,8.06,1026,50,1.43,82,0,0.0,Clear,clear sky,18
Balatonalmádi,47.028333,18.015,2026-03-07 18:52:52.791863,8.27,7.72,8.27,8.27,1026,50,1.46,81,0,0.0,Clear,clear sky,18
Káptalanfüred,47.008889,18.003889,2026-03-07 18:52:53.995603,7.5,6.83,7.5,7.5,1026,50,1.47,79,0,0.0,Clear,clear sky,18
Alsóörs,46.985278,17.974722,2026-03-07 18:52:55.201085,7.5,6.83,7.5,7.5,1026,50,1.47,79,0,0.0,Clear,clear sky,18
Csopak,46.974722,17.931111,2026-03-07 18:52:56.395685,8.01,7.31,8.01,8.01,1026,50,1.56,78,0,0.0,Clear,clear sky,18
Balatonarács,46.9625,17.8975,2026-03-07 18:52:57.600626,8.01,7.31,8.01,8.01,1026,50,1.56,78,0,0.0,Clear,clear sky,18
Balatonfüred,46.955833,17.883056,2026-03-07 18:52:58.801520,8.49,7.8,8.49,8.49,1026,50,1.62,80,0,0.0,Clear,clear sky,18
Aszófő,46.925556,17.8325,2026-03-07 18:52:59.997116,8.54,7.77,8.54,8.54,1026,50,1.7,84,0,0.0,Clear,clear sky,18
Örvényes,46.9125,17.818056,2026-03-07 18:53:01.194732,8.54,7.77,8.54,8.54,1026,50,1.7,84,0,0.0,Clear,clear sky,18
Balatonudvari,46.904722,17.808056,2026-03-07 18:53:02.400366,8.08,7.18,8.08,8.08,1026,50,1.76,84,0,0.0,Clear,clear sky,18
Fövenyes,46.893611,17.789444,2026-03-07 18:53:03.597510,8.74,7.92,8.74,8.74,1026,50,1.79,87,0,0.0,Clear,clear sky,18
Balatonakali-Dörgicse,46.88,17.747778,2026-03-07 18:53:04.793998,8.45,7.52,8.45,8.45,1026,50,1.85,88,0,0.0,Clear,clear sky,18
Zánka-Köveskál,46.872778,17.687778,2026-03-07 18:53:05.992049,8.65,7.55,8.65,8.65,1026,50,2.08,94,0,0.0,Clear,clear sky,18
Balatonszepezd,46.851111,17.663056,2026-03-07 18:53:07.223408,9.07,8.01,9.07,9.07,1026,50,2.12,96,0,0.0,Clear,clear sky,18
Szepezdfürdő,46.839722,17.649444,2026-03-07 18:53:08.422152,8.09,6.81,8.09,8.09,1026,50,2.18,97,0,0.0,Clear,clear sky,18
Révfülöp,46.829167,17.632222,2026-03-07 18:53:09.622519,8.09,6.81,8.09,8.09,1026,50,2.18,97,0,0.0,Clear,clear sky,18
Balatonrendes,46.824722,17.582778,2026-03-07 18:53:10.823417,8.86,7.62,8.86,8.86,1026,51,2.3,103,0,0.0,Clear,clear sky,18
Ábrahámhegy,46.815,17.572222,2026-03-07 18:53:12.016529,8.86,7.62,8.86,8.86,1026,51,2.3,103,0,0.0,Clear,clear sky,18
Badacsonyörs,46.805556,17.531667,2026-03-07 18:53:13.223490,9.14,7.96,9.14,9.14,1026,51,2.29,104,0,0.0,Clear,clear sky,18
Kisújszállás,47.223889,20.751111,2026-03-07 18:53:14.431257,8.25,6.87,8.25,8.25,1027,49,2.34,60,4,0.0,Clear,clear sky,18
Karcag,47.303333,20.928056,2026-03-07 18:53:15.643326,8.25,7.06,8.25,8.25,1027,52,2.11,58,6,0.0,Clear,clear sky,18
Püspökladány,47.3275,21.128889,2026-03-07 18:53:16.846011,8.36,7.34,8.36,8.36,1027,52,1.93,56,7,0.0,Clear,clear sky,18
Kaba,47.368889,21.259444,2026-03-07 18:53:18.047774,8.41,7.38,8.41,8.41,1027,53,1.95,56,7,0.0,Clear,clear sky,18
Hajdúszoboszló,47.429444,21.406944,2026-03-07 18:53:19.245552,8.33,7.02,8.33,8.33,1027,54,2.27,58,7,0.0,Clear,clear sky,18
Ebes,47.462778,21.488889,2026-03-07 18:53:20.452322,8.25,6.86,8.25,8.25,1027,54,2.36,59,7,0.0,Clear,clear sky,18
Debrecen,47.520278,21.628611,2026-03-07 18:53:21.663572,8.05,6.54,8.05,8.05,1027,55,2.46,60,6,0.0,Clear,clear sky,18
Debrecen-Csapókert,47.540556,21.648056,2026-03-07 18:53:22.874300,7.89,6.34,7.89,7.89,1027,56,2.48,60,6,0.0,Clear,clear sky,18
Apafa,47.584045,21.655858,2026-03-07 18:53:24.074382,7.82,6.26,7.82,7.82,1027,56,2.48,60,5,0.0,Clear,clear sky,18
Bocskaikert,47.6425,21.666389,2026-03-07 18:53:25.284123,7.56,5.96,7.56,7.56,1027,57,2.46,59,3,0.0,Clear,clear sky,18
Hajdúhadház,47.686944,21.679167,2026-03-07 18:53:26.484309,7.6,6.07,7.6,7.6,1027,57,2.39,59,2,0.0,Clear,clear sky,18
Téglás,47.714722,21.684722,2026-03-07 18:53:27.683434,7.59,6.08,7.59,7.59,1027,57,2.36,58,1,0.0,Clear,clear sky,18
Újfehértó,47.814444,21.706389,2026-03-07 18:53:28.884708,7.56,6.15,7.56,7.56,1027,58,2.23,55,0,0.0,Clear,clear sky,18
Nyíregyháza,47.946667,21.705556,2026-03-07 18:53:30.090138,7.36,6.15,7.36,7.36,1027,59,1.97,46,0,0.0,Clear,clear sky,18
Sóstó,47.998051,21.729047,2026-03-07 18:53:31.286971,7.27,6.25,7.27,7.27,1027,59,1.76,39,0,0.0,Clear,clear sky,18
Sóstóhegy,48.012222,21.742778,2026-03-07 18:53:32.486569,7.31,6.36,7.31,7.31,1027,60,1.7,36,0,0.0,Clear,clear sky,18
Kemecse,48.065556,21.801667,2026-03-07 18:53:33.697680,7.27,6.49,7.27,7.27,1027,59,1.54,29,0,0.0,Clear,clear sky,18
Nyírbogdány,48.082222,21.855278,2026-03-07 18:53:34.894334,7.21,6.53,7.21,7.21,1027,59,1.45,25,0,0.0,Clear,clear sky,18
Kék,48.093333,21.883889,2026-03-07 18:53:36.090991,7.3,6.65,7.3,7.3,1027,58,1.43,24,0,0.0,Clear,clear sky,18
Demecser,48.111667,21.926667,2026-03-07 18:53:37.294979,7.26,6.68,7.26,7.26,1027,58,1.37,19,0,0.0,Clear,clear sky,18
Gégény,48.128333,21.951944,2026-03-07 18:53:38.501598,7.19,7.19,7.19,7.19,1027,58,1.31,15,0,0.0,Clear,clear sky,18
Pátroha,48.158611,21.996667,2026-03-07 18:53:39.712821,7.15,7.15,7.15,7.15,1027,58,1.27,10,0,0.0,Clear,clear sky,18
Ajak,48.1865,22.048972,2026-03-07 18:53:40.912760,7.07,7.07,7.07,7.07,1027,59,1.25,6,0,0.0,Clear,clear sky,18
Kisvárda,48.208333,22.078333,2026-03-07 18:53:42.109013,7.02,7.02,7.02,7.02,1027,59,1.27,2,0,0.0,Clear,clear sky,18
Kisvárda-Hármasút,48.228333,22.091944,2026-03-07 18:53:43.316241,7.02,7.02,7.02,7.02,1027,59,1.27,2,0,0.0,Clear,clear sky,18
Fényeslitke,48.267222,22.107222,2026-03-07 18:53:44.519463,6.83,6.83,6.83,6.83,1027,60,1.33,359,0,0.0,Clear,clear sky,18
Komoró,48.305278,22.118056,2026-03-07 18:53:45.715338,6.79,6.18,6.79,6.79,1027,60,1.35,358,0,0.0,Clear,clear sky,18
Tuzsér,48.342222,22.131667,2026-03-07 18:53:46.916699,6.62,5.92,6.62,6.62,1027,61,1.4,359,0,0.0,Clear,clear sky,18
Tiszabezdéd,48.371389,22.145,2026-03-07 18:53:48.118960,6.57,5.77,6.57,6.57,1027,61,1.47,0,0,0.0,Clear,clear sky,18
Záhony,48.402222,22.183611,2026-03-07 18:53:49.316121,6.5,5.6,6.5,6.5,1027,61,1.55,2,0,0.0,Clear,clear sky,18
Karcag-Vásártér,47.3225,20.9075,2026-03-07 18:53:50.516107,8.25,7.06,8.25,8.25,1027,52,2.11,58,6,0.0,Clear,clear sky,18
Berekfürdő,47.374722,20.827222,2026-03-07 18:53:51.727800,8.14,6.76,8.14,8.14,1027,52,2.32,59,4,0.0,Clear,clear sky,18
Kunmadaras,47.415278,20.793056,2026-03-07 18:53:52.938877,8.04,6.58,8.04,8.04,1027,53,2.39,61,2,0.0,Clear,clear sky,18
Tiszaszentimre,47.490833,20.733056,2026-03-07 18:53:54.127730,7.97,6.46,7.97,7.97,1027,54,2.45,65,0,0.0,Clear,clear sky,18
Tiszaszőlős,47.555556,20.728056,2026-03-07 18:53:55.323959,7.9,6.35,7.9,7.9,1027,55,2.48,65,0,0.0,Clear,clear sky,18
Hosszúhát,47.235556,21.101944,2026-03-07 18:53:56.517652,8.49,7.69,8.49,8.49,1027,51,1.72,60,7,0.0,Clear,clear sky,18
Szerep,47.234444,21.145833,2026-03-07 18:53:57.720678,8.52,7.78,8.52,8.52,1027,51,1.67,61,7,0.0,Clear,clear sky,18
Sárrétudvari,47.231667,21.180833,2026-03-07 18:53:58.921073,8.52,7.8,8.52,8.52,1027,51,1.65,61,7,0.0,Clear,clear sky,18
Biharnagybajom,47.208889,21.221944,2026-03-07 18:54:00.118059,8.55,7.88,8.55,8.55,1027,51,1.61,62,7,0.0,Clear,clear sky,18
Füzesgyarmat,47.113056,21.194444,2026-03-07 18:54:01.321502,8.65,7.77,8.65,8.65,1027,50,1.83,67,4,0.0,Clear,clear sky,18
Füzesgyarmatfürdő,47.093787,21.201582,2026-03-07 18:54:02.517595,8.65,7.77,8.65,8.65,1027,50,1.83,67,4,0.0,Clear,clear sky,18
Báránd,47.299722,21.235278,2026-03-07 18:54:03.729273,8.47,7.63,8.47,8.47,1027,52,1.76,57,8,0.0,Clear,clear sky,18
Sáp,47.259722,21.360556,2026-03-07 18:54:04.936082,8.55,7.83,8.55,8.55,1027,51,1.65,59,7,0.0,Clear,clear sky,18
Berettyóújfalu,47.211944,21.535556,2026-03-07 18:54:06.132452,8.58,7.75,8.58,8.58,1027,52,1.77,58,7,0.0,Clear,clear sky,18
Mezőpeterd,47.176111,21.625278,2026-03-07 18:54:07.336504,8.56,7.63,8.56,8.56,1027,53,1.87,58,7,0.0,Clear,clear sky,18
Biharkeresztes,47.135556,21.721389,2026-03-07 18:54:08.537756,8.49,7.54,8.49,8.49,1027,55,1.88,59,7,0.0,Clear,clear sky,18
Tócóvölgy,47.529444,21.588889,2026-03-07 18:54:09.734634,8.09,6.58,8.09,8.09,1027,55,2.47,60,6,0.0,Clear,clear sky,18
Sáregres,46.7825,18.588889,2026-03-07 18:54:10.939457,7.8,6.64,7.8,7.8,1026,46,1.99,101,0,0.0,Clear,clear sky,18
Simontornya,46.756582,18.540674,2026-03-07 18:54:12.140419,7.83,6.74,7.83,7.83,1026,45,1.92,101,0,0.0,Clear,clear sky,18
Tolnanémedi,46.727778,18.475833,2026-03-07 18:54:13.338787,7.97,6.96,7.97,7.97,1026,45,1.86,100,0,0.0,Clear,clear sky,18
Pincehely,46.681389,18.43,2026-03-07 18:54:14.542933,8.0,7.06,8.0,8.0,1026,45,1.79,98,0,0.0,Clear,clear sky,18
Keszőhidegkút-Gyönk,46.597778,18.426111,2026-03-07 18:54:15.746892,8.16,7.26,8.16,8.16,1026,45,1.77,93,0,0.0,Clear,clear sky,18
Szárazd,46.575556,18.420833,2026-03-07 18:54:16.944421,8.24,7.36,8.24,8.24,1026,45,1.77,92,0,0.0,Clear,clear sky,18
Regöly,46.568889,18.396111,2026-03-07 18:54:18.145939,8.24,7.36,8.24,8.24,1026,45,1.77,92,0,0.0,Clear,clear sky,18
Szakály-Hőgyész,46.523611,18.389444,2026-03-07 18:54:19.348283,8.27,7.4,8.27,8.27,1026,46,1.76,91,0,0.0,Clear,clear sky,18
Dúzs,46.493889,18.377222,2026-03-07 18:54:20.548855,8.35,7.51,8.35,8.35,1026,46,1.74,90,0,0.0,Clear,clear sky,18
Csibrák,46.466667,18.336389,2026-03-07 18:54:21.753114,8.48,7.66,8.48,8.48,1026,46,1.74,91,0,0.0,Clear,clear sky,18
Kurd,46.449167,18.319167,2026-03-07 18:54:22.953256,8.18,7.36,8.18,8.18,1026,46,1.7,92,0,0.0,Clear,clear sky,18
Döbrököz,46.418889,18.255,2026-03-07 18:54:24.152749,8.56,7.79,8.56,8.56,1026,47,1.71,94,0,0.0,Clear,clear sky,18
Dombóvár,46.37,18.149722,2026-03-07 18:54:25.356005,8.68,8.0,8.68,8.68,1026,48,1.63,98,0,0.0,Clear,clear sky,18
Dombóvár alsó,46.363889,18.134167,2026-03-07 18:54:26.556834,8.68,8.0,8.68,8.68,1026,48,1.63,98,0,0.0,Clear,clear sky,18
Somoskőújfalu,48.154722,19.815556,2026-03-07 18:54:27.756654,4.8,4.8,4.8,4.8,1027,66,0.49,179,0,0.0,Clear,clear sky,18
Jászfényszaru,47.593056,19.754444,2026-03-07 18:54:28.955560,7.01,5.95,7.01,7.01,1027,52,1.76,79,0,0.0,Clear,clear sky,18
Pusztamonostor,47.564444,19.794167,2026-03-07 18:54:30.157717,7.06,5.87,7.06,7.06,1027,51,1.89,82,0,0.0,Clear,clear sky,18
Jászberény,47.494444,19.893333,2026-03-07 18:54:31.355736,7.23,5.76,7.23,7.23,1027,50,2.23,87,0,0.0,Clear,clear sky,18
Meggyespele,47.441944,19.938889,2026-03-07 18:54:32.563530,7.38,5.7,7.38,7.38,1027,49,2.53,85,0,0.0,Clear,clear sky,18
Portelek,47.418056,19.958889,2026-03-07 18:54:33.768108,7.4,5.68,7.4,7.4,1027,48,2.59,84,0,0.0,Clear,clear sky,18
Jászboldogháza-Jánoshida,47.366944,20.001389,2026-03-07 18:54:34.969648,7.48,5.67,7.48,7.48,1027,47,2.73,81,0,0.0,Clear,clear sky,18
Jászárokszállás,47.635556,19.971111,2026-03-07 18:54:36.169890,7.29,6.1,7.29,7.29,1027,52,1.93,76,0,0.0,Clear,clear sky,18
Jászdózsa,47.563056,20.028056,2026-03-07 18:54:37.376681,7.4,5.99,7.4,7.4,1027,51,2.19,81,0,0.0,Clear,clear sky,18
Jászapáti,47.513611,20.155,2026-03-07 18:54:38.570096,7.52,5.92,7.52,7.52,1027,51,2.46,82,0,0.0,Clear,clear sky,18
Jászkisér,47.456111,20.203333,2026-03-07 18:54:39.770797,7.61,5.9,7.61,7.61,1027,50,2.62,82,0,0.0,Clear,clear sky,18
Jászladány,47.373333,20.159167,2026-03-07 18:54:40.969420,7.66,5.81,7.66,7.66,1027,48,2.84,79,0,0.0,Clear,clear sky,18
Szászberek,47.320556,20.090833,2026-03-07 18:54:42.173687,7.65,5.77,7.65,7.65,1027,47,2.88,77,0,0.0,Clear,clear sky,18
Gyöngyöshalász,47.743056,19.932222,2026-03-07 18:54:43.376662,7.05,7.05,7.05,7.05,1027,55,1.32,61,0,0.0,Clear,clear sky,18
Gyöngyös,47.783056,19.937222,2026-03-07 18:54:44.575489,6.73,6.73,6.73,6.73,1027,56,1.18,61,0,0.0,Clear,clear sky,18
Erdőtelek,47.683333,20.3025,2026-03-07 18:54:45.777651,7.46,6.17,7.46,7.46,1027,56,2.07,70,0,0.0,Clear,clear sky,18
Heves,47.609444,20.306111,2026-03-07 18:54:46.976601,7.58,6.12,7.58,7.58,1027,54,2.29,75,0,0.0,Clear,clear sky,18
Hevesvezekény,47.562222,20.365833,2026-03-07 18:54:48.184369,7.71,6.2,7.71,7.71,1027,54,2.38,74,0,0.0,Clear,clear sky,18
Tarnaszentmiklós,47.546944,20.390833,2026-03-07 18:54:49.391688,7.73,6.2,7.73,7.73,1027,53,2.42,75,0,0.0,Clear,clear sky,18
Kisköre,47.495556,20.481667,2026-03-07 18:54:50.595453,7.85,6.3,7.85,7.85,1027,53,2.47,72,0,0.0,Clear,clear sky,18
Abádszalók,47.455278,20.553056,2026-03-07 18:54:51.790792,7.88,6.33,7.88,7.88,1027,52,2.48,71,0,0.0,Clear,clear sky,18
Kunhegyes,47.376667,20.641111,2026-03-07 18:54:52.988794,8.0,6.46,8.0,8.0,1027,51,2.49,65,1,0.0,Clear,clear sky,18
Kenderes,47.254444,20.686111,2026-03-07 18:54:54.186521,8.17,6.66,8.17,8.17,1027,49,2.5,62,3,0.0,Clear,clear sky,18
Maklár,47.808056,20.404722,2026-03-07 18:54:55.392419,7.38,6.49,7.38,7.38,1027,61,1.65,63,0,0.0,Clear,clear sky,18
Andornaktálya,47.852203,20.402295,2026-03-07 18:54:56.595587,7.15,7.15,7.15,7.15,1027,63,1.33,60,0,0.0,Clear,clear sky,18
Eger,47.891667,20.381667,2026-03-07 18:54:57.801745,6.99,6.99,6.99,6.99,1027,63,1.08,67,0,0.0,Clear,clear sky,18
Egervár,47.908056,20.380556,2026-03-07 18:54:59.003983,7.08,7.08,7.08,7.08,1027,63,0.92,69,0,0.0,Clear,clear sky,18
Eger-Felnémet,47.936667,20.370556,2026-03-07 18:55:00.197980,6.98,6.98,6.98,6.98,1027,63,0.76,73,0,0.0,Clear,clear sky,18
Szarvaskő,47.988611,20.3325,2026-03-07 18:55:01.402180,6.28,6.28,6.28,6.28,1027,63,0.57,103,0,0.0,Clear,clear sky,18
Mónosbél,48.031944,20.33,2026-03-07 18:55:02.610170,6.3,6.3,6.3,6.3,1027,63,0.56,128,0,0.0,Clear,clear sky,18
Bélapátfalva,48.055556,20.340556,2026-03-07 18:55:03.807080,6.01,6.01,6.01,6.01,1027,63,0.59,137,0,0.0,Clear,clear sky,18
Bélapátfalvi Cementgyár,48.058056,20.355,2026-03-07 18:55:05.014750,6.01,6.01,6.01,6.01,1027,63,0.59,137,0,0.0,Clear,clear sky,18
Szilvásvárad,48.11345,20.37919,2026-03-07 18:55:06.218455,5.63,5.63,5.63,5.63,1027,64,0.57,145,0,0.0,Clear,clear sky,18
Hejőkeresztúr,47.960278,20.869444,2026-03-07 18:55:07.425295,7.55,7.55,7.55,7.55,1027,66,0.9,67,0,0.0,Clear,clear sky,18
Tiszaújváros,47.926111,21.030556,2026-03-07 18:55:08.620192,7.56,6.55,7.56,7.56,1027,64,1.79,74,0,0.0,Clear,clear sky,18
Miskolc-Gömöri,48.106667,20.800278,2026-03-07 18:55:09.828821,7.24,7.24,7.24,7.24,1027,68,0.68,180,0,0.0,Clear,clear sky,18
Sajókeresztúr,48.168008,20.774014,2026-03-07 18:55:11.026091,7.13,7.13,7.13,7.13,1027,68,1.0,184,0,0.0,Clear,clear sky,18
Sajóecseg,48.186111,20.766667,2026-03-07 18:55:12.231640,7.17,7.17,7.17,7.17,1027,67,1.1,183,0,0.0,Clear,clear sky,18
Sajószentpéter,48.222222,20.708056,2026-03-07 18:55:13.436018,7.11,7.11,7.11,7.11,1027,67,1.14,182,0,0.0,Clear,clear sky,18
Kazincbarcika,48.264444,20.6275,2026-03-07 18:55:14.642635,7.01,7.01,7.01,7.01,1027,66,0.8,166,0,0.0,Clear,clear sky,18
Sajókaza,48.272778,20.581944,2026-03-07 18:55:15.844785,7.0,7.0,7.0,7.0,1027,66,0.72,161,0,0.0,Clear,clear sky,18
Vadna,48.276389,20.555278,2026-03-07 18:55:17.052741,7.0,7.0,7.0,7.0,1027,66,0.72,161,0,0.0,Clear,clear sky,18
Dubicsány,48.280833,20.504722,2026-03-07 18:55:18.251277,6.98,6.98,6.98,6.98,1027,65,0.6,139,0,0.0,Clear,clear sky,18
Raposka,46.851389,17.412778,2026-03-07 18:55:19.449620,9.2,8.19,9.2,9.2,1026,52,2.09,108,0,0.0,Clear,clear sky,18
Ivacs,47.641944,19.273889,2026-03-07 18:55:20.645701,6.14,6.14,6.14,6.14,1026,51,1.02,64,0,0.0,Clear,clear sky,18
Kisköre-Tiszahíd,47.480835,20.507698,2026-03-07 18:55:21.845731,7.87,6.3,7.87,7.87,1027,52,2.5,72,0,0.0,Clear,clear sky,18
Rozsály,47.912778,22.7825,2026-03-07 18:55:23.047110,7.04,6.09,7.04,7.04,1027,58,1.66,9,0,0.0,Clear,clear sky,18
Pusztakettős,47.453611,20.749722,2026-03-07 18:55:24.243156,8.02,6.54,8.02,8.02,1027,53,2.42,63,1,0.0,Clear,clear sky,18
Kisvác,47.795278,19.113611,2026-03-07 18:55:25.437518,6.75,6.75,6.75,6.75,1027,55,0.49,102,0,0.0,Clear,clear sky,18
Tiszafüred-Gyártelep,47.6075,20.736111,2026-03-07 18:55:26.639522,7.85,6.28,7.85,7.85,1027,57,2.49,65,0,0.0,Clear,clear sky,18
Újkenéz,48.251111,22.221667,2026-03-07 18:55:27.840966,6.82,6.12,6.82,6.82,1027,60,1.42,356,0,0.0,Clear,clear sky,18
Püspökladány-Vásártér,47.319167,21.096111,2026-03-07 18:55:29.042015,8.4,7.47,8.4,8.4,1027,52,1.84,57,7,0.0,Clear,clear sky,18
Végegyháza alsó,46.3675,20.866944,2026-03-07 18:55:30.238992,9.14,8.41,9.14,9.14,1026,61,1.76,138,0,0.0,Clear,clear sky,18
Orosháza felső,46.553611,20.655278,2026-03-07 18:55:31.445642,8.81,7.77,8.81,8.81,1026,56,2.04,88,0,0.0,Clear,clear sky,18
Ambrózfalva,46.353056,20.740556,2026-03-07 18:55:32.654731,9.04,8.25,9.04,9.04,1026,59,1.8,138,0,0.0,Clear,clear sky,18
Alsónyék,46.199444,18.738056,2026-03-07 18:55:33.868889,8.74,8.74,8.74,8.74,1026,52,1.29,66,0,0.0,Clear,clear sky,18
Tompapuszta,46.321389,20.966389,2026-03-07 18:55:35.066439,9.18,8.49,9.18,9.18,1026,62,1.72,144,0,0.0,Clear,clear sky,18
Halászlak,46.911879,20.56228,2026-03-07 18:55:36.270442,8.37,6.85,8.37,8.37,1026,46,2.56,65,0,0.0,Clear,clear sky,18
Sirató,46.840556,20.61,2026-03-07 18:55:37.475686,8.49,6.98,8.49,8.49,1026,47,2.57,66,0,0.0,Clear,clear sky,18
Csabacsűd felső,46.829167,20.649167,2026-03-07 18:55:38.675646,8.52,7.03,8.52,8.52,1026,47,2.56,67,0,0.0,Clear,clear sky,18
Orosháza-Üveggyár,46.579979,20.683644,2026-03-07 18:55:39.870769,8.8,7.72,8.8,8.8,1026,55,2.09,86,0,0.0,Clear,clear sky,18
Gyulai városerdő,46.69482,21.32281,2026-03-07 18:55:41.069737,9.01,8.01,9.01,9.01,1027,56,2.03,61,0,0.0,Clear,clear sky,18
Kórógyszentgyörgy,46.564377,20.224998,2026-03-07 18:55:42.272321,8.2,6.58,8.2,8.2,1026,51,2.65,67,0,0.0,Clear,clear sky,18
Kunszállás,46.784444,19.767222,2026-03-07 18:55:43.481481,7.65,6.17,7.65,7.65,1026,45,2.33,72,0,0.0,Clear,clear sky,18
Selymes,46.655321,19.8534,2026-03-07 18:55:44.674075,7.66,6.07,7.66,7.66,1026,47,2.47,66,0,0.0,Clear,clear sky,18
Petőfiszállási tanyák,46.587805,19.874509,2026-03-07 18:55:45.875064,7.77,6.17,7.77,7.77,1026,48,2.51,65,0,0.0,Clear,clear sky,18
Kisteleki szőlők,46.514199,19.92868,2026-03-07 18:55:47.075377,7.87,6.32,7.87,7.87,1026,50,2.48,65,0,0.0,Clear,clear sky,18
Kapitányság,46.435336,19.987564,2026-03-07 18:55:48.273481,8.11,6.83,8.11,8.11,1026,52,2.19,69,0,0.0,Clear,clear sky,18
Őszeszék,46.39025,20.016017,2026-03-07 18:55:49.469613,8.26,7.3,8.26,8.26,1026,53,1.85,76,0,0.0,Clear,clear sky,18
Vilmaszállás,46.366389,20.030833,2026-03-07 18:55:50.671073,8.31,7.53,8.31,8.31,1026,54,1.68,80,0,0.0,Clear,clear sky,18
Jánosszállás,46.334359,20.051199,2026-03-07 18:55:51.867038,8.37,7.76,8.37,8.37,1026,54,1.53,87,0,0.0,Clear,clear sky,18
Felsőpakony,47.343056,19.230556,2026-03-07 18:55:53.066319,6.84,5.02,6.84,6.84,1026,48,2.58,75,0,0.0,Clear,clear sky,18
Felsőméntelek,46.987074,19.557745,2026-03-07 18:55:54.274142,7.4,5.68,7.4,7.4,1026,46,2.59,87,0,0.0,Clear,clear sky,18
Alsóméntelek,46.961558,19.579121,2026-03-07 18:55:55.474337,7.44,5.75,7.44,7.44,1026,46,2.56,87,0,0.0,Clear,clear sky,18
Nagynyír,46.943319,19.585447,2026-03-07 18:55:56.669710,7.47,5.8,7.47,7.47,1026,46,2.54,87,0,0.0,Clear,clear sky,18
Úrihegy,46.917778,19.621389,2026-03-07 18:55:57.879419,7.58,5.96,7.58,7.58,1026,45,2.49,85,0,0.0,Clear,clear sky,18
Miklóstelep,46.913412,19.630913,2026-03-07 18:55:59.083027,7.65,6.07,7.65,7.65,1026,45,2.46,84,0,0.0,Clear,clear sky,18
Tiszajenő alsó,47.016944,20.134444,2026-03-07 18:56:00.285839,7.91,6.34,7.91,7.91,1026,45,2.51,73,0,0.0,Clear,clear sky,18
Óbög,46.987222,20.111111,2026-03-07 18:56:01.481335,7.89,6.36,7.89,7.89,1026,45,2.45,73,0,0.0,Clear,clear sky,18
Árpádszállás,46.866456,19.989163,2026-03-07 18:56:02.703073,7.78,6.34,7.78,7.78,1026,45,2.31,72,0,0.0,Clear,clear sky,18
Tőserdő,46.851111,19.980278,2026-03-07 18:56:03.906506,7.81,6.37,7.81,7.81,1026,45,2.32,70,0,0.0,Clear,clear sky,18
Tiszaalpár felső,46.836256,19.976753,2026-03-07 18:56:05.110942,7.81,6.37,7.81,7.81,1026,45,2.32,70,0,0.0,Clear,clear sky,18
Borsihalom,46.773056,19.92,2026-03-07 18:56:06.314166,7.75,6.28,7.75,7.75,1026,46,2.34,68,0,0.0,Clear,clear sky,18
Petőfiváros,46.725556,19.848611,2026-03-07 18:56:07.514805,7.65,6.13,7.65,7.65,1026,46,2.38,68,0,0.0,Clear,clear sky,18
Csorna,47.601944,17.248889,2026-03-07 18:56:08.717461,9.77,8.41,9.77,9.77,1026,57,2.71,143,0,0.0,Clear,clear sky,18
Szorgalmatos,47.986667,21.366389,2026-03-07 18:56:09.915586,7.38,6.09,7.38,7.38,1027,62,2.05,59,0,0.0,Clear,clear sky,18
Fótfürdő,47.6225,19.200556,2026-03-07 18:56:11.129484,6.39,6.39,6.39,6.39,1026,50,1.08,64,0,0.0,Clear,clear sky,18
Fenyveshegy,47.818333,19.068056,2026-03-07 18:56:12.331487,6.94,6.94,6.94,6.94,1027,56,0.56,100,0,0.0,Clear,clear sky,18
Hűvösvölgy,47.541202,18.96351,2026-03-07 18:56:13.529682,5.39,4.59,5.39,5.39,1026,48,1.35,70,0,0.0,Clear,clear sky,18
Hárshegy,47.535318,18.961433,2026-03-07 18:56:14.718574,5.39,4.59,5.39,5.39,1026,48,1.35,70,0,0.0,Clear,clear sky,18
Szépjuhászné,47.528277,18.955246,2026-03-07 18:56:15.914426,5.16,4.2,5.16,5.16,1026,48,1.45,72,0,0.0,Clear,clear sky,18
Jánoshegy,47.51433,18.95047,2026-03-07 18:56:17.111571,5.16,4.2,5.16,5.16,1026,48,1.45,72,0,0.0,Clear,clear sky,18
Virágvölgy,47.505965,18.95876,2026-03-07 18:56:18.309940,5.4,4.33,5.4,5.4,1026,47,1.56,72,0,0.0,Clear,clear sky,18
Csillebérc,47.498196,18.961694,2026-03-07 18:56:19.512525,5.4,4.33,5.4,5.4,1026,47,1.56,72,0,0.0,Clear,clear sky,18
Normafa,47.5,18.970558,2026-03-07 18:56:20.720518,5.4,4.33,5.4,5.4,1026,47,1.56,72,0,0.0,Clear,clear sky,18
Széchenyihegy,47.49413,18.977049,2026-03-07 18:56:21.914924,4.59,3.39,4.59,4.59,1026,47,1.57,73,0,0.0,Clear,clear sky,18
Balatonfőkajár felső,47.031389,18.215278,2026-03-07 18:56:23.125765,7.7,6.69,7.7,7.7,1026,48,1.81,97,0,0.0,Clear,clear sky,18
Piroska,47.148333,20.129722,2026-03-07 18:56:24.332631,7.81,6.06,7.81,7.81,1026,45,2.74,73,0,0.0,Clear,clear sky,18
Somodor,46.4725,17.836667,2026-03-07 18:56:25.533388,8.58,7.55,8.58,8.58,1026,48,1.99,100,0,0.0,Clear,clear sky,18
Középmező,45.995833,18.668889,2026-03-07 18:56:26.737056,9.18,8.65,9.18,9.18,1026,51,1.56,58,0,0.0,Clear,clear sky,18
Jobbágyi,47.828889,19.6875,2026-03-07 18:56:27.944278,6.89,6.89,6.89,6.89,1027,56,0.73,73,0,0.0,Clear,clear sky,18
Ferihegy,47.437222,19.223889,2026-03-07 18:56:29.142320,6.66,5.3,6.66,6.66,1026,46,2.0,74,0,0.0,Clear,clear sky,18
Máriapócs,47.852778,22.019167,2026-03-07 18:56:30.336114,7.35,6.37,7.35,7.35,1027,57,1.73,47,0,0.0,Clear,clear sky,18
Máriaudvar,47.751944,19.165,2026-03-07 18:56:31.539423,6.88,6.88,6.88,6.88,1026,54,0.59,70,0,0.0,Clear,clear sky,18
Nagyberki,46.353333,18.004167,2026-03-07 18:56:32.743867,8.59,7.99,8.59,8.59,1026,48,1.55,99,0,0.0,Clear,clear sky,18
Badacsonytomaj,46.804722,17.518056,2026-03-07 18:56:33.938872,9.14,7.96,9.14,9.14,1026,51,2.29,104,0,0.0,Clear,clear sky,18
Badacsony,46.788611,17.506389,2026-03-07 18:56:35.140206,9.24,8.08,9.24,9.24,1026,51,2.29,106,0,0.0,Clear,clear sky,18
Badacsonylábdihegy,46.793889,17.470833,2026-03-07 18:56:36.351311,9.24,8.08,9.24,9.24,1026,51,2.29,106,0,0.0,Clear,clear sky,18
Badacsonytördemic-Szigliget,46.809722,17.469167,2026-03-07 18:56:37.548909,9.21,8.06,9.21,9.21,1026,51,2.27,105,0,0.0,Clear,clear sky,18
Nemesgulács-Kisapáti,46.836944,17.476389,2026-03-07 18:56:38.754479,9.2,8.07,9.2,9.2,1026,51,2.24,104,0,0.0,Clear,clear sky,18
Tapolca,46.877778,17.428611,2026-03-07 18:56:39.958423,9.15,8.14,9.15,9.15,1026,52,2.08,108,0,0.0,Clear,clear sky,18
Uzsabánya alsó,46.898333,17.345278,2026-03-07 18:56:41.159651,8.08,6.97,8.08,8.08,1026,53,1.98,112,0,0.0,Clear,clear sky,18
Uzsa,46.920278,17.331667,2026-03-07 18:56:42.362808,8.88,7.88,8.88,8.88,1026,53,2.01,114,0,0.0,Clear,clear sky,18
Sümegi Bazaltbánya,46.9525,17.2925,2026-03-07 18:56:43.557340,8.92,7.92,8.92,8.92,1026,53,2.02,118,0,0.0,Clear,clear sky,18
Sümeg,46.981111,17.270833,2026-03-07 18:56:44.760525,9.13,8.15,9.13,9.13,1026,54,2.03,124,0,0.0,Clear,clear sky,18
Gógánfa,47.021111,17.207778,2026-03-07 18:56:45.955666,9.18,8.09,9.18,9.18,1026,54,2.18,128,0,0.0,Clear,clear sky,18
Ukk,47.041944,17.195833,2026-03-07 18:56:47.151702,9.27,8.13,9.27,9.27,1026,55,2.26,130,0,0.0,Clear,clear sky,18
Nemeskeresztúr,47.093611,17.183611,2026-03-07 18:56:48.349332,9.24,7.99,9.24,9.24,1026,54,2.4,131,0,0.0,Clear,clear sky,18
Jánosháza,47.115833,17.171667,2026-03-07 18:56:49.550662,9.33,8.05,9.33,9.33,1026,54,2.47,131,0,0.0,Clear,clear sky,18
Keszthely,46.758333,17.248056,2026-03-07 18:56:50.767357,9.13,8.56,9.13,9.13,1026,55,1.59,111,0,0.0,Clear,clear sky,18
Alsógyenes,46.765844,17.276435,2026-03-07 18:56:51.973803,9.19,8.43,9.19,9.19,1026,54,1.79,110,0,0.0,Clear,clear sky,18
Gyenesdiás,46.763333,17.292778,2026-03-07 18:56:53.174015,9.19,8.43,9.19,9.19,1026,54,1.79,110,0,0.0,Clear,clear sky,18
Vonyarcvashegy,46.755278,17.318333,2026-03-07 18:56:54.367719,8.64,7.7,8.64,8.64,1026,53,1.9,110,0,0.0,Clear,clear sky,18
Balatongyörök,46.751944,17.354444,2026-03-07 18:56:55.569515,9.23,8.29,9.23,9.23,1026,53,2.01,109,0,0.0,Clear,clear sky,18
Becehegy,46.776111,17.372778,2026-03-07 18:56:56.769547,8.07,6.94,8.07,8.07,1026,53,2.01,109,0,0.0,Clear,clear sky,18
Balatonederics,46.8025,17.385,2026-03-07 18:56:57.972312,8.0,6.85,8.0,8.0,1026,53,2.01,109,0,0.0,Clear,clear sky,18
Dabronc,47.025766,17.167006,2026-03-07 18:56:59.171185,9.23,8.16,9.23,9.23,1026,55,2.17,129,0,0.0,Clear,clear sky,18
Türje,46.994444,17.093611,2026-03-07 18:57:00.367688,9.21,8.23,9.21,9.21,1026,56,2.05,131,0,0.0,Clear,clear sky,18
Zalabér-Batyk,46.983056,17.040833,2026-03-07 18:57:01.573679,9.29,8.46,9.29,9.29,1026,58,1.89,130,0,0.0,Clear,clear sky,18
Pakod,46.959167,16.996667,2026-03-07 18:57:02.774434,9.18,8.35,9.18,9.18,1026,58,1.87,129,0,0.0,Clear,clear sky,18
Pókaszepetk,46.924444,16.972222,2026-03-07 18:57:03.978332,9.24,8.64,9.24,9.24,1026,59,1.64,126,0,0.0,Clear,clear sky,18
Kemendollár,46.905833,16.946667,2026-03-07 18:57:05.178568,8.94,8.3,8.94,8.94,1026,59,1.63,126,0,0.0,Clear,clear sky,18
Zalaegerszeg,46.833056,16.848333,2026-03-07 18:57:06.389988,8.89,8.89,8.89,8.89,1026,60,1.33,122,0,0.0,Clear,clear sky,18
Bocfölde,46.780278,16.853611,2026-03-07 18:57:07.596680,8.95,8.95,8.95,8.95,1026,60,1.15,123,0,0.0,Clear,clear sky,18
Sárhida,46.755833,16.851389,2026-03-07 18:57:08.796528,8.11,8.11,8.11,8.11,1026,60,1.12,125,0,0.0,Clear,clear sky,18
Bak,46.7325,16.849167,2026-03-07 18:57:10.015870,8.51,8.51,8.51,8.51,1026,60,1.08,126,0,0.0,Clear,clear sky,18
Tófej,46.670833,16.801944,2026-03-07 18:57:11.211405,8.29,8.29,8.29,8.29,1026,60,1.1,126,0,0.0,Clear,clear sky,18
Gutorfölde,46.646944,16.739722,2026-03-07 18:57:12.413753,8.51,8.51,8.51,8.51,1026,60,1.25,125,0,0.0,Clear,clear sky,18
Csömödér-Páka,46.608056,16.641111,2026-03-07 18:57:13.616167,8.64,7.99,8.64,8.64,1026,60,1.6,124,0,0.0,Clear,clear sky,18
Iklódbördőce,46.603056,16.604722,2026-03-07 18:57:14.822973,8.45,7.56,8.45,8.45,1026,61,1.81,125,0,0.0,Clear,clear sky,18
Lenti,46.621389,16.528611,2026-03-07 18:57:16.028367,8.6,7.54,8.6,8.6,1026,61,2.02,126,0,0.0,Clear,clear sky,18
Rédics,46.618056,16.471111,2026-03-07 18:57:17.230309,8.58,7.44,8.58,8.58,1026,62,2.11,126,0,0.0,Clear,clear sky,18
Zalalövő,46.845556,16.576389,2026-03-07 18:57:18.428631,8.64,7.7,8.64,8.64,1026,62,1.9,125,0,0.0,Clear,clear sky,18
Zalaegerszeg-Ola,46.849167,16.844722,2026-03-07 18:57:19.622747,8.89,8.89,8.89,8.89,1026,60,1.33,122,0,0.0,Clear,clear sky,18
Andráshida,46.863116,16.7792,2026-03-07 18:57:20.816730,8.86,8.39,8.86,8.86,1026,61,1.46,122,0,0.0,Clear,clear sky,18
Bagod,46.875,16.746111,2026-03-07 18:57:22.017953,8.94,8.39,8.94,8.94,1026,61,1.55,122,0,0.0,Clear,clear sky,18
Zalaszentgyörgy,46.872222,16.7125,2026-03-07 18:57:23.226835,8.88,8.25,8.88,8.88,1026,61,1.61,122,0,0.0,Clear,clear sky,18
Zalacséb-Salomvár,46.858056,16.662222,2026-03-07 18:57:24.422283,8.63,7.92,8.63,8.63,1026,61,1.66,123,0,0.0,Clear,clear sky,18
Kópháza,47.631389,16.6375,2026-03-07 18:57:25.616908,9.74,8.24,9.74,9.74,1025,59,2.93,171,1,0.0,Clear,clear sky,18
Nagycenk,47.601111,16.690278,2026-03-07 18:57:26.815041,9.87,8.39,9.87,9.87,1026,59,2.95,169,0,0.0,Clear,clear sky,18
Sopronkövesd,47.548333,16.748056,2026-03-07 18:57:28.015550,9.62,8.07,9.62,9.62,1026,59,2.98,167,0,0.0,Clear,clear sky,18
Lövő,47.509444,16.7775,2026-03-07 18:57:29.221470,9.53,7.92,9.53,9.53,1026,59,3.04,164,0,0.0,Clear,clear sky,18
Újkér,47.457778,16.786667,2026-03-07 18:57:30.422919,9.55,8.03,9.55,9.55,1026,59,2.9,163,0,0.0,Clear,clear sky,18
Bük,47.388611,16.752222,2026-03-07 18:57:31.617034,9.53,8.23,9.53,9.53,1026,59,2.55,160,0,0.0,Clear,clear sky,18
Acsád,47.308333,16.734722,2026-03-07 18:57:32.810530,9.15,7.97,9.15,9.15,1026,60,2.29,152,0,0.0,Clear,clear sky,18
Salköveskút-Vassurány,47.291389,16.704167,2026-03-07 18:57:34.005332,9.15,7.98,9.15,9.15,1026,60,2.27,149,0,0.0,Clear,clear sky,18
Zalaszentiván,46.8875,16.909444,2026-03-07 18:57:35.219499,9.06,8.57,9.06,9.06,1026,60,1.51,123,0,0.0,Clear,clear sky,18
Alsónemesapáti,46.854167,16.936389,2026-03-07 18:57:36.422438,9.14,8.78,9.14,9.14,1026,59,1.4,123,0,0.0,Clear,clear sky,18
Józsa,47.600833,21.584444,2026-03-07 18:57:37.623770,7.79,6.18,7.79,7.79,1027,56,2.53,59,4,0.0,Clear,clear sky,18
Hajdúszentgyörgy,47.608056,21.578333,2026-03-07 18:57:38.834723,7.79,6.18,7.79,7.79,1027,56,2.53,59,4,0.0,Clear,clear sky,18
Zelemér,47.627778,21.578333,2026-03-07 18:57:40.031729,7.72,6.09,7.72,7.72,1027,57,2.54,59,3,0.0,Clear,clear sky,18
Hajdúböszörmény,47.668056,21.524167,2026-03-07 18:57:41.226685,7.72,6.07,7.72,7.72,1027,58,2.57,58,2,0.0,Clear,clear sky,18
Hajdúvid,47.749444,21.508056,2026-03-07 18:57:42.424336,7.71,6.09,7.71,7.71,1027,59,2.53,57,0,0.0,Clear,clear sky,18
Hajdúdorog,47.805556,21.493056,2026-03-07 18:57:43.626425,7.6,6.0,7.6,7.6,1027,60,2.47,57,0,0.0,Clear,clear sky,18
Hajdúnánás,47.831944,21.426667,2026-03-07 18:57:44.824606,7.64,6.04,7.64,7.64,1027,61,2.49,59,0,0.0,Clear,clear sky,18
Hajdúnánás-Vásártér,47.843056,21.407222,2026-03-07 18:57:46.025592,7.64,6.04,7.64,7.64,1027,61,2.49,59,0,0.0,Clear,clear sky,18
Tedej,47.903611,21.404444,2026-03-07 18:57:47.232869,7.5,6.0,7.5,7.5,1027,61,2.32,59,0,0.0,Clear,clear sky,18
Tiszavasvári,47.945278,21.374722,2026-03-07 18:57:48.431098,7.46,6.01,7.46,7.46,1027,62,2.25,60,0,0.0,Clear,clear sky,18
Egyházerdő,47.9725,21.365,2026-03-07 18:57:49.629829,7.43,6.06,7.43,7.43,1027,62,2.16,60,0,0.0,Clear,clear sky,18
Tiszalök,48.013056,21.369167,2026-03-07 18:57:50.829947,7.34,6.14,7.34,7.34,1027,62,1.95,57,0,0.0,Clear,clear sky,18
Hajnalos,47.998889,21.414167,2026-03-07 18:57:52.025607,7.39,6.12,7.39,7.39,1027,61,2.04,57,0,0.0,Clear,clear sky,18
Kisfástanya,47.989167,21.47,2026-03-07 18:57:53.226764,7.35,6.09,7.35,7.35,1027,61,2.02,55,0,0.0,Clear,clear sky,18
Tiszaeszlár,48.010556,21.491944,2026-03-07 18:57:54.434181,7.33,6.19,7.33,7.33,1027,61,1.89,51,0,0.0,Clear,clear sky,18
Bashalom,48.026111,21.514722,2026-03-07 18:57:55.648776,7.32,6.27,7.32,7.32,1027,61,1.79,49,0,0.0,Clear,clear sky,18
Sáránd,47.415556,21.625,2026-03-07 18:57:56.842472,8.31,6.96,8.31,8.31,1027,54,2.32,59,8,0.0,Clear,clear sky,18
Derecske,47.365,21.584167,2026-03-07 18:57:58.048443,8.41,7.19,8.41,8.41,1027,53,2.18,58,8,0.0,Clear,clear sky,18
Derecske-Vásártér,47.352222,21.58,2026-03-07 18:57:59.249251,8.41,7.19,8.41,8.41,1027,53,2.18,58,8,0.0,Clear,clear sky,18
Konyár,47.323611,21.666111,2026-03-07 18:58:00.452675,8.44,7.24,8.44,8.44,1027,53,2.16,57,8,0.0,Clear,clear sky,18
Konyári Sóstófürdő,47.324167,21.744444,2026-03-07 18:58:01.658815,8.4,7.1,8.4,8.4,1027,54,2.28,58,8,0.0,Clear,clear sky,18
Pocsaj-Esztár,47.288333,21.793056,2026-03-07 18:58:02.861991,8.37,7.04,8.37,8.37,1027,54,2.3,58,8,0.0,Clear,clear sky,18
Kismarja,47.243889,21.813889,2026-03-07 18:58:04.069562,8.42,7.2,8.42,8.42,1027,55,2.18,59,8,0.0,Clear,clear sky,18
Nagykereki,47.191667,21.8,2026-03-07 18:58:05.279507,8.43,7.33,8.43,8.43,1027,55,2.04,60,7,0.0,Clear,clear sky,18
Debrecen-Szabadságtelep,47.527778,21.658611,2026-03-07 18:58:06.484377,7.99,6.47,7.99,7.99,1027,55,2.46,60,6,0.0,Clear,clear sky,18
Kondoroskert,47.525556,21.713889,2026-03-07 18:58:07.681194,7.96,6.45,7.96,7.96,1027,55,2.44,58,6,0.0,Clear,clear sky,18
Nagycsere,47.523889,21.763056,2026-03-07 18:58:08.884191,7.93,6.42,7.93,7.93,1027,55,2.44,58,6,0.0,Clear,clear sky,18
Haláp,47.521667,21.818333,2026-03-07 18:58:10.084887,7.88,6.35,7.88,7.88,1027,55,2.45,57,6,0.0,Clear,clear sky,18
Vámospércs,47.518056,21.893889,2026-03-07 18:58:11.284885,7.8,6.27,7.8,7.8,1027,55,2.43,55,6,0.0,Clear,clear sky,18
Szentannapuszta,47.52,21.965833,2026-03-07 18:58:12.488327,7.78,6.25,7.78,7.78,1027,55,2.42,53,6,0.0,Clear,clear sky,18
Nyírábrány,47.523889,22.016944,2026-03-07 18:58:13.683975,7.74,6.22,7.74,7.74,1027,55,2.41,53,6,0.0,Clear,clear sky,18
Dombostanya,47.602778,21.706389,2026-03-07 18:58:14.882149,7.79,6.24,7.79,7.79,1027,56,2.46,60,4,0.0,Clear,clear sky,18
Hajdúsámson,47.608056,21.755278,2026-03-07 18:58:16.080995,7.76,6.25,7.76,7.76,1027,56,2.4,59,4,0.0,Clear,clear sky,18
Tamásipuszta,47.632778,21.796111,2026-03-07 18:58:17.284693,7.65,6.16,7.65,7.65,1027,56,2.35,58,3,0.0,Clear,clear sky,18
Aradványpuszta,47.662778,21.8425,2026-03-07 18:58:18.490609,7.6,6.15,7.6,7.6,1027,57,2.29,58,3,0.0,Clear,clear sky,18
Nyíradony,47.699444,21.903333,2026-03-07 18:58:19.690533,7.44,6.1,7.44,7.44,1027,58,2.12,56,1,0.0,Clear,clear sky,18
Nyírmihálydi,47.7375,21.958889,2026-03-07 18:58:20.892932,7.39,6.12,7.39,7.39,1027,58,2.04,55,0,0.0,Clear,clear sky,18
Nyírgelse,47.750833,21.987778,2026-03-07 18:58:22.092827,7.3,6.08,7.3,7.3,1027,58,1.96,53,0,0.0,Clear,clear sky,18
Nyírbogát,47.793056,22.066389,2026-03-07 18:58:23.293945,7.3,6.29,7.3,7.3,1027,58,1.75,47,0,0.0,Clear,clear sky,18
Nagykálló,47.871111,21.825833,2026-03-07 18:58:24.503206,7.46,6.36,7.46,7.46,1027,58,1.87,48,0,0.0,Clear,clear sky,18
Kállósemjén,47.854722,21.935,2026-03-07 18:58:25.697819,7.45,6.39,7.45,7.45,1027,57,1.82,50,0,0.0,Clear,clear sky,18
Nyírbátor,47.8425,22.131111,2026-03-07 18:58:26.907001,7.22,6.27,7.22,7.22,1027,58,1.68,43,0,0.0,Clear,clear sky,18
Nyírcsászári,47.865556,22.179167,2026-03-07 18:58:28.106587,7.21,6.36,7.21,7.21,1027,58,1.59,37,0,0.0,Clear,clear sky,18
Hodász,47.896111,22.213611,2026-03-07 18:58:29.300630,7.13,6.33,7.13,7.13,1027,58,1.54,30,0,0.0,Clear,clear sky,18
Nyírmeggyes,47.9225,22.256667,2026-03-07 18:58:30.502907,7.14,6.4,7.14,7.14,1027,58,1.49,24,0,0.0,Clear,clear sky,18
Mátészalka,47.951389,22.313333,2026-03-07 18:58:31.710282,7.15,6.43,7.15,7.15,1027,58,1.47,20,0,0.0,Clear,clear sky,18
Kocsord,47.941944,22.375833,2026-03-07 18:58:32.910011,7.24,6.47,7.24,7.24,1027,59,1.53,16,0,0.0,Clear,clear sky,18
Kocsord alsó,47.946389,22.400556,2026-03-07 18:58:34.110573,7.24,6.47,7.24,7.24,1027,59,1.53,16,0,0.0,Clear,clear sky,18
Győrtelek,47.936667,22.424722,2026-03-07 18:58:35.313836,7.24,6.44,7.24,7.24,1027,59,1.55,15,0,0.0,Clear,clear sky,18
Győrtelek alsó,47.921111,22.443333,2026-03-07 18:58:36.517392,7.22,6.39,7.22,7.22,1027,59,1.58,15,0,0.0,Clear,clear sky,18
Ököritófülpös,47.911389,22.495,2026-03-07 18:58:37.716459,7.2,6.34,7.2,7.2,1027,59,1.6,14,0,0.0,Clear,clear sky,18
Porcsalma-Tyukod,47.868056,22.568333,2026-03-07 18:58:38.911954,7.17,6.25,7.17,7.17,1027,58,1.65,17,0,0.0,Clear,clear sky,18
Csenger,47.826111,22.666389,2026-03-07 18:58:40.109114,7.09,6.16,7.09,7.09,1027,58,1.65,19,0,0.0,Clear,clear sky,18
Kisfái,46.888303,19.807366,2026-03-07 18:58:41.319432,7.73,6.28,7.73,7.73,1026,45,2.31,78,0,0.0,Clear,clear sky,18
Nyárlőrinci szőlők,46.8775,19.828333,2026-03-07 18:58:42.517381,7.72,6.29,7.72,7.72,1026,45,2.29,75,0,0.0,Clear,clear sky,18
Nyárlőrinc alsó,46.863889,19.878889,2026-03-07 18:58:43.717164,7.69,6.25,7.69,7.69,1026,45,2.29,74,0,0.0,Clear,clear sky,18
Tiszaug-Tiszahídfő,46.866106,20.052098,2026-03-07 18:58:44.909142,7.9,6.47,7.9,7.9,1026,45,2.33,71,0,0.0,Clear,clear sky,18
Csongrádi úti tanyák,46.690278,19.921667,2026-03-07 18:58:46.110333,7.73,6.13,7.73,7.73,1026,47,2.5,64,0,0.0,Clear,clear sky,18
Kettőshalom,46.689167,20.0225,2026-03-07 18:58:47.306078,7.87,6.25,7.87,7.87,1026,47,2.57,64,0,0.0,Clear,clear sky,18
Csongrád alsó,46.711389,20.126389,2026-03-07 18:58:48.505698,7.97,6.35,7.97,7.97,1026,47,2.59,64,0,0.0,Clear,clear sky,18
Dónát,46.66988,20.368168,2026-03-07 18:58:49.706758,8.3,6.69,8.3,8.3,1026,49,2.67,67,0,0.0,Clear,clear sky,18
Pusztatemplom,46.676667,20.407222,2026-03-07 18:58:50.899968,8.36,6.78,8.36,8.36,1026,50,2.64,68,0,0.0,Clear,clear sky,18
Előhát,47.364722,20.653611,2026-03-07 18:58:52.098471,8.0,6.45,8.0,8.0,1027,51,2.51,65,2,0.0,Clear,clear sky,18
Polgárdi-Tekerespuszta,47.017778,18.297778,2026-03-07 18:58:53.300981,7.58,6.33,7.58,7.58,1026,48,2.05,101,0,0.0,Clear,clear sky,18
Szatina-Kishajmás,46.202778,18.083611,2026-03-07 18:58:54.497715,8.39,7.93,8.39,8.39,1026,49,1.4,92,0,0.0,Clear,clear sky,18
Márok,45.886944,18.499167,2026-03-07 18:58:55.700923,9.23,8.77,9.23,9.23,1026,49,1.5,60,0,0.0,Clear,clear sky,18
Nagynyárád,45.953333,18.564722,2026-03-07 18:58:56.896815,9.1,8.7,9.1,9.1,1026,50,1.43,54,0,0.0,Clear,clear sky,18
Szászvár,46.2875,18.369722222222222,2026-03-07 18:58:58.094289,8.25,8.25,8.25,8.25,1026,49,1.33,93,0,0.0,Clear,clear sky,18
Cikó,46.263514,18.557605,2026-03-07 18:58:59.295246,8.54,8.54,8.54,8.54,1026,49,1.1,73,0,0.0,Clear,clear sky,18
Gyöngyfa-Magyarmecske,45.983889,17.958889,2026-03-07 18:59:00.501076,9.24,8.27,9.24,9.24,1026,50,2.05,75,0,0.0,Clear,clear sky,18
Nagyhát,47.581389,21.445,2026-03-07 18:59:01.696044,7.97,6.35,7.97,7.97,1027,56,2.6,59,5,0.0,Clear,clear sky,18
Balmazújváros,47.613889,21.348056,2026-03-07 18:59:02.891739,8.02,6.34,8.02,8.02,1027,58,2.69,58,3,0.0,Clear,clear sky,18
Kónya,47.600833,21.2375,2026-03-07 18:59:04.089979,8.04,6.36,8.04,8.04,1027,57,2.69,58,3,0.0,Clear,clear sky,18
Hortobágy,47.586111,21.154722,2026-03-07 18:59:05.288162,8.01,6.34,8.01,8.01,1027,58,2.67,58,2,0.0,Clear,clear sky,18
Hortobágyi Halastó,47.604167,21.074167,2026-03-07 18:59:06.490382,7.96,6.3,7.96,7.96,1027,58,2.65,58,1,0.0,Clear,clear sky,18
Ohat-Pusztakócs,47.623333,20.951111,2026-03-07 18:59:07.689113,7.88,6.27,7.88,7.88,1027,58,2.56,60,0,0.0,Clear,clear sky,18
Egyek,47.616944,20.883611,2026-03-07 18:59:08.888388,7.87,6.29,7.87,7.87,1027,58,2.51,62,0,0.0,Clear,clear sky,18
Tiszafüred,47.627778,20.756111,2026-03-07 18:59:10.088554,7.83,6.28,7.83,7.83,1027,58,2.47,64,0,0.0,Clear,clear sky,18
Poroszló,47.657778,20.654444,2026-03-07 18:59:11.285798,7.82,6.33,7.82,7.82,1027,58,2.39,67,0,0.0,Clear,clear sky,18
Kétútköz,47.694167,20.565,2026-03-07 18:59:12.487330,7.72,6.34,7.72,7.72,1027,59,2.22,66,0,0.0,Clear,clear sky,18
Egerfarmos,47.711667,20.5225,2026-03-07 18:59:13.685491,7.7,6.35,7.7,7.7,1027,59,2.19,67,0,0.0,Clear,clear sky,18
Piliscsaba,47.638056,18.829722,2026-03-07 18:59:14.884388,5.64,5.64,5.64,5.64,1026,53,1.12,79,0,0.0,Clear,clear sky,18
Pilisjászfalu,47.656111,18.797778,2026-03-07 18:59:16.078539,6.42,6.42,6.42,6.42,1026,53,1.15,82,0,0.0,Clear,clear sky,18
Leányvár,47.687594,18.772553,2026-03-07 18:59:17.279465,6.52,6.52,6.52,6.52,1026,54,1.14,87,0,0.0,Clear,clear sky,18
Dorog,47.723333,18.732778,2026-03-07 18:59:18.474869,7.01,7.01,7.01,7.01,1026,55,1.19,100,0,0.0,Clear,clear sky,18
Esztergom-Kertváros,47.743333,18.719167,2026-03-07 18:59:19.668033,7.14,7.14,7.14,7.14,1026,55,1.2,103,0,0.0,Clear,clear sky,18
Esztergom,47.7775,18.743611,2026-03-07 18:59:20.873918,6.85,6.85,6.85,6.85,1026,55,1.15,102,0,0.0,Clear,clear sky,18
Dunaalmás,47.733056,18.326389,2026-03-07 18:59:22.072355,7.83,6.88,7.83,7.83,1026,52,1.77,115,0,0.0,Clear,clear sky,18
Neszmély,47.734444,18.345278,2026-03-07 18:59:23.268195,7.83,6.88,7.83,7.83,1026,52,1.77,115,0,0.0,Clear,clear sky,18
Süttő,47.761111,18.455,2026-03-07 18:59:24.463145,7.6,6.91,7.6,7.6,1026,53,1.5,117,0,0.0,Clear,clear sky,18
Piszke,47.75307,18.478017,2026-03-07 18:59:25.661142,7.56,6.93,7.56,7.56,1027,54,1.45,116,0,0.0,Clear,clear sky,18
Lábatlan,47.751944,18.513333,2026-03-07 18:59:26.858759,7.48,6.88,7.48,7.48,1026,54,1.41,116,0,0.0,Clear,clear sky,18
Eternitgyár,47.755544,18.530014,2026-03-07 18:59:28.055420,7.48,6.88,7.48,7.48,1026,54,1.41,116,0,0.0,Clear,clear sky,18
Nyergesújfalu felső,47.762222,18.540556,2026-03-07 18:59:29.274576,7.48,6.88,7.48,7.48,1026,54,1.41,116,0,0.0,Clear,clear sky,18
Nyergesújfalu,47.761111,18.561667,2026-03-07 18:59:30.472402,7.36,6.78,7.36,7.36,1026,54,1.38,115,0,0.0,Clear,clear sky,18
Tokod,47.735,18.675,2026-03-07 18:59:31.677112,7.1,7.1,7.1,7.1,1026,55,1.22,103,0,0.0,Clear,clear sky,18
Környe,47.541667,18.330278,2026-03-07 18:59:32.877349,7.27,6.17,7.27,7.27,1026,51,1.84,107,0,0.0,Clear,clear sky,18
Kecskéd alsó,47.519722,18.316667,2026-03-07 18:59:34.081436,7.34,6.19,7.34,7.34,1026,51,1.9,107,0,0.0,Clear,clear sky,18
Oroszlány,47.486944,18.308611,2026-03-07 18:59:35.275344,7.23,6.1,7.23,7.23,1026,51,1.86,105,0,0.0,Clear,clear sky,18
Győrszabadhegy,47.663056,17.648056,2026-03-07 18:59:36.470095,9.25,7.68,9.25,9.25,1026,53,2.88,128,0,0.0,Clear,clear sky,18
Ménfőcsanak felső,47.638333,17.615,2026-03-07 18:59:37.670021,9.36,7.85,9.36,9.36,1026,53,2.82,129,0,0.0,Clear,clear sky,18
Gyömöre-Tét,47.501672,17.559596,2026-03-07 18:59:38.868112,9.13,7.63,9.13,9.13,1026,52,2.74,132,0,0.0,Clear,clear sky,18
Szerecseny,47.469167,17.5475,2026-03-07 18:59:40.066090,9.15,7.63,9.15,9.15,1026,52,2.77,132,0,0.0,Clear,clear sky,18
Gecse-Gyarmat,47.456111,17.515,2026-03-07 18:59:41.266800,9.11,7.57,9.11,9.11,1026,52,2.8,133,0,0.0,Clear,clear sky,18
Vaszar,47.4025,17.496389,2026-03-07 18:59:42.466459,9.24,7.62,9.24,9.24,1026,52,2.97,132,0,0.0,Clear,clear sky,18
Pápa,47.340556,17.458889,2026-03-07 18:59:43.661989,9.26,7.59,9.26,9.26,1026,52,3.05,130,0,0.0,Clear,clear sky,18
Mezőlak,47.324722,17.371389,2026-03-07 18:59:44.864206,9.41,7.83,9.41,9.41,1026,53,2.95,131,0,0.0,Clear,clear sky,18
Mihályháza,47.318889,17.331667,2026-03-07 18:59:46.067092,9.42,7.88,9.42,9.42,1026,53,2.9,131,0,0.0,Clear,clear sky,18
Vinár,47.306667,17.284722,2026-03-07 18:59:47.262184,9.51,8.02,9.51,9.51,1026,54,2.84,132,0,0.0,Clear,clear sky,18
Külsővat,47.279167,17.219722,2026-03-07 18:59:48.464147,9.53,8.14,9.53,9.53,1026,55,2.69,134,0,0.21,Rain,light rain,18
Celldömölk,47.261389,17.151944,2026-03-07 18:59:49.661090,9.55,8.2,9.55,9.55,1026,55,2.63,135,0,0.1,Rain,light rain,18
Kemenesmihályfa,47.278056,17.111111,2026-03-07 18:59:50.858381,9.21,7.78,9.21,9.21,1026,56,2.65,138,0,0.0,Clear,clear sky,18
Nagysimonyi,47.265556,17.058889,2026-03-07 18:59:52.058625,9.28,7.89,9.28,9.28,1026,57,2.62,139,0,0.0,Clear,clear sky,18
Ostffyasszonyfa,47.283889,17.023889,2026-03-07 18:59:53.258289,9.4,8.01,9.4,9.4,1026,57,2.65,142,0,0.0,Clear,clear sky,18
Sárvár,47.259167,16.928889,2026-03-07 18:59:54.462179,9.46,8.14,9.46,9.46,1026,59,2.56,145,0,0.0,Clear,clear sky,18
Porpác,47.238611,16.8325,2026-03-07 18:59:55.674107,9.36,8.11,9.36,9.36,1026,60,2.43,144,0,0.0,Clear,clear sky,18
Balatonföldvár,46.853889,17.881389,2026-03-07 18:59:56.874493,8.73,7.98,8.73,8.73,1026,49,1.71,90,0,0.0,Clear,clear sky,18
Balatonszárszó,46.832222,17.830278,2026-03-07 18:59:58.078518,8.81,7.99,8.81,8.81,1026,49,1.8,93,0,0.0,Clear,clear sky,18
Balatonszemes,46.811944,17.776389,2026-03-07 18:59:59.296550,8.96,8.0,8.96,8.96,1026,49,1.98,97,0,0.0,Clear,clear sky,18
Balatonlelle felső,46.793889,17.7175,2026-03-07 19:00:00.490566,9.02,7.92,9.02,9.02,1026,50,2.16,100,0,0.0,Clear,clear sky,18
Balatonlelle,46.7875,17.694167,2026-03-07 19:00:01.695870,9.12,7.99,9.12,9.12,1026,50,2.22,101,0,0.0,Clear,clear sky,18
Fonyódliget,46.759167,17.592222,2026-03-07 19:00:02.905868,9.24,8.03,9.24,9.24,1026,50,2.35,105,0,0.0,Clear,clear sky,18
Balatonboglár,46.776111,17.647222,2026-03-07 19:00:04.103429,9.17,8.01,9.17,9.17,1026,50,2.27,102,0,0.0,Clear,clear sky,18
Balatonfenyves alsó,46.708611,17.455278,2026-03-07 19:00:05.300745,9.32,8.16,9.32,9.32,1026,51,2.3,111,0,0.0,Clear,clear sky,18
Fonyód,46.750278,17.558889,2026-03-07 19:00:06.494653,9.28,8.06,9.28,9.28,1026,50,2.37,106,0,0.0,Clear,clear sky,18
Bélatelep,46.737778,17.535,2026-03-07 19:00:07.702740,9.3,8.08,9.3,9.3,1026,50,2.38,109,0,0.0,Clear,clear sky,18
Alsóbélatelep,46.724167,17.516389,2026-03-07 19:00:08.900181,9.3,8.08,9.3,9.3,1026,50,2.38,109,0,0.0,Clear,clear sky,18
Balatonfenyves,46.713611,17.482778,2026-03-07 19:00:10.087546,9.29,8.08,9.29,9.29,1026,50,2.36,111,0,0.0,Clear,clear sky,18
Máriahullámtelep,46.704722,17.435,2026-03-07 19:00:11.301446,9.32,8.16,9.32,9.32,1026,51,2.3,111,0,0.0,Clear,clear sky,18
Balatonmáriafürdő,46.704167,17.374722,2026-03-07 19:00:12.498848,9.28,8.34,9.28,9.28,1026,52,2.02,112,0,0.0,Clear,clear sky,18
Balatonberény,46.713889,17.316944,2026-03-07 19:00:13.697597,9.18,8.31,9.18,9.18,1026,53,1.91,112,0,0.0,Clear,clear sky,18
Balatonszentgyörgy,46.692778,17.288889,2026-03-07 19:00:14.905945,9.24,8.49,9.24,9.24,1026,53,1.79,114,0,0.0,Clear,clear sky,18
Vörs,46.663611,17.260278,2026-03-07 19:00:16.102018,9.24,8.7,9.24,9.24,1026,53,1.58,117,0,0.0,Clear,clear sky,18
Zalaszentjakab,46.491667,17.135278,2026-03-07 19:00:17.304578,9.08,8.32,9.08,9.08,1026,51,1.78,132,0,0.0,Clear,clear sky,18
Nagykanizsa,46.440833,16.986667,2026-03-07 19:00:18.530150,8.9,8.04,8.9,8.9,1026,54,1.85,136,0,0.0,Clear,clear sky,18
Murakeresztúr,46.363889,16.876944,2026-03-07 19:00:19.726203,8.81,7.88,8.81,8.81,1026,55,1.92,134,0,0.0,Clear,clear sky,18
