station_name,station_lat,station_lon,observation_time,temp,feels_like,temp_min,temp_max,pressure,humidity,wind_speed,wind_deg,clouds,precipitation_1h,weather_main,weather_description,collection_hour
Búcsúszentlászló,46.793056,16.932778,2026-03-17 07:13:45.273820,5.06,0.33,5.06,5.06,1022,70,7.77,359,100,0.0,Clouds,overcast clouds,7
Angyalföld,47.549722,19.09,2026-03-17 07:13:46.538127,5.51,2.55,5.51,5.51,1019,69,3.88,308,100,0.0,Clouds,overcast clouds,7
Felsőjánosfa,46.841389,16.544167,2026-03-17 07:13:47.811104,4.64,0.79,4.64,4.64,1022,77,5.2,19,100,0.0,Clouds,overcast clouds,7
Pankasz,46.835833,16.496111,2026-03-17 07:13:49.083515,4.31,0.57,4.31,4.31,1022,78,4.8,21,100,0.0,Clouds,overcast clouds,7
Nagyrákos,46.827222,16.455556,2026-03-17 07:13:50.358868,4.25,0.61,4.25,4.25,1022,79,4.58,22,100,0.0,Clouds,overcast clouds,7
Őriszentpéter,46.828889,16.415278,2026-03-17 07:13:51.623701,4.34,1.02,4.34,4.34,1022,80,4.05,25,99,0.0,Clouds,overcast clouds,7
Törökbálint,47.45,18.908611,2026-03-17 07:13:52.891428,5.43,1.53,5.43,5.43,1019,70,5.79,319,100,0.0,Clouds,overcast clouds,7
Bicske alsó,47.486389,18.642778,2026-03-17 07:13:54.158528,5.28,1.08,5.28,5.28,1020,74,6.44,324,100,0.0,Clouds,overcast clouds,7
Bajánsenye,46.818056,16.358056,2026-03-17 07:13:55.444352,4.45,1.3,4.45,4.45,1022,81,3.8,26,97,0.0,Clouds,overcast clouds,7
Aquincum,47.566218,19.048273,2026-03-17 07:13:56.710022,5.13,2.02,5.13,5.13,1019,71,4.0,309,100,0.0,Clouds,overcast clouds,7
Piliscsév,47.673889,18.791389,2026-03-17 07:13:57.978830,5.09,1.63,5.09,5.09,1020,74,4.63,315,100,0.0,Clouds,overcast clouds,7
Tát,47.741201,18.64783,2026-03-17 07:13:59.255735,5.44,2.03,5.44,5.44,1020,75,4.71,311,100,0.0,Clouds,overcast clouds,7
Süttő felső,47.756667,18.437222,2026-03-17 07:14:00.521758,5.27,1.59,5.27,5.27,1020,75,5.19,312,100,0.0,Clouds,overcast clouds,7
Budatétény,47.405,19.016389,2026-03-17 07:14:01.797996,5.61,1.99,5.61,5.61,1019,69,5.25,316,100,0.0,Clouds,overcast clouds,7
Seregélyes-Szőlőhegy,47.119444,18.612222,2026-03-17 07:14:03.073283,5.44,1.14,5.44,5.44,1020,70,6.83,329,100,0.0,Clouds,overcast clouds,7
Gödöllő-Állami telepek,47.564444,19.375556,2026-03-17 07:14:04.342731,4.92,1.77,4.92,4.92,1019,67,3.98,318,100,0.0,Clouds,overcast clouds,7
Dunakeszi alsó,47.607778,19.128889,2026-03-17 07:14:05.613488,5.46,2.64,5.46,5.46,1019,69,3.64,307,100,0.0,Clouds,overcast clouds,7
Vác-Alsóváros,47.773056,19.149722,2026-03-17 07:14:06.876733,5.43,2.8,5.43,5.43,1019,73,3.33,300,100,0.0,Clouds,overcast clouds,7
Szob alsó,47.816667,18.8725,2026-03-17 07:14:08.142717,5.5,2.63,5.5,5.5,1020,75,3.73,300,100,0.0,Clouds,overcast clouds,7
Zalaszentmihály-Pacsa,46.7225,16.951944,2026-03-17 07:14:09.407028,5.12,0.46,5.12,5.12,1022,70,7.59,1,99,0.0,Clouds,overcast clouds,7
Pötréte,46.682778,16.9575,2026-03-17 07:14:10.686625,5.19,0.66,5.19,5.19,1022,70,7.29,3,98,0.0,Clouds,overcast clouds,7
Felsőrajk,46.667222,16.982778,2026-03-17 07:14:11.952749,5.17,0.57,5.17,5.17,1022,69,7.45,2,98,0.0,Clouds,overcast clouds,7
Gelse,46.600556,16.982778,2026-03-17 07:14:13.222534,5.22,0.84,5.22,5.22,1022,69,6.87,7,99,0.0,Clouds,overcast clouds,7
Őrtilos,46.297778,16.887778,2026-03-17 07:14:14.491540,5.61,1.94,5.61,5.61,1022,71,5.36,24,100,0.0,Clouds,overcast clouds,7
Zákány,46.251944,16.9425,2026-03-17 07:14:15.762386,5.36,1.63,5.36,5.36,1022,70,5.34,23,100,0.0,Clouds,overcast clouds,7
Berzence,46.201389,17.143611,2026-03-17 07:14:17.032484,5.61,1.94,5.61,5.61,1022,70,5.35,17,100,0.0,Clouds,overcast clouds,7
Somogyudvarhely,46.163333,17.179722,2026-03-17 07:14:18.301439,5.59,1.94,5.59,5.59,1022,70,5.3,15,100,0.0,Clouds,overcast clouds,7
Bélavár,46.122778,17.207778,2026-03-17 07:14:19.570172,5.67,2.11,5.67,5.67,1022,70,5.14,14,100,0.0,Clouds,overcast clouds,7
Vízvár,46.101389,17.239444,2026-03-17 07:14:20.841925,5.58,2.02,5.58,5.58,1022,70,5.09,12,100,0.0,Clouds,overcast clouds,7
Babócsa,46.028359,17.342276,2026-03-17 07:14:22.116244,5.63,2.15,5.63,5.63,1022,70,4.94,10,100,0.0,Clouds,overcast clouds,7
Péterhida-Komlósd,46.006667,17.358056,2026-03-17 07:14:23.387408,5.7,2.29,5.7,5.7,1022,70,4.83,10,100,0.0,Clouds,overcast clouds,7
Barcs,45.951944,17.446944,2026-03-17 07:14:24.654567,5.74,2.48,5.74,5.74,1022,69,4.55,10,100,0.0,Clouds,overcast clouds,7
Barcs felső,45.958333,17.486389,2026-03-17 07:14:25.924515,5.66,2.38,5.66,5.66,1021,69,4.54,9,100,0.0,Clouds,overcast clouds,7
Középrigóc,45.970556,17.525,2026-03-17 07:14:27.189436,5.58,2.29,5.58,5.58,1022,69,4.53,9,100,0.0,Clouds,overcast clouds,7
Darány,45.992222,17.598611,2026-03-17 07:14:28.454338,5.61,2.29,5.61,5.61,1021,69,4.61,6,100,0.0,Clouds,overcast clouds,7
Kisdobsza,46.012222,17.668056,2026-03-17 07:14:29.719537,5.69,2.36,5.69,5.69,1021,69,4.67,4,100,0.0,Clouds,overcast clouds,7
Nemeske,46.023333,17.705278,2026-03-17 07:14:30.985496,5.73,2.41,5.73,5.73,1021,69,4.66,3,100,0.0,Clouds,overcast clouds,7
Molvány,46.035278,17.748611,2026-03-17 07:14:32.251341,5.72,2.37,5.72,5.72,1021,70,4.72,2,100,0.0,Clouds,overcast clouds,7
Szigetvár,46.043333,17.801944,2026-03-17 07:14:33.524664,5.72,2.37,5.72,5.72,1021,70,4.72,2,100,0.0,Clouds,overcast clouds,7
Nagypeterd,46.039444,17.871667,2026-03-17 07:14:34.795358,5.78,2.43,5.78,5.78,1021,69,4.74,1,100,0.0,Clouds,overcast clouds,7
Szentdénes,46.036667,17.926944,2026-03-17 07:14:36.067498,5.74,2.38,5.74,5.74,1021,69,4.76,0,100,0.0,Clouds,overcast clouds,7
Háros,47.412222,19.035,2026-03-17 07:14:37.338741,5.61,1.99,5.61,5.61,1019,69,5.25,316,100,0.0,Clouds,overcast clouds,7
Nagytétény-Diósd,47.398333,18.974444,2026-03-17 07:14:38.608660,5.87,2.14,5.87,5.87,1019,69,5.66,318,100,0.0,Clouds,overcast clouds,7
Érdliget,47.390278,18.937778,2026-03-17 07:14:39.874335,5.78,1.93,5.78,5.78,1019,69,5.88,319,100,0.0,Clouds,overcast clouds,7
Érd felső,47.381111,18.922222,2026-03-17 07:14:41.143824,5.44,1.41,5.44,5.44,1019,70,6.11,320,100,0.0,Clouds,overcast clouds,7
Érd,47.369722,18.900833,2026-03-17 07:14:42.411336,5.58,1.53,5.58,5.58,1019,70,6.26,321,100,0.0,Clouds,overcast clouds,7
Százhalombatta,47.322222,18.899167,2026-03-17 07:14:43.674321,5.58,1.45,5.58,5.58,1019,69,6.48,321,100,0.0,Clouds,overcast clouds,7
Dunai Finomító,47.294444,18.878889,2026-03-17 07:14:44.941543,5.45,1.16,5.45,5.45,1019,70,6.81,323,100,0.0,Clouds,overcast clouds,7
Ercsi,47.247222,18.875278,2026-03-17 07:14:46.210657,5.57,1.31,5.57,5.57,1019,69,6.82,323,100,0.0,Clouds,overcast clouds,7
Iváncsa,47.177778,18.811944,2026-03-17 07:14:47.480739,5.5,1.19,5.5,5.5,1020,69,6.91,325,100,0.0,Clouds,overcast clouds,7
Pusztaszabolcs,47.139722,18.761667,2026-03-17 07:14:48.753480,5.55,1.27,5.55,5.55,1020,69,6.86,326,100,0.0,Clouds,overcast clouds,7
Szabadegyháza,47.082778,18.704167,2026-03-17 07:14:50.035600,5.5,1.24,5.5,5.5,1020,69,6.76,328,100,0.0,Clouds,overcast clouds,7
Sárosd,47.039722,18.660278,2026-03-17 07:14:51.304223,5.49,1.25,5.49,5.49,1020,69,6.69,329,100,0.0,Clouds,overcast clouds,7
Nagylók,46.979444,18.635833,2026-03-17 07:14:52.580243,5.36,1.15,5.36,5.36,1020,69,6.51,329,100,0.0,Clouds,overcast clouds,7
Sárbogárd,46.896944,18.611944,2026-03-17 07:14:53.848069,5.55,1.45,5.55,5.55,1020,69,6.38,329,100,0.0,Clouds,overcast clouds,7
Rétszilas,46.814167,18.601389,2026-03-17 07:14:55.122166,5.62,1.58,5.62,5.62,1020,69,6.26,330,100,0.0,Clouds,overcast clouds,7
Nagyatád,46.228611,17.354167,2026-03-17 07:14:56.391635,5.51,1.72,5.51,5.51,1022,68,5.58,9,100,0.0,Clouds,overcast clouds,7
Budapest-Keleti,47.500278,19.084167,2026-03-17 07:14:57.660423,5.63,2.4,5.63,5.63,1019,69,4.44,312,100,0.0,Clouds,overcast clouds,7
Ferencváros,47.468611,19.088056,2026-03-17 07:14:58.926298,5.79,2.49,5.79,5.79,1019,68,4.65,313,100,0.0,Clouds,overcast clouds,7
Budapest-Nyugati,47.510833,19.0575,2026-03-17 07:15:00.194187,5.6,2.46,5.6,5.6,1019,69,4.25,311,100,0.0,Clouds,overcast clouds,7
Kőbánya felső,47.491944,19.133889,2026-03-17 07:15:01.459058,5.49,2.4,5.49,5.49,1019,67,4.11,309,100,0.0,Clouds,overcast clouds,7
Rákos,47.488889,19.174722,2026-03-17 07:15:02.735723,5.37,2.29,5.37,5.37,1019,67,4.04,309,100,0.0,Clouds,overcast clouds,7
Rákosrendező,47.525556,19.089444,2026-03-17 07:15:04.008739,5.55,2.52,5.55,5.55,1019,68,4.02,309,100,0.0,Clouds,overcast clouds,7
Zugló,47.511389,19.101389,2026-03-17 07:15:05.295799,5.55,2.52,5.55,5.55,1019,68,4.02,309,100,0.0,Clouds,overcast clouds,7
Mezőtárkány,47.725,20.480278,2026-03-17 07:15:06.564386,6.82,5.41,6.82,6.82,1018,72,2.08,39,100,0.0,Clouds,overcast clouds,7
Istvántelek,47.550278,19.106389,2026-03-17 07:15:07.832342,5.51,2.55,5.51,5.51,1019,69,3.88,308,100,0.0,Clouds,overcast clouds,7
Rákospalota-Újpest,47.565833,19.111944,2026-03-17 07:15:09.102922,5.44,2.54,5.44,5.44,1019,69,3.75,307,100,0.0,Clouds,overcast clouds,7
Kőbánya alsó,47.483056,19.127222,2026-03-17 07:15:10.368487,5.49,2.4,5.49,5.49,1019,67,4.11,309,100,0.0,Clouds,overcast clouds,7
Kőbánya-Kispest,47.463889,19.149444,2026-03-17 07:15:11.639539,5.5,2.33,5.5,5.5,1019,67,4.26,310,100,0.0,Clouds,overcast clouds,7
Pestszentlőrinc,47.454722,19.182778,2026-03-17 07:15:12.909868,5.34,2.09,5.34,5.34,1019,66,4.34,310,100,0.0,Clouds,overcast clouds,7
Kispest,47.448135,19.157552,2026-03-17 07:15:14.178269,5.54,2.29,5.54,5.54,1019,67,4.43,311,100,0.0,Clouds,overcast clouds,7
Újpest,47.558889,19.079722,2026-03-17 07:15:15.440699,5.55,2.5,5.55,5.55,1019,70,4.07,309,100,0.0,Clouds,overcast clouds,7
Pestszentimre felső,47.413611,19.173333,2026-03-17 07:15:16.709827,5.37,2.04,5.37,5.37,1019,66,4.51,311,100,0.0,Clouds,overcast clouds,7
Dunakeszi,47.626111,19.136111,2026-03-17 07:15:17.981127,5.41,2.62,5.41,5.41,1019,70,3.56,306,100,0.0,Clouds,overcast clouds,7
Dunakeszi-Gyártelep,47.643611,19.135,2026-03-17 07:15:19.245698,5.46,2.73,5.46,5.46,1019,70,3.49,305,100,0.0,Clouds,overcast clouds,7
Alsógöd,47.676944,19.134444,2026-03-17 07:15:20.510454,5.48,2.8,5.48,5.48,1019,71,3.42,305,100,0.0,Clouds,overcast clouds,7
Göd,47.687778,19.1375,2026-03-17 07:15:21.781721,5.48,2.8,5.48,5.48,1019,71,3.42,305,100,0.0,Clouds,overcast clouds,7
Felsőgöd,47.705556,19.143333,2026-03-17 07:15:23.049330,5.55,2.91,5.55,5.55,1019,71,3.38,304,100,0.0,Clouds,overcast clouds,7
Sződ-Sződliget,47.728056,19.154722,2026-03-17 07:15:24.316106,5.57,2.95,5.57,5.57,1019,72,3.35,302,100,0.0,Clouds,overcast clouds,7
Vác,47.782778,19.133056,2026-03-17 07:15:25.584314,5.43,2.8,5.43,5.43,1019,73,3.33,300,100,0.0,Clouds,overcast clouds,7
Verőce,47.823889,19.029444,2026-03-17 07:15:26.848856,4.71,2.08,4.71,4.71,1019,74,3.1,288,100,0.0,Clouds,overcast clouds,7
Kismaros,47.8275,19.010278,2026-03-17 07:15:28.124498,3.94,1.13,3.94,3.94,1019,75,3.13,289,100,0.0,Clouds,overcast clouds,7
Nagymaros-Visegrád,47.791389,18.959167,2026-03-17 07:15:29.391524,4.36,1.61,4.36,4.36,1019,74,3.17,294,100,0.0,Clouds,overcast clouds,7
Nagymaros,47.780278,18.952222,2026-03-17 07:15:30.658579,4.36,1.61,4.36,4.36,1019,74,3.17,294,100,0.0,Clouds,overcast clouds,7
Zebegény,47.801389,18.908889,2026-03-17 07:15:31.926781,5.05,2.34,5.05,5.05,1020,75,3.32,295,100,0.0,Clouds,overcast clouds,7
Szob,47.821111,18.861944,2026-03-17 07:15:33.199945,4.91,1.88,4.91,4.91,1020,75,3.78,298,100,0.0,Clouds,overcast clouds,7
Alagimajor,47.601944,19.153889,2026-03-17 07:15:34.471077,5.46,2.64,5.46,5.46,1019,69,3.64,307,100,0.0,Clouds,overcast clouds,7
Fót,47.611389,19.181667,2026-03-17 07:15:35.735621,5.25,2.39,5.25,5.25,1019,69,3.62,308,100,0.0,Clouds,overcast clouds,7
Fótújfalu,47.615,19.192778,2026-03-17 07:15:36.999331,5.25,2.39,5.25,5.25,1019,69,3.62,308,100,0.0,Clouds,overcast clouds,7
Csomád,47.635556,19.222778,2026-03-17 07:15:38.270061,4.5,1.43,4.5,4.5,1019,69,3.7,310,100,0.0,Clouds,overcast clouds,7
Veresegyház,47.649167,19.288611,2026-03-17 07:15:39.533522,5.15,2.07,5.15,5.15,1019,69,3.96,316,100,0.0,Clouds,overcast clouds,7
Erdőkertes,47.662222,19.295833,2026-03-17 07:15:40.809312,5.15,2.07,5.15,5.15,1019,69,3.96,316,100,0.0,Clouds,overcast clouds,7
Őrbottyán,47.685833,19.283611,2026-03-17 07:15:42.074121,4.99,1.86,4.99,4.99,1019,69,3.97,316,100,0.0,Clouds,overcast clouds,7
Váchartyán,47.725833,19.248889,2026-03-17 07:15:43.346468,5.07,2.01,5.07,5.07,1019,71,3.88,313,100,0.0,Clouds,overcast clouds,7
Magyarkút-Verőce,47.826111,19.044444,2026-03-17 07:15:44.618374,4.71,2.08,4.71,4.71,1019,74,3.1,288,100,0.0,Clouds,overcast clouds,7
Szokolya,47.871111,19.030556,2026-03-17 07:15:45.882835,3.99,1.19,3.99,3.99,1019,75,3.14,285,100,0.0,Clouds,overcast clouds,7
Berkenye,47.885278,19.071944,2026-03-17 07:15:47.156284,4.73,2.09,4.73,4.73,1019,75,3.12,286,100,0.0,Clouds,overcast clouds,7
Nógrád,47.901944,19.0475,2026-03-17 07:15:48.420507,4.34,1.6,4.34,4.34,1019,75,3.16,285,100,0.0,Clouds,overcast clouds,7
Diósjenő,47.94,19.049444,2026-03-17 07:15:49.689980,3.95,1.12,3.95,3.95,1020,75,3.16,284,100,0.0,Clouds,overcast clouds,7
Borsosberény,47.971389,19.093056,2026-03-17 07:15:50.960626,4.7,2.14,4.7,4.7,1019,75,3.01,288,100,0.0,Clouds,overcast clouds,7
Nagyoroszi,47.993611,19.101111,2026-03-17 07:15:52.228395,4.54,2.01,4.54,4.54,1019,75,2.93,288,100,0.0,Clouds,overcast clouds,7
Drégelyvár,48.001944,19.079444,2026-03-17 07:15:53.500391,4.76,2.31,4.76,4.76,1020,76,2.88,285,100,0.0,Clouds,overcast clouds,7
Drégely,48.042222,19.056111,2026-03-17 07:15:54.770712,5.12,2.85,5.12,5.12,1020,76,2.74,287,100,0.0,Clouds,overcast clouds,7
Drégelypalánk,48.055,19.046111,2026-03-17 07:15:56.048944,5.23,3.06,5.23,5.23,1020,76,2.64,287,100,0.0,Clouds,overcast clouds,7
Ipolyvece,48.056944,19.106389,2026-03-17 07:15:57.322648,5.26,3.2,5.26,5.26,1019,75,2.51,292,100,0.0,Clouds,overcast clouds,7
Dejtár,48.045556,19.196389,2026-03-17 07:15:58.590210,5.25,3.06,5.25,5.25,1019,75,2.67,297,100,0.0,Clouds,overcast clouds,7
Ipolyszög,48.054444,19.221944,2026-03-17 07:15:59.854622,5.3,3.21,5.3,5.3,1019,75,2.55,303,100,0.0,Clouds,overcast clouds,7
Iklad-Domony,47.658056,19.444444,2026-03-17 07:16:01.119545,5.49,2.36,5.49,5.49,1019,69,4.18,325,100,0.0,Clouds,overcast clouds,7
Iklad-Domony felső,47.667778,19.428056,2026-03-17 07:16:02.387372,5.44,2.32,5.44,5.44,1019,69,4.14,324,100,0.0,Clouds,overcast clouds,7
Galgamácsa,47.693889,19.3925,2026-03-17 07:16:03.650131,5.15,2.0,5.15,5.15,1019,70,4.08,320,100,0.0,Clouds,overcast clouds,7
Vácrátót,47.732778,19.217778,2026-03-17 07:16:04.922729,5.31,2.46,5.31,5.31,1019,71,3.62,308,100,0.0,Clouds,overcast clouds,7
Csörög,47.735833,19.196389,2026-03-17 07:16:06.188087,5.53,2.82,5.53,5.53,1019,71,3.48,305,100,0.0,Clouds,overcast clouds,7
Galgagyörk,47.735278,19.372222,2026-03-17 07:16:07.460645,5.23,2.11,5.23,5.23,1019,70,4.05,320,100,0.0,Clouds,overcast clouds,7
Püspökhatvan,47.768611,19.366944,2026-03-17 07:16:08.736860,5.26,2.21,5.26,5.26,1019,71,3.94,319,100,0.0,Clouds,overcast clouds,7
Acsa-Erdőkürt,47.801111,19.386111,2026-03-17 07:16:10.014319,5.1,2.09,5.1,5.1,1019,72,3.82,318,100,0.0,Clouds,overcast clouds,7
Galgaguta,47.848611,19.385556,2026-03-17 07:16:11.288169,4.81,1.93,4.81,4.81,1019,73,3.5,315,100,0.0,Clouds,overcast clouds,7
Nógrádkövesd,47.879444,19.371111,2026-03-17 07:16:12.560429,4.98,2.26,4.98,4.98,1019,73,3.32,314,100,0.0,Clouds,overcast clouds,7
Magyarnándor,47.970833,19.356667,2026-03-17 07:16:13.838228,4.82,2.37,4.82,4.82,1019,74,2.89,308,100,0.0,Clouds,overcast clouds,7
Mohora,47.995556,19.347778,2026-03-17 07:16:15.108590,4.94,2.64,4.94,4.94,1019,74,2.73,308,100,0.0,Clouds,overcast clouds,7
Szügy,48.036389,19.333056,2026-03-17 07:16:16.376133,5.17,3.13,5.17,5.17,1019,74,2.47,310,100,0.0,Clouds,overcast clouds,7
Balassagyarmat,48.071111,19.293611,2026-03-17 07:16:17.637186,5.25,3.23,5.25,5.25,1019,74,2.46,311,100,0.0,Clouds,overcast clouds,7
Őrhalom,48.078773,19.403936,2026-03-17 07:16:18.907571,5.08,3.77,5.08,5.08,1019,74,1.72,323,100,0.0,Clouds,overcast clouds,7
Hugyag,48.083056,19.421111,2026-03-17 07:16:20.178166,5.08,3.77,5.08,5.08,1019,74,1.72,323,100,0.0,Clouds,overcast clouds,7
Szécsény,48.093056,19.521111,2026-03-17 07:16:21.450589,5.38,5.38,5.38,5.38,1019,75,1.15,328,100,0.0,Clouds,overcast clouds,7
Ludányhalászi,48.1325,19.529444,2026-03-17 07:16:22.721519,5.36,5.36,5.36,5.36,1019,74,1.03,338,100,0.0,Clouds,overcast clouds,7
Nógrádszakál,48.178333,19.521667,2026-03-17 07:16:23.992516,5.32,5.32,5.32,5.32,1019,74,1.03,344,100,0.0,Clouds,overcast clouds,7
Ráróspuszta,48.207222,19.541389,2026-03-17 07:16:25.260839,4.78,4.78,4.78,4.78,1019,73,1.11,353,100,0.0,Clouds,overcast clouds,7
Litke,48.215833,19.598611,2026-03-17 07:16:26.536539,5.32,5.32,5.32,5.32,1019,74,0.48,354,100,0.0,Clouds,overcast clouds,7
Nyíregyháza külső,47.943056,21.740278,2026-03-17 07:16:27.805843,6.82,4.31,6.82,6.82,1018,77,3.62,25,100,0.0,Clouds,overcast clouds,7
Oros,47.945833,21.806389,2026-03-17 07:16:29.074232,6.83,4.52,6.83,6.83,1018,77,3.28,21,100,0.0,Clouds,overcast clouds,7
Napkor,47.948889,21.873056,2026-03-17 07:16:30.346882,6.85,4.83,6.85,6.85,1018,77,2.85,12,100,0.0,Clouds,overcast clouds,7
Apagy,47.953775,21.939044,2026-03-17 07:16:31.613235,6.86,5.03,6.86,6.86,1018,77,2.59,9,100,0.0,Clouds,overcast clouds,7
Levelek-Magy,47.948056,21.993611,2026-03-17 07:16:32.889162,6.85,5.5,6.85,6.85,1018,76,2.02,2,100,0.0,Clouds,overcast clouds,7
Ófehértó,47.940556,22.041389,2026-03-17 07:16:34.150176,6.78,5.93,6.78,6.78,1018,75,1.54,354,100,0.0,Clouds,overcast clouds,7
Ligettanya,47.951667,22.071389,2026-03-17 07:16:35.430058,6.78,6.78,6.78,6.78,1018,75,1.08,342,100,0.0,Clouds,overcast clouds,7
Baktalórántháza,47.988611,22.083333,2026-03-17 07:16:36.706085,6.79,6.79,6.79,6.79,1018,75,1.18,347,100,0.0,Clouds,overcast clouds,7
Vaja-Rohod,48.006389,22.164167,2026-03-17 07:16:37.981012,6.88,6.88,6.88,6.88,1018,74,0.52,325,100,0.0,Clouds,overcast clouds,7
Rákóczitanya,48.022222,22.178333,2026-03-17 07:16:39.258002,6.89,6.89,6.89,6.89,1018,74,0.32,274,100,0.0,Clouds,overcast clouds,7
Nyírmada,48.059167,22.203056,2026-03-17 07:16:40.524564,6.9,6.9,6.9,6.9,1018,74,0.16,342,100,0.0,Clouds,overcast clouds,7
Tunyogmatolcs,47.960244,22.442247,2026-03-17 07:16:41.796748,7.48,6.21,7.48,7.48,1018,71,2.05,189,100,0.0,Clouds,overcast clouds,7
Tunyogmatolcs alsó,47.966025,22.464713,2026-03-17 07:16:43.060495,7.52,6.2,7.52,7.52,1018,70,2.12,186,100,0.0,Clouds,overcast clouds,7
Fehérgyarmat,47.979167,22.524444,2026-03-17 07:16:44.333054,7.61,6.22,7.61,7.61,1018,68,2.22,173,100,0.0,Clouds,overcast clouds,7
Penyige,47.995278,22.566944,2026-03-17 07:16:45.603495,7.68,6.26,7.68,7.68,1018,68,2.26,170,100,0.0,Clouds,overcast clouds,7
Nagyszekeres,47.976111,22.6125,2026-03-17 07:16:46.874528,7.72,6.29,7.72,7.72,1018,67,2.29,167,100,0.0,Clouds,overcast clouds,7
Kisszekeres,47.965833,22.629444,2026-03-17 07:16:48.142121,7.74,6.3,7.74,7.74,1018,67,2.3,171,100,0.0,Clouds,overcast clouds,7
Jánkmajtis,47.941944,22.657222,2026-03-17 07:16:49.411873,7.81,6.37,7.81,7.81,1018,67,2.32,171,100,0.0,Clouds,overcast clouds,7
Gacsály,47.926111,22.745,2026-03-17 07:16:50.685625,7.89,6.54,7.89,7.89,1018,66,2.22,161,100,0.0,Clouds,overcast clouds,7
Zajta,47.9025,22.796111,2026-03-17 07:16:51.957956,7.97,6.76,7.97,7.97,1018,65,2.08,158,100,0.0,Clouds,overcast clouds,7
Eperjeske alsó,48.360556,22.19,2026-03-17 07:16:53.229113,6.95,6.04,6.95,6.95,1018,76,1.61,27,100,0.0,Clouds,overcast clouds,7
Mándok,48.326944,22.196389,2026-03-17 07:16:54.497259,6.93,6.25,6.93,6.93,1018,76,1.42,35,100,0.0,Clouds,overcast clouds,7
Tornyospálca,48.268333,22.201944,2026-03-17 07:16:55.767615,6.96,6.96,6.96,6.96,1018,75,1.22,42,100,0.0,Clouds,overcast clouds,7
Aranyosapáti,48.211303,22.253534,2026-03-17 07:16:57.049438,7.09,7.09,7.09,7.09,1018,73,0.95,115,100,0.0,Clouds,overcast clouds,7
Gyüre,48.171389,22.269167,2026-03-17 07:16:58.322151,7.09,7.09,7.09,7.09,1018,72,0.91,133,100,0.0,Clouds,overcast clouds,7
Varsány,48.151722,22.290047,2026-03-17 07:16:59.585785,7.14,7.14,7.14,7.14,1018,72,1.15,151,100,0.0,Clouds,overcast clouds,7
Vásárosnamény,48.126667,22.306111,2026-03-17 07:17:00.849229,7.16,7.16,7.16,7.16,1018,72,1.15,160,100,0.0,Clouds,overcast clouds,7
Vitka,48.095556,22.308056,2026-03-17 07:17:02.119253,7.17,7.17,7.17,7.17,1018,72,1.17,169,100,0.0,Clouds,overcast clouds,7
Nagydobos,48.054167,22.311111,2026-03-17 07:17:03.388199,7.12,7.12,7.12,7.12,1018,72,1.2,178,100,0.0,Clouds,overcast clouds,7
Ópályi,47.997778,22.318333,2026-03-17 07:17:04.659741,7.15,6.57,7.15,7.15,1018,72,1.36,198,100,0.0,Clouds,overcast clouds,7
Nyírcsaholy,47.908056,22.348333,2026-03-17 07:17:05.930683,7.31,6.28,7.31,7.31,1018,72,1.77,204,99,0.0,Clouds,overcast clouds,7
Nagyecsed,47.864722,22.385556,2026-03-17 07:17:07.206172,7.44,6.04,7.44,7.44,1018,72,2.19,201,99,0.0,Clouds,overcast clouds,7
Tiborszállás,47.815278,22.402778,2026-03-17 07:17:08.476401,7.44,5.94,7.44,7.44,1018,72,2.31,205,99,0.0,Clouds,overcast clouds,7
Kiskunhalas,46.434444,19.493611,2026-03-17 07:17:09.749742,6.04,2.43,6.04,6.04,1019,67,5.47,323,100,0.0,Clouds,overcast clouds,7
Kecskemét alsó,46.895833,19.692222,2026-03-17 07:17:11.014503,5.5,2.07,5.5,5.5,1019,65,4.77,315,100,0.0,Clouds,overcast clouds,7
Putnok,48.286667,20.4375,2026-03-17 07:17:12.284811,6.38,6.38,6.38,6.38,1018,78,0.66,44,100,0.0,Clouds,overcast clouds,7
Bánréve,48.299722,20.351944,2026-03-17 07:17:13.547981,6.28,6.28,6.28,6.28,1018,78,0.94,37,100,0.0,Clouds,overcast clouds,7
Ipolytarnóc,48.236667,19.629167,2026-03-17 07:17:14.814592,5.3,5.3,5.3,5.3,1019,74,0.33,355,100,0.0,Clouds,overcast clouds,7
Rákosliget,47.486111,19.257778,2026-03-17 07:17:16.083634,4.96,1.84,4.96,4.96,1019,66,3.95,312,100,0.0,Clouds,overcast clouds,7
Ikrény,47.657778,17.524167,2026-03-17 07:17:17.355452,4.82,0.44,4.82,4.82,1022,75,6.56,327,70,0.0,Clouds,broken clouds,7
Rábapatona,47.648889,17.461944,2026-03-17 07:17:18.620426,4.83,0.43,4.83,4.83,1022,74,6.64,326,57,0.0,Clouds,broken clouds,7
Enese,47.644167,17.425278,2026-03-17 07:17:19.885010,4.84,0.4,4.84,4.84,1022,74,6.74,326,42,0.0,Clouds,scattered clouds,7
Kóny,47.632222,17.357222,2026-03-17 07:17:21.155449,4.8,0.31,4.8,4.8,1022,74,6.85,327,38,0.0,Clouds,scattered clouds,7
Farád,47.595278,17.195833,2026-03-17 07:17:22.424524,4.84,0.27,4.84,4.84,1022,73,7.1,327,8,0.0,Clear,clear sky,7
Rábatamási,47.592778,17.161389,2026-03-17 07:17:23.697182,4.84,0.27,4.84,4.84,1022,73,7.1,327,8,0.0,Clear,clear sky,7
Szárföld,47.589167,17.123889,2026-03-17 07:17:24.964225,4.84,0.26,4.84,4.84,1022,73,7.13,327,8,0.0,Clear,clear sky,7
Veszkény,47.586944,17.101389,2026-03-17 07:17:26.230723,4.86,0.28,4.86,4.86,1022,73,7.14,327,8,0.0,Clear,clear sky,7
Kapuvár,47.581944,17.046944,2026-03-17 07:17:27.501490,4.83,0.24,4.83,4.83,1022,73,7.16,328,10,0.0,Clear,clear sky,7
Vitnyéd-Csermajor,47.5825,16.987222,2026-03-17 07:17:28.771932,4.82,0.17,4.82,4.82,1022,73,7.3,329,13,0.0,Clouds,few clouds,7
Petőháza,47.595278,16.893056,2026-03-17 07:17:30.042072,4.85,0.08,4.85,4.85,1022,73,7.69,328,12,0.0,Clouds,few clouds,7
Fertőszentmiklós,47.6,16.858889,2026-03-17 07:17:31.313008,4.82,0.01,4.82,4.82,1022,73,7.77,328,11,0.0,Clouds,few clouds,7
Pinnye,47.600278,16.768611,2026-03-17 07:17:32.580108,4.63,-0.25,4.63,4.63,1022,73,7.83,329,11,0.0,Clouds,few clouds,7
Fertőboz,47.625,16.691667,2026-03-17 07:17:33.852028,4.57,-0.31,4.57,4.57,1022,73,7.77,327,14,0.0,Clouds,few clouds,7
Sopron,47.677778,16.587222,2026-03-17 07:17:35.121477,4.34,-0.48,4.34,4.34,1022,73,7.39,323,20,0.0,Clouds,few clouds,7
Fertőszéplak-Fertőd,47.618889,16.850833,2026-03-17 07:17:36.390531,4.9,0.06,4.9,4.9,1022,73,7.94,326,10,0.0,Clear,clear sky,7
Nyúl,47.587778,17.698056,2026-03-17 07:17:37.663401,4.79,0.48,4.79,4.79,1021,75,6.37,326,100,0.0,Clouds,overcast clouds,7
Pannonhalma,47.547778,17.740833,2026-03-17 07:17:38.929805,4.63,0.33,4.63,4.63,1021,75,6.24,325,100,0.0,Clouds,overcast clouds,7
Tarjánpuszta,47.504722,17.789167,2026-03-17 07:17:40.202675,4.55,0.25,4.55,4.55,1021,75,6.17,325,98,0.0,Clouds,overcast clouds,7
Győrasszonyfa,47.4925,17.799167,2026-03-17 07:17:41.473468,4.55,0.25,4.55,4.55,1021,75,6.17,325,98,0.0,Clouds,overcast clouds,7
Veszprémvarsány,47.443333,17.818333,2026-03-17 07:17:42.747516,4.48,0.14,4.48,4.48,1021,76,6.23,325,97,0.0,Clouds,overcast clouds,7
Bakonyszentlászló,47.395556,17.8175,2026-03-17 07:17:44.016775,4.11,-0.34,4.11,4.11,1021,76,6.26,325,97,0.0,Clouds,overcast clouds,7
Porva-Csesznek,47.326944,17.841111,2026-03-17 07:17:45.284848,2.76,-2.08,2.76,2.76,1021,76,6.31,326,99,0.0,Clouds,overcast clouds,7
Zirc,47.266667,17.878056,2026-03-17 07:17:46.553534,2.87,-2.06,2.87,2.87,1021,76,6.59,326,100,0.0,Clouds,overcast clouds,7
Eplény,47.192778,17.921667,2026-03-17 07:17:47.826639,3.36,-1.53,3.36,3.36,1021,74,6.82,328,100,0.0,Clouds,overcast clouds,7
Marcaltő,47.4275,17.348889,2026-03-17 07:17:49.091408,4.61,0.07,4.61,4.61,1022,73,6.84,332,72,0.0,Clouds,broken clouds,7
Szany-Rábaszentandrás,47.460833,17.315278,2026-03-17 07:17:50.360576,4.66,0.1,4.66,4.66,1022,73,6.93,330,58,0.0,Clouds,broken clouds,7
Egyed-Rábacsanak,47.521944,17.316389,2026-03-17 07:17:51.636449,4.69,0.12,4.69,4.69,1022,73,6.98,329,46,0.0,Clouds,scattered clouds,7
Rábapordány,47.557222,17.315,2026-03-17 07:17:52.902577,4.74,0.19,4.74,4.74,1022,73,6.98,329,41,0.0,Clouds,scattered clouds,7
Albertfalva,47.440784,19.033965,2026-03-17 07:17:54.176961,5.85,2.37,5.85,5.85,1019,69,5.06,315,100,0.0,Clouds,overcast clouds,7
Budafok,47.425833,19.041389,2026-03-17 07:17:55.447144,5.61,1.99,5.61,5.61,1019,69,5.25,316,100,0.0,Clouds,overcast clouds,7
Tétényliget,47.384722,18.955278,2026-03-17 07:17:56.712013,5.78,1.93,5.78,5.78,1019,69,5.88,319,100,0.0,Clouds,overcast clouds,7
Érd alsó,47.379722,18.923056,2026-03-17 07:17:57.969457,5.44,1.41,5.44,5.44,1019,70,6.11,320,100,0.0,Clouds,overcast clouds,7
Tárnok,47.365556,18.873889,2026-03-17 07:17:59.237358,5.71,1.55,5.71,5.71,1019,70,6.66,323,100,0.0,Clouds,overcast clouds,7
Martonvásár,47.321389,18.781667,2026-03-17 07:18:00.512584,5.61,1.31,5.61,5.61,1020,70,6.97,324,100,0.0,Clouds,overcast clouds,7
Baracska,47.297222,18.753333,2026-03-17 07:18:01.784998,5.64,1.33,5.64,5.64,1020,70,7.01,325,100,0.0,Clouds,overcast clouds,7
Pettend,47.26,18.708889,2026-03-17 07:18:03.055449,5.48,1.14,5.48,5.48,1020,70,6.98,326,100,0.0,Clouds,overcast clouds,7
Kápolnásnyék,47.245556,18.692222,2026-03-17 07:18:04.316802,5.51,1.19,5.51,5.51,1020,70,6.95,327,100,0.0,Clouds,overcast clouds,7
Velence,47.226944,18.663889,2026-03-17 07:18:05.586109,5.55,1.24,5.55,5.55,1020,70,6.94,327,100,0.0,Clouds,overcast clouds,7
Velencefürdő,47.218611,18.648056,2026-03-17 07:18:06.853135,5.55,1.25,5.55,5.55,1020,70,6.92,328,100,0.0,Clouds,overcast clouds,7
Gárdony,47.205833,18.624722,2026-03-17 07:18:08.126753,5.54,1.23,5.54,5.54,1020,70,6.92,328,100,0.0,Clouds,overcast clouds,7
Agárd,47.197666,18.604907,2026-03-17 07:18:09.393683,5.54,1.23,5.54,5.54,1020,70,6.92,328,100,0.0,Clouds,overcast clouds,7
Dinnyés,47.179722,18.560833,2026-03-17 07:18:10.663618,5.49,1.18,5.49,5.49,1020,70,6.88,329,100,0.0,Clouds,overcast clouds,7
Székesfehérvár,47.183611,18.424722,2026-03-17 07:18:11.931192,5.32,1.0,5.32,5.32,1020,71,6.79,331,100,0.0,Clouds,overcast clouds,7
Szabadbattyán,47.105278,18.388333,2026-03-17 07:18:13.200517,5.21,0.93,5.21,5.21,1020,70,6.59,332,100,0.0,Clouds,overcast clouds,7
Kiscséripuszta,47.048056,18.355,2026-03-17 07:18:14.467475,4.93,0.63,4.93,4.93,1020,70,6.44,333,100,0.0,Clouds,overcast clouds,7
Lepsény,46.9875,18.248056,2026-03-17 07:18:15.734390,5.05,0.8,5.05,5.05,1021,69,6.39,334,100,0.0,Clouds,overcast clouds,7
Balatonaliga,46.984444,18.171389,2026-03-17 07:18:17.003053,4.72,0.3,4.72,4.72,1021,68,6.61,334,100,0.0,Clouds,overcast clouds,7
Balatonvilágos,46.964167,18.157222,2026-03-17 07:18:18.272339,4.96,0.6,4.96,4.96,1021,67,6.62,334,100,0.0,Clouds,overcast clouds,7
Szabadifürdő,46.926111,18.103333,2026-03-17 07:18:19.544080,4.82,0.46,4.82,4.82,1021,66,6.51,335,100,0.0,Clouds,overcast clouds,7
Ózd alsó,48.227778,20.306111,2026-03-17 07:18:20.813258,6.07,6.07,6.07,6.07,1018,78,1.26,39,100,0.0,Clouds,overcast clouds,7
Ózd,48.2225,20.294722,2026-03-17 07:18:22.079355,6.07,6.07,6.07,6.07,1018,78,1.26,39,100,0.0,Clouds,overcast clouds,7
Alsóboldva,48.212778,20.792222,2026-03-17 07:18:23.348378,7.29,4.69,7.29,7.29,1018,71,3.97,23,100,0.0,Clouds,overcast clouds,7
Boldva,48.223333,20.790278,2026-03-17 07:18:24.619514,7.29,4.69,7.29,7.29,1018,71,3.97,23,100,0.0,Clouds,overcast clouds,7
Borsodszirák,48.259167,20.770556,2026-03-17 07:18:25.889921,7.07,4.69,7.07,7.07,1018,72,3.49,29,100,0.0,Clouds,overcast clouds,7
Edelény alsó,48.279167,20.760833,2026-03-17 07:18:27.177574,7.07,4.69,7.07,7.07,1018,72,3.49,29,100,0.0,Clouds,overcast clouds,7
Edelény,48.299722,20.749444,2026-03-17 07:18:28.452444,6.92,4.58,6.92,6.92,1018,72,3.36,31,100,0.0,Clouds,overcast clouds,7
Szendrőlád,48.334444,20.731944,2026-03-17 07:18:29.719501,5.67,3.52,5.67,5.67,1018,73,2.72,37,100,0.0,Clouds,overcast clouds,7
Szendrő,48.400725,20.721346,2026-03-17 07:18:30.985037,6.43,4.59,6.43,6.43,1018,74,2.51,40,100,0.0,Clouds,overcast clouds,7
Szendrő felső,48.409907,20.720148,2026-03-17 07:18:32.256381,6.43,4.59,6.43,6.43,1018,74,2.51,40,100,0.0,Clouds,overcast clouds,7
Szalonna,48.449444,20.722222,2026-03-17 07:18:33.526428,6.34,4.6,6.34,6.34,1018,74,2.36,41,100,0.0,Clouds,overcast clouds,7
Perkupa,48.471389,20.691111,2026-03-17 07:18:34.806784,5.55,4.32,5.55,5.55,1018,75,1.71,44,100,0.0,Clouds,overcast clouds,7
Szemeretelep,47.443056,19.214167,2026-03-17 07:18:36.078376,5.14,1.89,5.14,5.14,1019,66,4.26,310,100,0.0,Clouds,overcast clouds,7
Jósvafő-Aggtelek,48.489722,20.693889,2026-03-17 07:18:37.343501,5.81,4.61,5.81,5.81,1018,76,1.72,43,100,0.0,Clouds,overcast clouds,7
Bódvaszilas,48.5375,20.738056,2026-03-17 07:18:38.611441,5.38,3.56,5.38,5.38,1019,76,2.26,40,100,0.0,Clouds,overcast clouds,7
Komjáti,48.5475,20.759722,2026-03-17 07:18:39.879677,4.9,2.71,4.9,4.9,1019,76,2.59,37,100,0.0,Clouds,overcast clouds,7
Tornanádaska,48.558333,20.787222,2026-03-17 07:18:41.151860,6.08,3.81,6.08,6.08,1019,76,2.99,34,100,0.0,Clouds,overcast clouds,7
Onga,48.121111,20.906667,2026-03-17 07:18:42.415339,7.45,5.29,7.45,7.45,1018,72,3.25,14,100,0.0,Clouds,overcast clouds,7
Szikszó-Vásártér,48.193056,20.934722,2026-03-17 07:18:43.685876,7.25,4.64,7.25,7.25,1018,71,3.96,19,100,0.0,Clouds,overcast clouds,7
Szikszó,48.201667,20.941667,2026-03-17 07:18:44.960358,7.23,4.72,7.23,7.23,1018,72,3.77,19,100,0.0,Clouds,overcast clouds,7
Aszaló,48.219867,20.961466,2026-03-17 07:18:46.228000,7.02,4.3,7.02,7.02,1018,72,4.07,20,100,0.0,Clouds,overcast clouds,7
Halmaj,48.246667,20.991667,2026-03-17 07:18:47.497081,7.03,4.23,7.03,7.03,1018,72,4.23,21,100,0.0,Clouds,overcast clouds,7
Csobád,48.277222,21.033889,2026-03-17 07:18:48.761642,6.93,4.03,6.93,6.93,1018,72,4.39,21,100,0.0,Clouds,overcast clouds,7
Ináncs,48.291111,21.057778,2026-03-17 07:18:50.028530,6.79,3.93,6.79,6.79,1018,73,4.24,21,100,0.0,Clouds,overcast clouds,7
Forró-Encs,48.3275,21.117778,2026-03-17 07:18:51.299261,6.65,3.75,6.65,6.65,1018,73,4.27,22,100,0.0,Clouds,overcast clouds,7
Méra,48.363056,21.140278,2026-03-17 07:18:52.575255,6.33,3.21,6.33,6.33,1018,74,4.55,24,100,0.0,Clouds,overcast clouds,7
Novajidrány,48.404444,21.170556,2026-03-17 07:18:53.846365,6.49,3.45,6.49,6.49,1018,75,4.47,25,100,0.0,Clouds,overcast clouds,7
Hernádszurdok,48.487222,21.213889,2026-03-17 07:18:55.117602,6.31,3.23,6.31,6.31,1018,77,4.45,25,100,0.0,Clouds,overcast clouds,7
Hidasnémeti,48.508333,21.229722,2026-03-17 07:18:56.388298,6.14,2.94,6.14,6.14,1019,77,4.63,24,100,0.0,Clouds,overcast clouds,7
Mád,48.19,21.268889,2026-03-17 07:18:57.660237,6.56,5.16,6.56,6.56,1018,74,2.03,16,100,0.0,Clouds,overcast clouds,7
Rátka,48.215,21.230278,2026-03-17 07:18:58.929561,6.9,5.47,6.9,6.9,1018,74,2.12,17,100,0.0,Clouds,overcast clouds,7
Tállya,48.226944,21.225278,2026-03-17 07:19:00.197633,6.9,5.47,6.9,6.9,1018,74,2.12,17,100,0.0,Clouds,overcast clouds,7
Golop,48.242778,21.204167,2026-03-17 07:19:01.461495,6.91,5.06,6.91,6.91,1018,74,2.63,18,100,0.0,Clouds,overcast clouds,7
Abaújszántó,48.286944,21.181667,2026-03-17 07:19:02.730602,6.53,4.18,6.53,6.53,1018,74,3.24,22,100,0.0,Clouds,overcast clouds,7
Abaújszántói fürdő,48.268333,21.179722,2026-03-17 07:19:04.019275,6.83,4.75,6.83,6.83,1018,74,2.93,20,100,0.0,Clouds,overcast clouds,7
Abaújkér,48.309444,21.198333,2026-03-17 07:19:05.283303,6.48,3.93,6.48,6.48,1018,74,3.55,23,100,0.0,Clouds,overcast clouds,7
Boldogkőváralja,48.345,21.208889,2026-03-17 07:19:06.548040,6.4,4.05,6.4,6.4,1018,75,3.21,25,100,0.0,Clouds,overcast clouds,7
Korlát-Vizsoly,48.365,21.219167,2026-03-17 07:19:07.819119,6.46,3.96,6.46,6.46,1018,76,3.47,25,100,0.0,Clouds,overcast clouds,7
Fony,48.411389,21.242778,2026-03-17 07:19:09.094869,6.43,3.61,6.43,6.43,1018,76,4.01,26,100,0.0,Clouds,overcast clouds,7
Hejce-Vilmány,48.419444,21.245556,2026-03-17 07:19:10.359091,6.43,3.61,6.43,6.43,1018,76,4.01,26,100,0.0,Clouds,overcast clouds,7
Göncruszka,48.445,21.246944,2026-03-17 07:19:11.623131,6.37,3.42,6.37,6.37,1018,77,4.24,25,100,0.0,Clouds,overcast clouds,7
Gönc,48.470556,21.261389,2026-03-17 07:19:12.891776,6.31,3.41,6.31,6.31,1018,78,4.11,25,100,0.0,Clouds,overcast clouds,7
Zsujta,48.4925,21.265,2026-03-17 07:19:14.163448,6.27,3.26,6.27,6.27,1019,78,4.3,24,100,0.0,Clouds,overcast clouds,7
Bodrogkeresztúr,48.175556,21.354167,2026-03-17 07:19:15.432852,6.18,4.41,6.18,6.18,1018,74,2.37,20,100,0.0,Clouds,overcast clouds,7
Szegi,48.201944,21.387778,2026-03-17 07:19:16.718501,6.64,4.5,6.64,6.64,1018,75,2.97,24,100,0.0,Clouds,overcast clouds,7
Erdőbénye,48.218056,21.401944,2026-03-17 07:19:17.982455,6.97,4.7,6.97,6.97,1018,76,3.27,25,100,0.0,Clouds,overcast clouds,7
Olaszliszka-Tolcsva,48.258333,21.448056,2026-03-17 07:19:19.246094,6.88,4.47,6.88,6.88,1018,78,3.46,25,100,0.0,Clouds,overcast clouds,7
Bodrogolaszi,48.286944,21.512778,2026-03-17 07:19:20.511253,5.52,2.71,5.52,5.52,1018,79,3.64,24,100,0.0,Clouds,overcast clouds,7
Sárospatak,48.325833,21.566111,2026-03-17 07:19:21.781206,6.8,3.97,6.8,6.8,1018,81,4.2,20,100,0.0,Clouds,overcast clouds,7
Sátoraljaújhely,48.385833,21.657778,2026-03-17 07:19:23.044727,6.24,3.29,6.24,6.24,1018,87,4.18,13,100,0.1,Rain,light rain,7
Vecsés,47.40855,19.25652,2026-03-17 07:19:24.322418,5.15,1.9,5.15,5.15,1019,66,4.26,311,100,0.0,Clouds,overcast clouds,7
Vecsés-Kertekalja,47.403333,19.271389,2026-03-17 07:19:25.592245,5.15,1.9,5.15,5.15,1019,66,4.26,311,100,0.0,Clouds,overcast clouds,7
Üllő,47.390833,19.348889,2026-03-17 07:19:26.858374,5.35,2.16,5.35,5.35,1019,65,4.23,311,100,0.0,Clouds,overcast clouds,7
Monor,47.34545,19.43701,2026-03-17 07:19:28.121412,5.43,2.31,5.43,5.43,1019,66,4.13,313,100,0.0,Clouds,overcast clouds,7
Pilis,47.279722,19.536389,2026-03-17 07:19:29.399769,5.44,2.33,5.44,5.44,1019,66,4.13,313,100,0.0,Clouds,overcast clouds,7
Albertirsa,47.240278,19.606389,2026-03-17 07:19:30.662570,5.56,2.53,5.56,5.56,1019,66,4.03,315,100,0.0,Clouds,overcast clouds,7
Ceglédbercel-Cserő,47.210278,19.686944,2026-03-17 07:19:31.936933,5.68,2.7,5.68,5.68,1019,67,3.99,316,100,0.0,Clouds,overcast clouds,7
Cegléd,47.182778,19.806111,2026-03-17 07:19:33.201263,5.83,2.86,5.83,5.83,1019,67,4.03,317,99,0.0,Clouds,overcast clouds,7
Abony,47.173056,20.016389,2026-03-17 07:19:34.466003,6.11,3.14,6.11,6.11,1019,68,4.15,318,97,0.0,Clouds,overcast clouds,7
Szolnok,47.179167,20.175833,2026-03-17 07:19:35.734780,6.13,3.21,6.13,6.13,1019,68,4.06,318,99,0.0,Clouds,overcast clouds,7
Szajol,47.170556,20.295278,2026-03-17 07:19:36.999160,6.15,3.39,6.15,6.15,1019,68,3.79,322,100,0.0,Clouds,overcast clouds,7
Törökszentmiklós,47.170278,20.413611,2026-03-17 07:19:38.268108,6.31,3.77,6.31,6.31,1019,68,3.48,328,100,0.0,Clouds,overcast clouds,7
Rákoscsaba-Újtelep,47.4875,19.271944,2026-03-17 07:19:39.532729,4.96,1.84,4.96,4.96,1019,66,3.95,312,100,0.0,Clouds,overcast clouds,7
Rákoscsaba,47.492222,19.284722,2026-03-17 07:19:40.805700,5.05,1.96,5.05,5.05,1019,66,3.94,313,100,0.0,Clouds,overcast clouds,7
Pécel,47.493889,19.338889,2026-03-17 07:19:42.075367,4.97,1.86,4.97,4.97,1019,66,3.93,314,100,0.0,Clouds,overcast clouds,7
Isaszeg,47.537719,19.388955,2026-03-17 07:19:43.338554,4.91,1.78,4.91,4.91,1019,67,3.94,317,100,0.0,Clouds,overcast clouds,7
Gödöllő,47.592222,19.358611,2026-03-17 07:19:44.603427,4.81,1.62,4.81,4.81,1019,68,4.01,318,100,0.0,Clouds,overcast clouds,7
Máriabesnyő,47.595556,19.389722,2026-03-17 07:19:45.868535,4.81,1.62,4.81,4.81,1019,68,4.01,318,100,0.0,Clouds,overcast clouds,7
Bag,47.641111,19.471667,2026-03-17 07:19:47.138614,5.49,2.36,5.49,5.49,1019,69,4.18,325,100,0.0,Clouds,overcast clouds,7
Aszód,47.647467,19.492882,2026-03-17 07:19:48.402179,5.39,2.21,5.39,5.39,1019,69,4.23,326,100,0.0,Clouds,overcast clouds,7
Hévízgyörk,47.638611,19.526667,2026-03-17 07:19:49.680162,5.4,2.2,5.4,5.4,1019,70,4.28,327,100,0.0,Clouds,overcast clouds,7
Galgahévíz,47.6325,19.558333,2026-03-17 07:19:50.943100,5.62,2.4,5.62,5.62,1019,70,4.41,328,100,0.0,Clouds,overcast clouds,7
Tura,47.626389,19.5975,2026-03-17 07:19:52.209518,5.58,2.34,5.58,5.58,1019,70,4.44,328,100,0.0,Clouds,overcast clouds,7
Hatvan,47.663611,19.671389,2026-03-17 07:19:53.474616,5.73,2.66,5.73,5.73,1019,71,4.18,332,100,0.0,Clouds,overcast clouds,7
Vámosgyörk,47.686111,19.927778,2026-03-17 07:19:54.739811,5.93,3.91,5.93,5.93,1019,72,2.62,340,100,0.0,Clouds,overcast clouds,7
Adács,47.696389,19.975278,2026-03-17 07:19:56.016065,6.06,4.52,6.06,6.06,1018,72,2.09,351,100,0.0,Clouds,overcast clouds,7
Karácsond,47.718056,20.048611,2026-03-17 07:19:57.285603,5.99,4.6,5.99,5.99,1018,72,1.92,1,100,0.0,Clouds,overcast clouds,7
Ludas,47.723889,20.095556,2026-03-17 07:19:58.552964,6.26,4.84,6.26,6.26,1018,72,2.0,11,100,0.0,Clouds,overcast clouds,7
Nagyút,47.72666666666667,20.161388888888887,2026-03-17 07:19:59.822912,6.28,4.77,6.28,6.28,1018,72,2.09,13,100,0.0,Clouds,overcast clouds,7
Kál-Kápolna,47.734167,20.254167,2026-03-17 07:20:01.090020,6.44,4.75,6.44,6.44,1018,72,2.33,21,100,0.0,Clouds,overcast clouds,7
Füzesabony,47.751389,20.415278,2026-03-17 07:20:02.359629,6.68,5.13,6.68,6.68,1018,72,2.21,36,100,0.0,Clouds,overcast clouds,7
Szihalom,47.766944,20.491944,2026-03-17 07:20:03.623183,6.74,5.21,6.74,6.74,1018,73,2.2,39,100,0.0,Clouds,overcast clouds,7
Mezőkövesd,47.797222,20.5675,2026-03-17 07:20:04.895677,6.93,5.34,6.93,6.93,1018,74,2.31,32,100,0.0,Clouds,overcast clouds,7
Mezőkövesd felső,47.807222,20.591389,2026-03-17 07:20:06.167344,6.93,5.34,6.93,6.93,1018,74,2.31,32,100,0.0,Clouds,overcast clouds,7
Mezőkeresztes-Mezőnyárád,47.845556,20.670278,2026-03-17 07:20:07.430779,7.11,5.09,7.11,7.11,1018,74,2.93,18,100,0.0,Clouds,overcast clouds,7
Csincse,47.890833,20.764167,2026-03-17 07:20:08.693279,7.24,5.11,7.24,7.24,1018,75,3.14,9,100,0.0,Clouds,overcast clouds,7
Emőd,47.930556,20.822778,2026-03-17 07:20:09.956727,7.13,4.78,7.13,7.13,1018,74,3.45,7,100,0.0,Clouds,overcast clouds,7
Nyékládháza,47.9925,20.840556,2026-03-17 07:20:11.227204,7.48,5.14,7.48,7.48,1018,74,3.56,7,100,0.0,Clouds,overcast clouds,7
Miskolc-Tiszai,48.098611,20.811389,2026-03-17 07:20:12.496645,7.62,4.96,7.62,7.62,1018,71,4.23,13,100,0.0,Clouds,overcast clouds,7
Felsőzsolca,48.083611,20.866111,2026-03-17 07:20:13.762136,7.51,5.07,7.51,7.51,1018,72,3.76,12,100,0.0,Clouds,overcast clouds,7
Hernádnémeti-Bőcs,48.051389,20.985,2026-03-17 07:20:15.034551,7.31,6.03,7.31,7.31,1018,74,2.03,9,100,0.0,Clouds,overcast clouds,7
Tiszalúc,48.039722,21.0575,2026-03-17 07:20:16.302047,7.22,7.22,7.22,7.22,1018,74,1.24,4,100,0.0,Clouds,overcast clouds,7
Taktaharkány,48.091667,21.128611,2026-03-17 07:20:17.568985,7.23,6.51,7.23,7.23,1018,74,1.48,5,100,0.0,Clouds,overcast clouds,7
Taktaszada,48.1125,21.149444,2026-03-17 07:20:18.837825,7.15,6.26,7.15,7.15,1018,74,1.62,6,100,0.0,Clouds,overcast clouds,7
Szerencs,48.155556,21.214444,2026-03-17 07:20:20.107443,7.09,5.91,7.09,7.09,1018,74,1.89,12,100,0.0,Clouds,overcast clouds,7
Mezőzombor,48.156944,21.267778,2026-03-17 07:20:21.376586,6.99,5.71,6.99,6.99,1018,74,1.97,14,100,0.0,Clouds,overcast clouds,7
Tarcal,48.125,21.34,2026-03-17 07:20:22.646057,7.1,5.44,7.1,7.1,1018,74,2.43,18,100,0.0,Clouds,overcast clouds,7
Tokaj,48.112778,21.406667,2026-03-17 07:20:23.913202,6.52,4.05,6.52,6.52,1018,74,3.43,25,100,0.0,Clouds,overcast clouds,7
Rakamaz,48.12,21.475,2026-03-17 07:20:25.182557,7.02,4.47,7.02,7.02,1018,75,3.76,26,100,0.0,Clouds,overcast clouds,7
Görögszállás,48.04,21.555,2026-03-17 07:20:26.445771,6.98,4.15,6.98,6.98,1018,75,4.27,29,100,0.13,Rain,light rain,7
Nyírtelek,48.005,21.615556,2026-03-17 07:20:27.710560,6.92,3.99,6.92,6.92,1018,76,4.46,28,100,0.75,Rain,light rain,7
Rákoshegy,47.468611,19.245556,2026-03-17 07:20:28.974348,4.99,1.83,4.99,4.99,1019,66,4.03,311,100,0.0,Clouds,overcast clouds,7
Ecser,47.439444,19.318056,2026-03-17 07:20:30.248469,5.1,1.94,5.1,5.1,1019,65,4.07,311,100,0.0,Clouds,overcast clouds,7
Maglód,47.438889,19.340833,2026-03-17 07:20:31.517069,5.0,1.85,5.0,5.0,1019,65,4.02,312,100,0.0,Clouds,overcast clouds,7
Maglódi nyaraló,47.434167,19.363611,2026-03-17 07:20:32.790677,4.84,1.67,4.84,4.84,1019,66,3.98,313,100,0.0,Clouds,overcast clouds,7
Gyömrő,47.429722,19.393333,2026-03-17 07:20:34.054224,4.84,1.67,4.84,4.84,1019,66,3.98,313,100,0.0,Clouds,overcast clouds,7
Mende,47.426944,19.439722,2026-03-17 07:20:35.323040,4.93,1.77,4.93,4.93,1019,66,4.0,315,100,0.0,Clouds,overcast clouds,7
Szőlősnyaraló,47.450278,19.561111,2026-03-17 07:20:36.592278,5.43,2.27,5.43,5.43,1019,68,4.21,319,100,0.0,Clouds,overcast clouds,7
Sülysáp,47.451944,19.5275,2026-03-17 07:20:37.860788,5.29,2.16,5.29,5.29,1019,68,4.09,318,100,0.0,Clouds,overcast clouds,7
Tápiószecső,47.443056,19.614722,2026-03-17 07:20:39.125578,5.52,2.35,5.52,5.52,1019,69,4.27,320,100,0.0,Clouds,overcast clouds,7
Szentmártonkáta,47.431944,19.680556,2026-03-17 07:20:40.396015,5.54,2.32,5.54,5.54,1019,69,4.37,320,100,0.0,Clouds,overcast clouds,7
Nagykáta,47.409722,19.737778,2026-03-17 07:20:41.663469,5.6,2.4,5.6,5.6,1019,69,4.37,319,100,0.0,Clouds,overcast clouds,7
Farmos,47.355278,19.8375,2026-03-17 07:20:42.934485,5.66,2.43,5.66,5.66,1019,69,4.45,318,99,0.0,Clouds,overcast clouds,7
Tápiószele,47.346313,19.873504,2026-03-17 07:20:44.204652,5.62,2.41,5.62,5.62,1019,69,4.4,318,99,0.0,Clouds,overcast clouds,7
Tápiógyörgye,47.325,19.95,2026-03-17 07:20:45.476676,5.84,2.68,5.84,5.84,1019,69,4.39,318,98,0.0,Clouds,overcast clouds,7
Újszász,47.285833,20.066944,2026-03-17 07:20:46.753197,6.08,3.07,6.08,6.08,1019,68,4.22,318,97,0.0,Clouds,overcast clouds,7
Szurdokpüspöki,47.851944,19.690278,2026-03-17 07:20:48.022568,5.6,3.52,5.6,5.6,1019,74,2.61,341,100,0.0,Clouds,overcast clouds,7
Lőrinci,47.739444,19.673611,2026-03-17 07:20:49.297688,5.68,2.77,5.68,5.68,1019,72,3.86,335,100,0.0,Clouds,overcast clouds,7
Selyp,47.759167,19.670833,2026-03-17 07:20:50.565301,5.66,2.87,5.66,5.66,1019,72,3.65,336,100,0.0,Clouds,overcast clouds,7
Apc-Zagyvaszántó,47.791328,19.66822,2026-03-17 07:20:51.839558,5.67,3.02,5.67,5.67,1019,73,3.44,338,100,0.0,Clouds,overcast clouds,7
Pásztó,47.918889,19.688889,2026-03-17 07:20:53.110204,5.45,3.87,5.45,5.45,1019,75,2.02,342,100,0.0,Clouds,overcast clouds,7
Mátraszőlős-Hasznos,47.938506,19.706122,2026-03-17 07:20:54.378665,5.47,4.26,5.47,5.47,1019,76,1.68,345,100,0.0,Clouds,overcast clouds,7
Tar,47.956111,19.746389,2026-03-17 07:20:55.644319,5.08,4.19,5.08,5.08,1019,76,1.39,349,100,0.0,Clouds,overcast clouds,7
Mátraverebély,47.968333,19.778611,2026-03-17 07:20:56.912073,5.08,4.19,5.08,5.08,1019,76,1.39,349,100,0.0,Clouds,overcast clouds,7
Nagybátony,47.981111,19.82,2026-03-17 07:20:58.180112,5.26,5.26,5.26,5.26,1019,77,1.2,349,100,0.0,Clouds,overcast clouds,7
Kisterenye,48.009444,19.831944,2026-03-17 07:20:59.450641,5.36,5.36,5.36,5.36,1019,77,1.1,349,100,0.0,Clouds,overcast clouds,7
Kisterenye-Bányatelep,48.021389,19.831944,2026-03-17 07:21:00.715222,5.36,5.36,5.36,5.36,1019,77,1.1,349,100,0.0,Clouds,overcast clouds,7
Salgótarján külső,48.089444,19.790833,2026-03-17 07:21:01.987003,4.79,4.79,4.79,4.79,1019,77,0.49,349,100,0.0,Clouds,overcast clouds,7
Balatonfenyves GV,46.7125,17.479167,2026-03-17 07:21:03.260751,5.31,0.92,5.31,5.31,1021,68,6.97,350,100,0.0,Clouds,overcast clouds,7
Várhegyalja,47.737778,18.366667,2026-03-17 07:21:04.532673,5.12,1.11,5.12,5.12,1021,75,5.86,316,100,0.0,Clouds,overcast clouds,7
Imremajor,46.680556,17.499722,2026-03-17 07:21:05.798110,5.36,1.03,5.36,5.36,1021,68,6.84,351,100,0.0,Clouds,overcast clouds,7
Rákospalota-Kertváros,47.578333,19.122778,2026-03-17 07:21:07.064596,5.44,2.54,5.44,5.44,1019,69,3.75,307,100,0.0,Clouds,overcast clouds,7
Vicziántelep,47.675833,19.286111,2026-03-17 07:21:08.337221,4.99,1.86,4.99,4.99,1019,69,3.97,316,100,0.0,Clouds,overcast clouds,7
Pálmajor,46.662831,17.457526,2026-03-17 07:21:09.608206,5.38,1.14,5.38,5.38,1022,67,6.62,353,100,0.0,Clouds,overcast clouds,7
Somogyszentpál felső,46.649758,17.471404,2026-03-17 07:21:10.880598,5.37,1.1,5.37,5.37,1022,67,6.69,352,100,0.0,Clouds,overcast clouds,7
Somogyszentpál,46.638611,17.478611,2026-03-17 07:21:12.146066,5.32,1.1,5.32,5.32,1022,67,6.52,353,100,0.0,Clouds,overcast clouds,7
Rudnaykert,47.7175,19.257778,2026-03-17 07:21:13.421463,5.07,2.01,5.07,5.07,1019,71,3.88,313,100,0.0,Clouds,overcast clouds,7
Maroshegy,47.158333,18.406667,2026-03-17 07:21:14.692001,5.29,0.98,5.29,5.29,1020,70,6.73,332,100,0.0,Clouds,overcast clouds,7
Bánhida,47.573703,18.371737,2026-03-17 07:21:15.961243,4.93,0.71,4.93,4.93,1020,75,6.25,322,100,0.0,Clouds,overcast clouds,7
Magyarkút,47.850278,19.045,2026-03-17 07:21:17.239160,4.68,2.03,4.68,4.68,1019,75,3.12,287,100,0.0,Clouds,overcast clouds,7
Becske alsó,47.897222,19.364722,2026-03-17 07:21:18.506164,4.46,1.76,4.46,4.46,1019,73,3.13,313,100,0.0,Clouds,overcast clouds,7
Hosszúberek-Péteri,47.370556,19.389722,2026-03-17 07:21:19.773846,5.41,2.22,5.41,5.41,1019,66,4.26,311,100,0.0,Clouds,overcast clouds,7
Monorierdő,47.308889,19.499167,2026-03-17 07:21:21.045587,5.42,2.29,5.42,5.42,1019,66,4.15,313,100,0.0,Clouds,overcast clouds,7
Ceglédbercel,47.215833,19.658611,2026-03-17 07:21:22.316098,5.61,2.6,5.61,5.61,1019,66,4.02,315,100,0.0,Clouds,overcast clouds,7
Budai út,47.208333,19.731389,2026-03-17 07:21:23.583253,5.59,2.6,5.59,5.59,1019,67,3.98,317,100,0.0,Clouds,overcast clouds,7
Büdöskútpuszta,48.373056,20.726111,2026-03-17 07:21:24.858512,6.64,4.77,6.64,6.64,1018,73,2.6,38,100,0.0,Clouds,overcast clouds,7
Bánrévei Vízmű,48.282778,20.368333,2026-03-17 07:21:26.120221,6.33,6.33,6.33,6.33,1018,78,0.83,38,100,0.0,Clouds,overcast clouds,7
Rákoskert,47.456389,19.296111,2026-03-17 07:21:27.388295,4.94,1.79,4.94,4.94,1019,65,3.99,312,100,0.0,Clouds,overcast clouds,7
Szirmabesenyő,48.146944,20.783056,2026-03-17 07:21:28.651123,7.08,4.34,7.08,7.08,1018,70,4.15,17,100,0.0,Clouds,overcast clouds,7
Kitérőgyár,47.766944,19.935278,2026-03-17 07:21:29.927181,5.7,4.12,5.7,5.7,1019,73,2.06,356,100,0.0,Clouds,overcast clouds,7
Tápiószentmárton,47.373333,19.797778,2026-03-17 07:21:31.190735,5.55,2.31,5.55,5.55,1019,69,4.41,318,100,0.0,Clouds,overcast clouds,7
Zagyvarékas,47.244229,20.097435,2026-03-17 07:21:32.464527,6.14,3.17,6.14,6.14,1019,68,4.16,318,98,0.0,Clouds,overcast clouds,7
Abonyi út,47.206401,20.125204,2026-03-17 07:21:33.737259,6.16,3.2,6.16,6.16,1019,68,4.16,318,98,0.0,Clouds,overcast clouds,7
Jászkisér felső,47.438056,20.202222,2026-03-17 07:21:35.001735,6.29,3.92,6.29,6.29,1019,70,3.2,325,99,0.0,Clouds,overcast clouds,7
Szellőhát,47.425556,20.188889,2026-03-17 07:21:36.270421,6.27,3.79,6.27,6.27,1019,70,3.36,323,99,0.0,Clouds,overcast clouds,7
Szilvásvárad-Szalajkavölgy,48.0956,20.38272,2026-03-17 07:21:37.542071,5.13,3.87,5.13,5.13,1018,80,1.68,50,100,0.0,Clouds,overcast clouds,7
Vásárosnamény külső,48.084444,22.255556,2026-03-17 07:21:38.811338,7.03,7.03,7.03,7.03,1018,72,0.88,168,100,0.0,Clouds,overcast clouds,7
Újváros,46.660556,20.536111,2026-03-17 07:21:40.082598,6.5,4.43,6.5,6.5,1019,66,2.82,326,100,0.0,Clouds,overcast clouds,7
Városi park,46.697778,19.864722,2026-03-17 07:21:41.343942,6.44,3.36,6.44,6.44,1019,68,4.53,312,100,0.0,Clouds,overcast clouds,7
Belsőkamaráspuszta,46.341944,20.848889,2026-03-17 07:21:42.621881,6.75,5.08,6.75,6.75,1019,69,2.37,334,100,0.0,Clouds,overcast clouds,7
Sajószöged,47.945278,20.981667,2026-03-17 07:21:43.890600,7.32,6.75,7.32,7.32,1018,75,1.37,10,100,0.0,Clouds,overcast clouds,7
Kazincbarcika alsó,48.255278,20.649167,2026-03-17 07:21:45.160757,6.88,5.39,6.88,6.88,1018,75,2.18,33,100,0.0,Clouds,overcast clouds,7
Nyárjas,46.857778,19.923611,2026-03-17 07:21:46.427728,6.04,3.07,6.04,6.04,1019,67,4.13,311,100,0.0,Clouds,overcast clouds,7
Pogonyipuszta,48.296389,20.381667,2026-03-17 07:21:47.701318,6.33,6.33,6.33,6.33,1018,78,0.83,38,100,0.0,Clouds,overcast clouds,7
Sióvölgy,46.911103,18.076964,2026-03-17 07:21:48.974963,4.77,0.37,4.77,4.77,1021,66,6.59,335,100,0.0,Clouds,overcast clouds,7
Répáspuszta,46.430278,17.847222,2026-03-17 07:21:50.240931,5.15,1.19,5.15,5.15,1021,68,5.74,348,100,0.0,Clouds,overcast clouds,7
Virányos,48.066667,21.527222,2026-03-17 07:21:51.517812,6.99,4.15,6.99,6.99,1018,75,4.3,28,100,0.0,Clouds,overcast clouds,7
Füzesbokor,47.988611,21.6475,2026-03-17 07:21:52.791299,6.91,4.05,6.91,6.91,1018,76,4.31,28,100,0.37,Rain,light rain,7
Kunfehértó,46.355833,19.417222,2026-03-17 07:21:54.065628,5.98,2.3,5.98,5.98,1019,66,5.61,327,100,0.0,Clouds,overcast clouds,7
Erdőszél,46.329444,19.395,2026-03-17 07:21:55.346803,5.85,2.09,5.85,5.85,1020,66,5.72,330,100,0.0,Clouds,overcast clouds,7
Jánoshalma,46.293056,19.330278,2026-03-17 07:21:56.612236,5.96,2.19,5.96,5.96,1020,66,5.8,332,100,0.0,Clouds,overcast clouds,7
Mélykút,46.213056,19.370556,2026-03-17 07:21:57.876263,6.0,2.23,6.0,6.0,1020,66,5.84,334,100,0.0,Clouds,overcast clouds,7
Bácsalmás,46.118056,19.346389,2026-03-17 07:21:59.148383,6.02,2.22,6.02,6.02,1020,66,5.93,337,100,0.11,Rain,light rain,7
Almás,46.116216,19.328803,2026-03-17 07:22:00.422237,6.02,2.22,6.02,6.02,1020,66,5.93,337,100,0.18,Rain,light rain,7
Bácsbokod-Bácsborsód,46.115833,19.16,2026-03-17 07:22:01.692461,5.96,2.07,5.96,5.96,1020,65,6.12,340,100,0.0,Clouds,overcast clouds,7
Baja,46.187014,18.957602,2026-03-17 07:22:02.957054,6.11,2.11,6.11,6.11,1020,66,6.51,336,100,0.0,Clouds,overcast clouds,7
Harkakötöny,46.458333,19.601944,2026-03-17 07:22:04.231318,6.15,2.65,6.15,6.15,1019,67,5.28,320,100,0.0,Clouds,overcast clouds,7
Tajó,46.473056,19.650556,2026-03-17 07:22:05.502831,6.19,2.72,6.19,6.19,1019,67,5.24,320,100,0.0,Clouds,overcast clouds,7
Kiskunmajsa,46.501667,19.728056,2026-03-17 07:22:06.771217,6.26,2.86,6.26,6.26,1019,67,5.12,318,100,0.0,Clouds,overcast clouds,7
Jászszentlászló,46.565833,19.753611,2026-03-17 07:22:08.036608,6.33,3.05,6.33,6.33,1019,68,4.9,316,100,0.0,Clouds,overcast clouds,7
Galambos,46.625,19.801111,2026-03-17 07:22:09.309206,6.37,3.16,6.37,6.37,1019,68,4.77,314,100,0.0,Clouds,overcast clouds,7
Pestszentimre,47.402222,19.188611,2026-03-17 07:22:10.574633,5.48,2.08,5.48,5.48,1019,66,4.71,311,100,0.0,Clouds,overcast clouds,7
Gyál felső,47.390278,19.204722,2026-03-17 07:22:11.848063,5.37,1.99,5.37,5.37,1019,66,4.6,311,100,0.0,Clouds,overcast clouds,7
Gyál,47.376667,19.219444,2026-03-17 07:22:13.116918,5.37,1.99,5.37,5.37,1019,66,4.6,311,100,0.0,Clouds,overcast clouds,7
Ócsa,47.301389,19.232222,2026-03-17 07:22:14.385743,5.59,2.0,5.59,5.59,1019,66,5.17,312,100,0.0,Clouds,overcast clouds,7
Inárcs-Kakucs,47.247222,19.317778,2026-03-17 07:22:15.659306,5.66,2.13,5.66,5.66,1019,66,5.06,311,100,0.0,Clouds,overcast clouds,7
Dabas,47.194722,19.328889,2026-03-17 07:22:16.932636,5.65,2.08,5.65,5.65,1019,66,5.16,311,100,0.0,Clouds,overcast clouds,7
Gyón,47.178333,19.355556,2026-03-17 07:22:18.200403,5.68,2.05,5.68,5.68,1019,66,5.3,312,100,0.0,Clouds,overcast clouds,7
Hernád,47.161389,19.4025,2026-03-17 07:22:19.470423,5.62,2.14,5.62,5.62,1019,66,4.94,312,100,0.0,Clouds,overcast clouds,7
Bakonygyirót,47.416389,17.811944,2026-03-17 07:22:20.742114,4.48,0.19,4.48,4.48,1021,76,6.12,325,97,0.0,Clouds,overcast clouds,7
Vinye,47.360317,17.819635,2026-03-17 07:22:22.006565,4.03,-0.46,4.03,4.03,1021,76,6.29,326,98,0.0,Clouds,overcast clouds,7
Nemesgörzsöny,47.402924,17.376385,2026-03-17 07:22:23.274427,4.59,0.05,4.59,4.59,1022,74,6.83,332,80,0.0,Clouds,broken clouds,7
Rábahíd,47.438618,17.337525,2026-03-17 07:22:24.547099,4.64,0.09,4.64,4.64,1022,73,6.89,331,65,0.0,Clouds,broken clouds,7
Öskü,47.162222,18.076389,2026-03-17 07:22:25.818949,4.61,-0.18,4.61,4.61,1021,72,7.55,330,100,0.0,Clouds,overcast clouds,7
Márkó,47.1275,17.813889,2026-03-17 07:22:27.087014,3.62,-0.85,3.62,3.62,1021,73,5.98,329,100,0.0,Clouds,overcast clouds,7
Nemeskocs,47.203333,17.188889,2026-03-17 07:22:28.354405,4.69,0.18,4.69,4.69,1022,73,6.82,339,91,0.0,Clouds,overcast clouds,7
Zalagyömörő,47.011111,17.220833,2026-03-17 07:22:29.620157,4.81,0.21,4.81,4.81,1022,72,7.15,343,100,0.0,Clouds,overcast clouds,7
Rigács,47.061667,17.199167,2026-03-17 07:22:30.896006,4.74,0.14,4.74,4.74,1022,72,7.11,343,100,0.0,Clouds,overcast clouds,7
Kemenespálfa,47.139722,17.183056,2026-03-17 07:22:32.159780,4.73,0.17,4.73,4.73,1022,72,7.0,341,99,0.0,Clouds,overcast clouds,7
Lentiszombathely,46.611389,16.5725,2026-03-17 07:22:33.431080,5.2,1.81,5.2,5.2,1022,76,4.54,14,98,0.0,Clouds,overcast clouds,7
Ortaháza,46.626667,16.685833,2026-03-17 07:22:34.700103,4.98,1.42,4.98,4.98,1022,72,4.78,13,98,0.0,Clouds,overcast clouds,7
Rádiháza,46.654722,16.765833,2026-03-17 07:22:35.969373,4.9,1.16,4.9,4.9,1022,71,5.11,12,99,0.0,Clouds,overcast clouds,7
Baktüttös,46.690833,16.826389,2026-03-17 07:22:37.234430,4.96,0.83,4.96,4.96,1022,70,6.04,8,98,0.0,Clouds,overcast clouds,7
Budafa,46.851667,16.624722,2026-03-17 07:22:38.506202,4.72,0.68,4.72,4.72,1022,74,5.68,14,100,0.0,Clouds,overcast clouds,7
Zalapatakalja,46.845556,16.603889,2026-03-17 07:22:39.784941,4.7,0.79,4.7,4.7,1022,76,5.37,17,100,0.0,Clouds,overcast clouds,7
Tormásliget,47.430556,16.781667,2026-03-17 07:22:41.067925,4.34,-0.39,4.34,4.34,1022,73,7.16,339,5,0.0,Clear,clear sky,7
Belecska,46.64,18.411389,2026-03-17 07:22:42.339016,5.56,1.66,5.56,5.56,1021,68,5.86,340,100,0.0,Clouds,overcast clouds,7
Almár,47.956111,20.356944,2026-03-17 07:22:43.601157,5.55,3.81,5.55,5.55,1018,77,2.21,41,100,0.0,Clouds,overcast clouds,7
Vasútmúzeum,47.543889,19.099444,2026-03-17 07:22:44.868277,5.51,2.55,5.51,5.51,1019,69,3.88,308,100,0.0,Clouds,overcast clouds,7
Abda,47.690833,17.540556,2026-03-17 07:22:46.133456,4.86,0.53,4.86,4.86,1022,75,6.47,326,56,0.0,Clouds,broken clouds,7
Vadaspark,47.526111,18.949167,2026-03-17 07:22:47.399795,4.18,0.38,4.18,4.18,1019,71,4.87,315,100,0.0,Clouds,overcast clouds,7
Barosstelep,47.398889,18.989167,2026-03-17 07:22:48.664067,5.87,2.14,5.87,5.87,1019,69,5.66,318,100,0.0,Clouds,overcast clouds,7
Fegyvernek-Örményes,47.194444,20.5575,2026-03-17 07:22:49.943576,6.47,4.06,6.47,6.47,1018,69,3.32,335,100,0.0,Clouds,overcast clouds,7
Zagyvapálfalva,48.068889,19.785,2026-03-17 07:22:51.210989,5.01,5.01,5.01,5.01,1019,77,0.66,349,100,0.0,Clouds,overcast clouds,7
Salgótarján,48.105556,19.807222,2026-03-17 07:22:52.486272,4.35,4.35,4.35,4.35,1019,77,0.33,353,100,0.0,Clouds,overcast clouds,7
Szabadisóstó,46.933889,18.118056,2026-03-17 07:22:53.760305,4.87,0.49,4.87,4.87,1021,67,6.6,335,100,0.0,Clouds,overcast clouds,7
Siófok,46.907778,18.053889,2026-03-17 07:22:55.026689,4.77,0.37,4.77,4.77,1021,66,6.59,335,100,0.0,Clouds,overcast clouds,7
Balatonszéplak felső,46.898056,18.018056,2026-03-17 07:22:56.299343,4.78,0.42,4.78,4.78,1021,66,6.49,336,100,0.0,Clouds,overcast clouds,7
Balatonszéplak alsó,46.891944,17.993333,2026-03-17 07:22:57.568454,4.91,0.59,4.91,4.91,1021,66,6.48,335,100,0.0,Clouds,overcast clouds,7
Zamárdi felső,46.886111,17.969444,2026-03-17 07:22:58.843932,4.95,0.65,4.95,4.95,1021,65,6.46,335,100,0.0,Clouds,overcast clouds,7
Zamárdi,46.88,17.944722,2026-03-17 07:23:00.117282,4.95,0.65,4.95,4.95,1021,65,6.46,335,100,0.0,Clouds,overcast clouds,7
Szántód,46.861944,17.899167,2026-03-17 07:23:01.386539,5.01,0.76,5.01,5.01,1021,65,6.38,336,100,0.0,Clouds,overcast clouds,7
Szőny-Déli,47.735278,18.141944,2026-03-17 07:23:02.649268,5.05,0.63,5.05,5.05,1021,76,6.85,322,99,0.0,Clouds,overcast clouds,7
Várpalota,47.194444,18.149167,2026-03-17 07:23:03.916153,4.44,-0.38,4.44,4.44,1021,72,7.48,330,100,0.0,Clouds,overcast clouds,7
Pétfürdő,47.1675,18.121389,2026-03-17 07:23:05.187860,4.82,0.1,4.82,4.82,1021,72,7.53,330,100,0.0,Clouds,overcast clouds,7
Hajmáskér,47.141111,18.009444,2026-03-17 07:23:06.453826,4.34,-0.52,4.34,4.34,1021,72,7.52,329,100,0.0,Clouds,overcast clouds,7
Veszprém,47.118889,17.91,2026-03-17 07:23:07.720952,4.2,-0.4,4.2,4.2,1021,72,6.7,329,100,0.0,Clouds,overcast clouds,7
Herend,47.136944,17.760278,2026-03-17 07:23:08.983256,3.52,-0.9,3.52,3.52,1021,73,5.81,329,100,0.0,Clouds,overcast clouds,7
Városlőd,47.144167,17.652778,2026-03-17 07:23:10.252957,3.26,-1.22,3.26,3.26,1021,74,5.79,333,97,0.0,Clouds,overcast clouds,7
Városlőd-Kislőd,47.133889,17.631111,2026-03-17 07:23:11.517018,3.72,-0.64,3.72,3.72,1021,74,5.8,333,98,0.0,Clouds,overcast clouds,7
Ajka,47.105902,17.572938,2026-03-17 07:23:12.785161,4.15,-0.31,4.15,4.15,1021,73,6.31,337,98,0.0,Clouds,overcast clouds,7
Ajka-Gyártelep,47.096806,17.555219,2026-03-17 07:23:14.053232,4.15,-0.31,4.15,4.15,1021,73,6.31,337,98,0.0,Clouds,overcast clouds,7
Devecser,47.1125,17.435278,2026-03-17 07:23:15.316737,4.5,-0.01,4.5,4.5,1021,73,6.69,339,100,0.0,Clouds,overcast clouds,7
Somlóvásárhely,47.124444,17.369167,2026-03-17 07:23:16.595670,4.53,-0.01,4.53,4.53,1022,73,6.79,339,100,0.0,Clouds,overcast clouds,7
Tüskevár,47.128611,17.331389,2026-03-17 07:23:17.866172,4.63,0.1,4.63,4.63,1022,73,6.82,340,100,0.0,Clouds,overcast clouds,7
Karakószörcsök,47.133611,17.287778,2026-03-17 07:23:19.133567,4.68,0.16,4.68,4.68,1022,73,6.84,340,100,0.0,Clouds,overcast clouds,7
Kerta,47.151944,17.237222,2026-03-17 07:23:20.404607,4.75,0.23,4.75,4.75,1022,73,6.9,340,100,0.0,Clouds,overcast clouds,7
Boba,47.183333,17.191389,2026-03-17 07:23:21.670739,4.69,0.16,4.69,4.69,1022,73,6.88,340,94,0.0,Clouds,overcast clouds,7
Börgönd,47.140278,18.515,2026-03-17 07:23:22.941708,5.31,0.99,5.31,5.31,1020,70,6.79,330,100,0.0,Clouds,overcast clouds,7
Belsőbáránd,47.102778,18.499722,2026-03-17 07:23:24.208703,5.23,0.91,5.23,5.23,1020,70,6.71,331,100,0.0,Clouds,overcast clouds,7
Zichyújfalu,47.124444,18.6725,2026-03-17 07:23:25.483649,5.44,1.14,5.44,5.44,1020,69,6.84,328,100,0.0,Clouds,overcast clouds,7
Seregélyes,47.121111,18.580556,2026-03-17 07:23:26.755255,5.49,1.21,5.49,5.49,1020,70,6.81,330,100,0.0,Clouds,overcast clouds,7
Polgárdi-Ipartelepek,47.079167,18.314444,2026-03-17 07:23:28.019067,4.76,0.38,4.76,4.76,1020,70,6.53,333,100,0.0,Clouds,overcast clouds,7
Polgárdi,47.07,18.284167,2026-03-17 07:23:29.285759,4.76,0.38,4.76,4.76,1020,70,6.53,333,100,0.0,Clouds,overcast clouds,7
Füle,47.05,18.255278,2026-03-17 07:23:30.549223,4.67,0.28,4.67,4.67,1021,69,6.5,333,100,0.0,Clouds,overcast clouds,7
Zánka-Erzsébettábor,46.8775,17.709167,2026-03-17 07:23:31.817850,5.13,0.83,5.13,5.13,1021,68,6.59,338,100,0.0,Clouds,overcast clouds,7
Csajág,47.033889,18.186389,2026-03-17 07:23:33.087291,4.71,0.25,4.71,4.71,1021,68,6.69,334,100,0.0,Clouds,overcast clouds,7
Balatonakarattya,47.017222,18.167778,2026-03-17 07:23:34.357602,4.71,0.25,4.71,4.71,1021,68,6.69,334,100,0.0,Clouds,overcast clouds,7
Csittényhegy,47.025278,18.1375,2026-03-17 07:23:35.631849,4.91,0.47,4.91,4.91,1021,68,6.79,334,100,0.0,Clouds,overcast clouds,7
Balatonkenese,47.0325,18.105556,2026-03-17 07:23:36.900305,5.0,0.55,5.0,5.0,1021,68,6.89,333,100,0.0,Clouds,overcast clouds,7
Balatonfűzfő,47.060278,18.0425,2026-03-17 07:23:38.164586,4.75,0.16,4.75,4.75,1021,69,7.09,332,100,0.0,Clouds,overcast clouds,7
Balatonalmádi,47.028333,18.015,2026-03-17 07:23:39.433709,4.92,0.42,4.92,4.92,1021,68,6.98,333,100,0.0,Clouds,overcast clouds,7
Káptalanfüred,47.008889,18.003889,2026-03-17 07:23:40.714365,4.02,-0.68,4.02,4.02,1021,67,6.82,333,100,0.0,Clouds,overcast clouds,7
Alsóörs,46.985278,17.974722,2026-03-17 07:23:41.984795,4.02,-0.68,4.02,4.02,1021,67,6.82,333,100,0.0,Clouds,overcast clouds,7
Csopak,46.974722,17.931111,2026-03-17 07:23:43.252196,4.41,-0.02,4.41,4.41,1021,67,6.42,333,100,0.0,Clouds,overcast clouds,7
Balatonarács,46.9625,17.8975,2026-03-17 07:23:44.521979,4.41,-0.02,4.41,4.41,1021,67,6.42,333,100,0.0,Clouds,overcast clouds,7
Balatonfüred,46.955833,17.883056,2026-03-17 07:23:45.794513,4.84,0.57,4.84,4.84,1021,66,6.31,333,100,0.0,Clouds,overcast clouds,7
Aszófő,46.925556,17.8325,2026-03-17 07:23:47.065638,4.83,0.57,4.83,4.83,1021,66,6.27,334,100,0.0,Clouds,overcast clouds,7
Örvényes,46.9125,17.818056,2026-03-17 07:23:48.341459,4.83,0.57,4.83,4.83,1021,66,6.27,334,100,0.0,Clouds,overcast clouds,7
Balatonudvari,46.904722,17.808056,2026-03-17 07:23:49.613080,4.33,-0.05,4.33,4.33,1021,67,6.23,334,100,0.0,Clouds,overcast clouds,7
Fövenyes,46.893611,17.789444,2026-03-17 07:23:50.882655,4.99,0.76,4.99,4.99,1021,66,6.31,335,100,0.0,Clouds,overcast clouds,7
Balatonakali-Dörgicse,46.88,17.747778,2026-03-17 07:23:52.169080,4.65,0.31,4.65,4.65,1021,67,6.34,336,100,0.0,Clouds,overcast clouds,7
Zánka-Köveskál,46.872778,17.687778,2026-03-17 07:23:53.433520,4.74,0.29,4.74,4.74,1021,68,6.7,339,100,0.0,Clouds,overcast clouds,7
Balatonszepezd,46.851111,17.663056,2026-03-17 07:23:54.698383,5.16,0.78,5.16,5.16,1021,68,6.82,340,100,0.0,Clouds,overcast clouds,7
Szepezdfürdő,46.839722,17.649444,2026-03-17 07:23:55.970302,4.14,-0.57,4.14,4.14,1021,68,6.94,341,100,0.0,Clouds,overcast clouds,7
Révfülöp,46.829167,17.632222,2026-03-17 07:23:57.237748,4.14,-0.57,4.14,4.14,1021,68,6.94,341,100,0.0,Clouds,overcast clouds,7
Balatonrendes,46.824722,17.582778,2026-03-17 07:23:58.509047,4.85,0.23,4.85,4.85,1021,69,7.24,345,100,0.0,Clouds,overcast clouds,7
Ábrahámhegy,46.815,17.572222,2026-03-17 07:23:59.778833,4.85,0.23,4.85,4.85,1021,69,7.24,345,100,0.0,Clouds,overcast clouds,7
Badacsonyörs,46.805556,17.531667,2026-03-17 07:24:01.049646,5.11,0.56,5.11,5.11,1021,69,7.26,345,100,0.0,Clouds,overcast clouds,7
Kisújszállás,47.223889,20.751111,2026-03-17 07:24:02.319209,6.63,4.25,6.63,6.63,1018,69,3.33,332,100,0.0,Clouds,overcast clouds,7
Karcag,47.303333,20.928056,2026-03-17 07:24:03.588684,6.71,4.61,6.71,6.71,1018,71,2.93,335,100,0.0,Clouds,overcast clouds,7
Püspökladány,47.3275,21.128889,2026-03-17 07:24:04.858694,6.73,5.27,6.73,6.73,1018,72,2.12,320,100,0.0,Clouds,overcast clouds,7
Kaba,47.368889,21.259444,2026-03-17 07:24:06.126392,6.66,5.83,6.66,6.66,1018,73,1.51,296,100,0.0,Clouds,overcast clouds,7
Hajdúszoboszló,47.429444,21.406944,2026-03-17 07:24:07.405500,6.47,6.47,6.47,6.47,1018,74,1.04,278,100,0.0,Clouds,overcast clouds,7
Ebes,47.462778,21.488889,2026-03-17 07:24:08.674816,6.3,6.3,6.3,6.3,1018,74,0.86,268,100,0.0,Clouds,overcast clouds,7
Debrecen,47.520278,21.628611,2026-03-17 07:24:09.942664,6.02,6.02,6.02,6.02,1018,75,0.58,228,100,0.0,Clouds,overcast clouds,7
Debrecen-Csapókert,47.540556,21.648056,2026-03-17 07:24:11.214627,6.02,6.02,6.02,6.02,1018,75,0.43,211,100,0.0,Clouds,overcast clouds,7
Apafa,47.584045,21.655858,2026-03-17 07:24:12.485537,6.08,6.08,6.08,6.08,1018,75,0.14,192,100,0.0,Clouds,overcast clouds,7
Bocskaikert,47.6425,21.666389,2026-03-17 07:24:13.781018,6.15,6.15,6.15,6.15,1018,76,0.94,41,100,0.0,Clouds,overcast clouds,7
Hajdúhadház,47.686944,21.679167,2026-03-17 07:24:15.052014,6.3,6.3,6.3,6.3,1018,76,1.18,41,100,0.0,Clouds,overcast clouds,7
Téglás,47.714722,21.684722,2026-03-17 07:24:16.321770,6.38,5.46,6.38,6.38,1018,76,1.55,38,100,0.0,Clouds,overcast clouds,7
Újfehértó,47.814444,21.706389,2026-03-17 07:24:17.589769,6.68,4.66,6.68,6.68,1018,77,2.81,33,100,0.0,Clouds,overcast clouds,7
Nyíregyháza,47.946667,21.705556,2026-03-17 07:24:18.857135,6.83,4.15,6.83,6.83,1018,77,3.92,28,100,0.25,Rain,light rain,7
Sóstó,47.998051,21.729047,2026-03-17 07:24:20.128223,6.84,4.15,6.84,6.84,1018,77,3.95,23,100,0.0,Clouds,overcast clouds,7
Sóstóhegy,48.012222,21.742778,2026-03-17 07:24:21.399755,6.92,4.18,6.92,6.92,1018,77,4.08,23,100,0.2,Rain,light rain,7
Kemecse,48.065556,21.801667,2026-03-17 07:24:22.671599,6.95,4.2,6.95,6.95,1018,78,4.1,18,100,0.24,Rain,light rain,7
Nyírbogdány,48.082222,21.855278,2026-03-17 07:24:23.943391,6.92,4.17,6.92,6.92,1018,78,4.09,15,100,0.1,Rain,light rain,7
Kék,48.093333,21.883889,2026-03-17 07:24:25.208029,6.95,4.42,6.95,6.95,1018,78,3.69,12,100,0.0,Clouds,overcast clouds,7
Demecser,48.111667,21.926667,2026-03-17 07:24:26.476181,6.98,4.54,6.98,6.98,1018,78,3.55,11,100,0.0,Clouds,overcast clouds,7
Gégény,48.128333,21.951944,2026-03-17 07:24:27.743533,6.96,4.64,6.96,6.96,1018,78,3.35,10,100,0.0,Clouds,overcast clouds,7
Pátroha,48.158611,21.996667,2026-03-17 07:24:29.013366,6.99,4.84,6.99,6.99,1018,78,3.09,10,100,0.0,Clouds,overcast clouds,7
Ajak,48.1865,22.048972,2026-03-17 07:24:30.282240,6.99,5.05,6.99,6.99,1018,78,2.78,11,100,0.0,Clouds,overcast clouds,7
Kisvárda,48.208333,22.078333,2026-03-17 07:24:31.549156,7.01,5.65,7.01,7.01,1018,78,2.06,17,100,0.0,Clouds,overcast clouds,7
Kisvárda-Hármasút,48.228333,22.091944,2026-03-17 07:24:32.828626,7.01,5.65,7.01,7.01,1018,78,2.06,17,100,0.0,Clouds,overcast clouds,7
Fényeslitke,48.267222,22.107222,2026-03-17 07:24:34.096446,6.96,5.8,6.96,6.96,1018,77,1.85,23,100,0.0,Clouds,overcast clouds,7
Komoró,48.305278,22.118056,2026-03-17 07:24:35.369812,6.98,5.73,6.98,6.98,1018,78,1.94,22,100,0.0,Clouds,overcast clouds,7
Tuzsér,48.342222,22.131667,2026-03-17 07:24:36.637753,6.92,5.51,6.92,6.92,1018,78,2.1,20,100,0.0,Clouds,overcast clouds,7
Tiszabezdéd,48.371389,22.145,2026-03-17 07:24:37.901551,6.94,5.74,6.94,6.94,1018,77,1.88,22,100,0.0,Clouds,overcast clouds,7
Záhony,48.402222,22.183611,2026-03-17 07:24:39.164555,6.93,5.92,6.93,6.93,1019,76,1.7,23,100,0.0,Clouds,overcast clouds,7
Karcag-Vásártér,47.3225,20.9075,2026-03-17 07:24:40.441966,6.71,4.61,6.71,6.71,1018,71,2.93,335,100,0.0,Clouds,overcast clouds,7
Berekfürdő,47.374722,20.827222,2026-03-17 07:24:41.711359,6.75,4.44,6.75,6.75,1018,71,3.26,356,100,0.0,Clouds,overcast clouds,7
Kunmadaras,47.415278,20.793056,2026-03-17 07:24:42.985450,6.8,4.36,6.8,6.8,1018,72,3.48,9,100,0.0,Clouds,overcast clouds,7
Tiszaszentimre,47.490833,20.733056,2026-03-17 07:24:44.255625,6.94,4.56,6.94,6.94,1018,72,3.44,23,100,0.0,Clouds,overcast clouds,7
Tiszaszőlős,47.555556,20.728056,2026-03-17 07:24:45.519332,6.94,4.64,6.94,6.94,1018,72,3.31,28,100,0.0,Clouds,overcast clouds,7
Hosszúhát,47.235556,21.101944,2026-03-17 07:24:46.793398,6.7,4.93,6.7,6.7,1018,71,2.48,302,100,0.0,Clouds,overcast clouds,7
Szerep,47.234444,21.145833,2026-03-17 07:24:48.066781,6.7,5.03,6.7,6.7,1018,71,2.36,298,100,0.0,Clouds,overcast clouds,7
Sárrétudvari,47.231667,21.180833,2026-03-17 07:24:49.334618,6.69,5.11,6.69,6.69,1018,71,2.25,294,100,0.0,Clouds,overcast clouds,7
Biharnagybajom,47.208889,21.221944,2026-03-17 07:24:50.597165,6.68,5.19,6.68,6.68,1018,71,2.15,288,100,0.0,Clouds,overcast clouds,7
Füzesgyarmat,47.113056,21.194444,2026-03-17 07:24:51.869071,6.72,4.88,6.72,6.72,1018,70,2.58,303,100,0.0,Clouds,overcast clouds,7
Füzesgyarmatfürdő,47.093787,21.201582,2026-03-17 07:24:53.140875,6.72,4.88,6.72,6.72,1018,70,2.58,303,100,0.0,Clouds,overcast clouds,7
Báránd,47.299722,21.235278,2026-03-17 07:24:54.405434,6.69,5.55,6.69,6.69,1018,72,1.79,292,100,0.0,Clouds,overcast clouds,7
Sáp,47.259722,21.360556,2026-03-17 07:24:55.676933,6.65,5.44,6.65,6.65,1018,71,1.85,279,100,0.0,Clouds,overcast clouds,7
Berettyóújfalu,47.211944,21.535556,2026-03-17 07:24:56.941205,6.63,5.7,6.63,6.63,1018,71,1.59,264,100,0.0,Clouds,overcast clouds,7
Mezőpeterd,47.176111,21.625278,2026-03-17 07:24:58.211431,6.63,5.87,6.63,6.63,1018,70,1.45,245,100,0.0,Clouds,overcast clouds,7
Biharkeresztes,47.135556,21.721389,2026-03-17 07:24:59.483212,6.61,5.65,6.61,6.61,1018,70,1.61,213,100,0.0,Clouds,overcast clouds,7
Tócóvölgy,47.529444,21.588889,2026-03-17 07:25:00.753374,6.1,6.1,6.1,6.1,1018,75,0.5,244,100,0.0,Clouds,overcast clouds,7
Sáregres,46.7825,18.588889,2026-03-17 07:25:02.024806,5.62,1.6,5.62,5.62,1020,68,6.22,330,100,0.0,Clouds,overcast clouds,7
Simontornya,46.756582,18.540674,2026-03-17 07:25:03.291501,5.48,1.42,5.48,5.48,1020,68,6.22,333,100,0.0,Clouds,overcast clouds,7
Tolnanémedi,46.727778,18.475833,2026-03-17 07:25:04.565158,5.53,1.5,5.53,5.53,1020,68,6.17,334,100,0.0,Clouds,overcast clouds,7
Pincehely,46.681389,18.43,2026-03-17 07:25:05.834981,5.37,1.35,5.37,5.37,1021,68,6.04,338,100,0.0,Clouds,overcast clouds,7
Keszőhidegkút-Gyönk,46.597778,18.426111,2026-03-17 07:25:07.099795,5.51,1.64,5.51,5.51,1021,68,5.76,340,100,0.0,Clouds,overcast clouds,7
Szárazd,46.575556,18.420833,2026-03-17 07:25:08.374837,5.57,1.76,5.57,5.57,1021,68,5.66,341,100,0.0,Clouds,overcast clouds,7
Regöly,46.568889,18.396111,2026-03-17 07:25:09.640062,5.57,1.76,5.57,5.57,1021,68,5.66,341,100,0.0,Clouds,overcast clouds,7
Szakály-Hőgyész,46.523611,18.389444,2026-03-17 07:25:10.906358,5.52,1.78,5.52,5.52,1021,68,5.45,344,100,0.0,Clouds,overcast clouds,7
Dúzs,46.493889,18.377222,2026-03-17 07:25:12.183307,5.59,1.92,5.59,5.59,1021,68,5.34,344,100,0.0,Clouds,overcast clouds,7
Csibrák,46.466667,18.336389,2026-03-17 07:25:13.452652,5.67,2.08,5.67,5.67,1021,68,5.2,346,100,0.0,Clouds,overcast clouds,7
Kurd,46.449167,18.319167,2026-03-17 07:25:14.718144,5.36,1.75,5.36,5.36,1021,68,5.07,346,100,0.0,Clouds,overcast clouds,7
Döbrököz,46.418889,18.255,2026-03-17 07:25:15.990927,5.65,2.22,5.65,5.65,1021,68,4.85,348,100,0.0,Clouds,overcast clouds,7
Dombóvár,46.37,18.149722,2026-03-17 07:25:17.262041,5.66,2.45,5.66,5.66,1021,67,4.41,351,100,0.0,Clouds,overcast clouds,7
Dombóvár alsó,46.363889,18.134167,2026-03-17 07:25:18.528017,5.66,2.45,5.66,5.66,1021,67,4.41,351,100,0.0,Clouds,overcast clouds,7
Somoskőújfalu,48.154722,19.815556,2026-03-17 07:25:19.797859,3.24,3.24,3.24,3.24,1019,77,0.12,31,100,0.0,Clouds,overcast clouds,7
Jászfényszaru,47.593056,19.754444,2026-03-17 07:25:21.065357,5.78,2.67,5.78,5.78,1019,71,4.27,326,100,0.0,Clouds,overcast clouds,7
Pusztamonostor,47.564444,19.794167,2026-03-17 07:25:22.341912,5.8,2.69,5.8,5.8,1019,71,4.29,324,100,0.0,Clouds,overcast clouds,7
Jászberény,47.494444,19.893333,2026-03-17 07:25:23.611497,5.89,2.73,5.89,5.89,1019,71,4.42,320,100,0.0,Clouds,overcast clouds,7
Meggyespele,47.441944,19.938889,2026-03-17 07:25:24.878820,5.95,2.87,5.95,5.95,1019,70,4.3,318,99,0.0,Clouds,overcast clouds,7
Portelek,47.418056,19.958889,2026-03-17 07:25:26.147366,5.93,2.8,5.93,5.93,1019,70,4.37,318,99,0.0,Clouds,overcast clouds,7
Jászboldogháza-Jánoshida,47.366944,20.001389,2026-03-17 07:25:27.419575,5.94,2.82,5.94,5.94,1019,69,4.36,318,98,0.0,Clouds,overcast clouds,7
Jászárokszállás,47.635556,19.971111,2026-03-17 07:25:28.688591,6.07,3.85,6.07,6.07,1019,71,2.91,332,100,0.0,Clouds,overcast clouds,7
Jászdózsa,47.563056,20.028056,2026-03-17 07:25:29.953807,6.16,3.84,6.16,6.16,1019,71,3.08,327,100,0.0,Clouds,overcast clouds,7
Jászapáti,47.513611,20.155,2026-03-17 07:25:31.222956,6.26,4.11,6.26,6.26,1019,71,2.87,330,100,0.0,Clouds,overcast clouds,7
Jászkisér,47.456111,20.203333,2026-03-17 07:25:32.493461,6.3,4.05,6.3,6.3,1019,70,3.02,327,100,0.0,Clouds,overcast clouds,7
Jászladány,47.373333,20.159167,2026-03-17 07:25:33.765723,6.19,3.42,6.19,6.19,1019,69,3.83,320,99,0.0,Clouds,overcast clouds,7
Szászberek,47.320556,20.090833,2026-03-17 07:25:35.037331,6.12,3.17,6.12,6.12,1019,69,4.12,319,98,0.0,Clouds,overcast clouds,7
Gyöngyöshalász,47.743056,19.932222,2026-03-17 07:25:36.310354,5.88,4.25,5.88,5.88,1019,73,2.15,353,100,0.0,Clouds,overcast clouds,7
Gyöngyös,47.783056,19.937222,2026-03-17 07:25:37.576556,5.57,4.09,5.57,5.57,1018,73,1.94,360,100,0.0,Clouds,overcast clouds,7
Erdőtelek,47.683333,20.3025,2026-03-17 07:25:38.853639,6.47,4.9,6.47,6.47,1018,71,2.19,19,100,0.0,Clouds,overcast clouds,7
Heves,47.609444,20.306111,2026-03-17 07:25:40.119248,6.51,5.14,6.51,6.51,1018,71,1.99,8,100,0.0,Clouds,overcast clouds,7
Hevesvezekény,47.562222,20.365833,2026-03-17 07:25:41.387703,6.66,5.51,6.66,6.66,1018,70,1.79,18,100,0.0,Clouds,overcast clouds,7
Tarnaszentmiklós,47.546944,20.390833,2026-03-17 07:25:42.654837,6.66,5.55,6.66,6.66,1018,70,1.75,14,100,0.0,Clouds,overcast clouds,7
Kisköre,47.495556,20.481667,2026-03-17 07:25:43.925196,6.9,5.71,6.9,6.9,1018,70,1.87,28,100,0.0,Clouds,overcast clouds,7
Abádszalók,47.455278,20.553056,2026-03-17 07:25:45.196752,7.01,5.68,7.01,7.01,1018,70,2.03,25,100,0.0,Clouds,overcast clouds,7
Kunhegyes,47.376667,20.641111,2026-03-17 07:25:46.465222,6.82,4.84,6.82,6.82,1018,70,2.79,9,100,0.0,Clouds,overcast clouds,7
Kenderes,47.254444,20.686111,2026-03-17 07:25:47.737346,6.61,4.33,6.61,6.61,1018,69,3.17,339,100,0.0,Clouds,overcast clouds,7
Maklár,47.808056,20.404722,2026-03-17 07:25:49.007625,6.64,4.99,6.64,6.64,1018,73,2.32,39,100,0.0,Clouds,overcast clouds,7
Andornaktálya,47.852203,20.402295,2026-03-17 07:25:50.286831,6.51,4.76,6.51,6.51,1018,74,2.41,42,100,0.0,Clouds,overcast clouds,7
Eger,47.891667,20.381667,2026-03-17 07:25:51.550313,6.33,4.56,6.33,6.33,1018,75,2.4,40,100,0.0,Clouds,overcast clouds,7
Egervár,47.908056,20.380556,2026-03-17 07:25:52.816699,6.45,4.72,6.45,6.45,1018,76,2.38,42,100,0.0,Clouds,overcast clouds,7
Eger-Felnémet,47.936667,20.370556,2026-03-17 07:25:54.087491,6.38,4.68,6.38,6.38,1018,76,2.33,43,100,0.0,Clouds,overcast clouds,7
Szarvaskő,47.988611,20.3325,2026-03-17 07:25:55.354605,5.62,3.97,5.62,5.62,1018,77,2.12,42,100,0.0,Clouds,overcast clouds,7
Mónosbél,48.031944,20.33,2026-03-17 07:25:56.624459,5.66,4.22,5.66,5.66,1018,78,1.92,44,100,0.0,Clouds,overcast clouds,7
Bélapátfalva,48.055556,20.340556,2026-03-17 07:25:57.887340,5.38,4.02,5.38,5.38,1018,79,1.8,44,100,0.0,Clouds,overcast clouds,7
Bélapátfalvi Cementgyár,48.058056,20.355,2026-03-17 07:25:59.166262,5.38,4.02,5.38,5.38,1018,79,1.8,44,100,0.0,Clouds,overcast clouds,7
Szilvásvárad,48.11345,20.37919,2026-03-17 07:26:00.435223,5.17,4.09,5.17,5.17,1018,80,1.54,51,100,0.0,Clouds,overcast clouds,7
Hejőkeresztúr,47.960278,20.869444,2026-03-17 07:26:01.706869,7.42,5.43,7.42,7.42,1018,74,2.97,6,100,0.0,Clouds,overcast clouds,7
Tiszaújváros,47.926111,21.030556,2026-03-17 07:26:02.982471,7.31,7.31,7.31,7.31,1018,75,1.2,13,100,0.0,Clouds,overcast clouds,7
Miskolc-Gömöri,48.106667,20.800278,2026-03-17 07:26:04.245043,7.66,5.01,7.66,7.66,1018,70,4.23,15,100,0.0,Clouds,overcast clouds,7
Sajókeresztúr,48.168008,20.774014,2026-03-17 07:26:05.511429,7.47,4.88,7.47,7.47,1018,71,4.03,19,100,0.0,Clouds,overcast clouds,7
Sajóecseg,48.186111,20.766667,2026-03-17 07:26:06.779473,7.41,4.88,7.41,7.41,1018,71,3.89,22,100,0.0,Clouds,overcast clouds,7
Sajószentpéter,48.222222,20.708056,2026-03-17 07:26:08.053985,7.26,4.92,7.26,7.26,1018,72,3.49,25,100,0.0,Clouds,overcast clouds,7
Kazincbarcika,48.264444,20.6275,2026-03-17 07:26:09.323537,6.91,5.96,6.91,6.91,1018,76,1.64,38,100,0.0,Clouds,overcast clouds,7
Sajókaza,48.272778,20.581944,2026-03-17 07:26:10.595646,6.85,6.85,6.85,6.85,1018,77,1.33,41,100,0.0,Clouds,overcast clouds,7
Vadna,48.276389,20.555278,2026-03-17 07:26:11.861234,6.85,6.85,6.85,6.85,1018,77,1.33,41,100,0.0,Clouds,overcast clouds,7
Dubicsány,48.280833,20.504722,2026-03-17 07:26:13.128763,6.69,6.69,6.69,6.69,1018,78,0.77,50,100,0.0,Clouds,overcast clouds,7
Raposka,46.851389,17.412778,2026-03-17 07:26:14.398435,5.18,0.75,5.18,5.18,1021,70,6.99,346,99,0.0,Clouds,overcast clouds,7
Ivacs,47.641944,19.273889,2026-03-17 07:26:15.672663,4.94,1.86,4.94,4.94,1019,69,3.88,314,100,0.0,Clouds,overcast clouds,7
Kisköre-Tiszahíd,47.480835,20.507698,2026-03-17 07:26:16.935375,6.9,5.7,6.9,6.9,1018,70,1.88,22,100,0.0,Clouds,overcast clouds,7
Rozsály,47.912778,22.7825,2026-03-17 07:26:18.209041,7.94,6.68,7.94,7.94,1018,66,2.13,162,100,0.0,Clouds,overcast clouds,7
Pusztakettős,47.453611,20.749722,2026-03-17 07:26:19.477098,6.86,4.42,6.86,6.86,1018,71,3.5,15,100,0.0,Clouds,overcast clouds,7
Kisvác,47.795278,19.113611,2026-03-17 07:26:20.748430,5.34,2.77,5.34,5.34,1019,73,3.2,295,100,0.0,Clouds,overcast clouds,7
Tiszafüred-Gyártelep,47.6075,20.736111,2026-03-17 07:26:22.020611,6.94,4.82,6.94,6.94,1018,73,3.02,30,100,0.0,Clouds,overcast clouds,7
Újkenéz,48.251111,22.221667,2026-03-17 07:26:23.290945,6.99,6.99,6.99,6.99,1018,74,0.88,87,100,0.0,Clouds,overcast clouds,7
Püspökladány-Vásártér,47.319167,21.096111,2026-03-17 07:26:24.558115,6.71,5.19,6.71,6.71,1018,72,2.19,313,100,0.0,Clouds,overcast clouds,7
Végegyháza alsó,46.3675,20.866944,2026-03-17 07:26:25.827494,6.78,5.11,6.78,6.78,1019,69,2.37,333,100,0.0,Clouds,overcast clouds,7
Orosháza felső,46.553611,20.655278,2026-03-17 07:26:27.097999,6.62,4.76,6.62,6.62,1019,67,2.57,328,100,0.0,Clouds,overcast clouds,7
Ambrózfalva,46.353056,20.740556,2026-03-17 07:26:28.367338,6.72,5.0,6.72,6.72,1019,69,2.42,331,100,0.0,Clouds,overcast clouds,7
Alsónyék,46.199444,18.738056,2026-03-17 07:26:29.639638,6.07,2.08,6.07,6.07,1020,67,6.46,335,100,0.0,Clouds,overcast clouds,7
Tompapuszta,46.321389,20.966389,2026-03-17 07:26:30.912455,6.78,5.19,6.78,6.78,1019,70,2.28,342,100,0.0,Clouds,overcast clouds,7
Halászlak,46.911879,20.56228,2026-03-17 07:26:32.185089,6.46,3.98,6.46,6.46,1018,66,3.43,330,100,0.0,Clouds,overcast clouds,7
Sirató,46.840556,20.61,2026-03-17 07:26:33.466827,6.53,4.15,6.53,6.53,1019,66,3.29,329,100,0.0,Clouds,overcast clouds,7
Csabacsűd felső,46.829167,20.649167,2026-03-17 07:26:34.738806,6.55,4.17,6.55,6.55,1018,66,3.3,329,100,0.0,Clouds,overcast clouds,7
Orosháza-Üveggyár,46.579979,20.683644,2026-03-17 07:26:36.007041,6.62,4.72,6.62,6.62,1019,67,2.63,328,100,0.0,Clouds,overcast clouds,7
Gyulai városerdő,46.69482,21.32281,2026-03-17 07:26:37.275749,7.05,5.24,7.05,7.05,1019,69,2.61,325,100,0.0,Clouds,overcast clouds,7
Kórógyszentgyörgy,46.564377,20.224998,2026-03-17 07:26:38.544473,6.42,3.71,6.42,6.42,1019,67,3.81,314,100,0.0,Clouds,overcast clouds,7
Kunszállás,46.784444,19.767222,2026-03-17 07:26:39.814383,6.09,2.9,6.09,6.09,1019,67,4.57,314,100,0.0,Clouds,overcast clouds,7
Selymes,46.655321,19.8534,2026-03-17 07:26:41.086452,6.4,3.23,6.4,6.4,1019,68,4.69,313,100,0.0,Clouds,overcast clouds,7
Petőfiszállási tanyák,46.587805,19.874509,2026-03-17 07:26:42.352175,6.41,3.2,6.41,6.41,1019,68,4.78,313,100,0.0,Clouds,overcast clouds,7
Kisteleki szőlők,46.514199,19.92868,2026-03-17 07:26:43.622421,6.36,3.09,6.36,6.36,1019,68,4.89,314,100,0.0,Clouds,overcast clouds,7
Kapitányság,46.435336,19.987564,2026-03-17 07:26:44.890151,6.43,3.2,6.43,6.43,1019,67,4.84,317,100,0.0,Clouds,overcast clouds,7
Őszeszék,46.39025,20.016017,2026-03-17 07:26:46.155431,6.45,3.29,6.45,6.45,1019,67,4.7,321,100,0.0,Clouds,overcast clouds,7
Vilmaszállás,46.366389,20.030833,2026-03-17 07:26:47.426192,6.46,3.31,6.46,6.46,1019,67,4.68,322,100,0.0,Clouds,overcast clouds,7
Jánosszállás,46.334359,20.051199,2026-03-17 07:26:48.693963,6.47,3.34,6.47,6.47,1019,67,4.64,324,100,0.0,Clouds,overcast clouds,7
Felsőpakony,47.343056,19.230556,2026-03-17 07:26:49.958784,5.53,2.01,5.53,5.53,1019,66,4.98,311,100,0.0,Clouds,overcast clouds,7
Felsőméntelek,46.987074,19.557745,2026-03-17 07:26:51.232500,5.54,2.04,5.54,5.54,1019,66,4.94,314,100,0.0,Clouds,overcast clouds,7
Alsóméntelek,46.961558,19.579121,2026-03-17 07:26:52.499175,5.54,2.01,5.54,5.54,1019,66,5.0,314,100,0.0,Clouds,overcast clouds,7
Nagynyír,46.943319,19.585447,2026-03-17 07:26:53.764400,5.54,1.98,5.54,5.54,1019,66,5.06,314,100,0.0,Clouds,overcast clouds,7
Úrihegy,46.917778,19.621389,2026-03-17 07:26:55.032073,5.56,2.04,5.56,5.56,1019,66,4.99,314,100,0.0,Clouds,overcast clouds,7
Miklóstelep,46.913412,19.630913,2026-03-17 07:26:56.310309,5.5,2.03,5.5,5.5,1019,66,4.86,314,100,0.0,Clouds,overcast clouds,7
Tiszajenő alsó,47.016944,20.134444,2026-03-17 07:26:57.575471,6.27,3.49,6.27,6.27,1019,68,3.88,314,100,0.0,Clouds,overcast clouds,7
Óbög,46.987222,20.111111,2026-03-17 07:26:58.838423,6.27,3.49,6.27,6.27,1019,67,3.88,313,100,0.0,Clouds,overcast clouds,7
Árpádszállás,46.866456,19.989163,2026-03-17 07:27:00.101000,6.21,3.32,6.21,6.21,1019,67,4.05,310,100,0.0,Clouds,overcast clouds,7
Tőserdő,46.851111,19.980278,2026-03-17 07:27:01.368130,6.3,3.41,6.3,6.3,1019,67,4.09,310,100,0.0,Clouds,overcast clouds,7
Tiszaalpár felső,46.836256,19.976753,2026-03-17 07:27:02.633569,6.3,3.41,6.3,6.3,1019,67,4.09,310,100,0.0,Clouds,overcast clouds,7
Borsihalom,46.773056,19.92,2026-03-17 07:27:03.901364,6.32,3.34,6.32,6.32,1019,67,4.27,311,100,0.0,Clouds,overcast clouds,7
Petőfiváros,46.725556,19.848611,2026-03-17 07:27:05.165197,6.4,3.31,6.4,6.4,1019,68,4.53,313,100,0.0,Clouds,overcast clouds,7
Csorna,47.601944,17.248889,2026-03-17 07:27:06.430126,4.8,0.24,4.8,4.8,1022,73,7.05,327,14,0.0,Clouds,few clouds,7
Szorgalmatos,47.986667,21.366389,2026-03-17 07:27:07.700652,7.07,4.71,7.07,7.07,1018,73,3.44,28,100,0.0,Clouds,overcast clouds,7
Fótfürdő,47.6225,19.200556,2026-03-17 07:27:08.968020,5.25,2.39,5.25,5.25,1019,69,3.62,308,100,0.0,Clouds,overcast clouds,7
Fenyveshegy,47.818333,19.068056,2026-03-17 07:27:10.233186,5.52,3.07,5.52,5.52,1019,74,3.09,291,100,0.0,Clouds,overcast clouds,7
Hűvösvölgy,47.541202,18.96351,2026-03-17 07:27:11.507486,4.45,0.83,4.45,4.45,1019,72,4.64,314,100,0.0,Clouds,overcast clouds,7
Hárshegy,47.535318,18.961433,2026-03-17 07:27:12.765260,4.45,0.83,4.45,4.45,1019,72,4.64,314,100,0.0,Clouds,overcast clouds,7
Szépjuhászné,47.528277,18.955246,2026-03-17 07:27:14.033382,4.18,0.38,4.18,4.18,1019,71,4.87,315,100,0.0,Clouds,overcast clouds,7
Jánoshegy,47.51433,18.95047,2026-03-17 07:27:15.298065,4.18,0.38,4.18,4.18,1019,71,4.87,315,100,0.0,Clouds,overcast clouds,7
Virágvölgy,47.505965,18.95876,2026-03-17 07:27:16.572502,4.39,0.53,4.39,4.39,1019,71,5.1,316,100,0.0,Clouds,overcast clouds,7
Csillebérc,47.498196,18.961694,2026-03-17 07:27:17.844747,4.39,0.53,4.39,4.39,1019,71,5.1,316,100,0.0,Clouds,overcast clouds,7
Normafa,47.5,18.970558,2026-03-17 07:27:19.111579,4.39,0.53,4.39,4.39,1019,71,5.1,316,100,0.0,Clouds,overcast clouds,7
Széchenyihegy,47.49413,18.977049,2026-03-17 07:27:20.379520,3.56,-0.38,3.56,3.56,1019,70,4.84,315,100,0.0,Clouds,overcast clouds,7
Balatonfőkajár felső,47.031389,18.215278,2026-03-17 07:27:21.648206,4.87,0.5,4.87,4.87,1021,69,6.59,334,100,0.0,Clouds,overcast clouds,7
Piroska,47.148333,20.129722,2026-03-17 07:27:22.917615,6.18,3.27,6.18,6.18,1019,68,4.08,317,99,0.0,Clouds,overcast clouds,7
Somodor,46.4725,17.836667,2026-03-17 07:27:24.187786,5.21,1.22,5.21,5.21,1021,68,5.87,347,100,0.0,Clouds,overcast clouds,7
Középmező,45.995833,18.668889,2026-03-17 07:27:25.458193,6.09,2.11,6.09,6.09,1020,66,6.46,347,100,1.02,Rain,moderate rain,7
Jobbágyi,47.828889,19.6875,2026-03-17 07:27:26.730500,5.59,3.28,5.59,5.59,1019,74,2.91,340,100,0.0,Clouds,overcast clouds,7
Ferihegy,47.437222,19.223889,2026-03-17 07:27:27.998371,5.14,1.89,5.14,5.14,1019,66,4.26,310,100,0.0,Clouds,overcast clouds,7
Máriapócs,47.852778,22.019167,2026-03-17 07:27:29.268306,6.73,6.73,6.73,6.73,1018,75,0.91,344,100,0.0,Clouds,overcast clouds,7
Máriaudvar,47.751944,19.165,2026-03-17 07:27:30.538246,5.58,2.98,5.58,5.58,1019,72,3.33,301,100,0.0,Clouds,overcast clouds,7
Nagyberki,46.353333,18.004167,2026-03-17 07:27:31.812169,5.43,2.01,5.43,5.43,1021,67,4.71,350,100,0.0,Clouds,overcast clouds,7
Badacsonytomaj,46.804722,17.518056,2026-03-17 07:27:33.079515,5.11,0.56,5.11,5.11,1021,69,7.26,345,100,0.0,Clouds,overcast clouds,7
Badacsony,46.788611,17.506389,2026-03-17 07:27:34.350607,5.21,0.71,5.21,5.21,1021,69,7.2,347,100,0.0,Clouds,overcast clouds,7
Badacsonylábdihegy,46.793889,17.470833,2026-03-17 07:27:35.627323,5.21,0.71,5.21,5.21,1021,69,7.2,347,100,0.0,Clouds,overcast clouds,7
Badacsonytördemic-Szigliget,46.809722,17.469167,2026-03-17 07:27:36.895404,5.17,0.65,5.17,5.17,1021,69,7.23,346,100,0.0,Clouds,overcast clouds,7
Nemesgulács-Kisapáti,46.836944,17.476389,2026-03-17 07:27:38.164014,5.16,0.64,5.16,5.16,1021,69,7.23,345,100,0.0,Clouds,overcast clouds,7
Tapolca,46.877778,17.428611,2026-03-17 07:27:39.428508,5.1,0.63,5.1,5.1,1021,70,7.04,345,99,0.0,Clouds,overcast clouds,7
Uzsabánya alsó,46.898333,17.345278,2026-03-17 07:27:40.698005,4.01,-0.73,4.01,4.01,1021,70,6.93,345,97,0.0,Clouds,overcast clouds,7
Uzsa,46.920278,17.331667,2026-03-17 07:27:41.967590,4.76,0.21,4.76,4.76,1021,71,6.98,345,97,0.0,Clouds,overcast clouds,7
Sümegi Bazaltbánya,46.9525,17.2925,2026-03-17 07:27:43.237327,4.74,0.18,4.74,4.74,1021,71,7.0,344,97,0.0,Clouds,overcast clouds,7
Sümeg,46.981111,17.270833,2026-03-17 07:27:44.518435,4.89,0.33,4.89,4.89,1022,71,7.11,344,99,0.0,Clouds,overcast clouds,7
Gógánfa,47.021111,17.207778,2026-03-17 07:27:45.786495,4.81,0.21,4.81,4.81,1022,72,7.15,343,100,0.0,Clouds,overcast clouds,7
Ukk,47.041944,17.195833,2026-03-17 07:27:47.055021,4.83,0.24,4.83,4.83,1022,72,7.16,343,100,0.0,Clouds,overcast clouds,7
Nemeskeresztúr,47.093611,17.183611,2026-03-17 07:27:48.334665,4.69,0.1,4.69,4.69,1022,72,7.05,342,100,0.0,Clouds,overcast clouds,7
Jánosháza,47.115833,17.171667,2026-03-17 07:27:49.601881,4.73,0.17,4.73,4.73,1022,72,7.0,341,99,0.0,Clouds,overcast clouds,7
Keszthely,46.758333,17.248056,2026-03-17 07:27:50.871298,5.27,0.96,5.27,5.27,1022,68,6.72,353,100,0.0,Clouds,overcast clouds,7
Alsógyenes,46.765844,17.276435,2026-03-17 07:27:52.140382,5.3,1.04,5.3,5.3,1022,68,6.6,352,100,0.0,Clouds,overcast clouds,7
Gyenesdiás,46.763333,17.292778,2026-03-17 07:27:53.406772,5.3,1.04,5.3,5.3,1022,68,6.6,352,100,0.0,Clouds,overcast clouds,7
Vonyarcvashegy,46.755278,17.318333,2026-03-17 07:27:54.669668,4.72,0.29,4.72,4.72,1022,68,6.64,351,100,0.0,Clouds,overcast clouds,7
Balatongyörök,46.751944,17.354444,2026-03-17 07:27:55.947153,5.28,0.97,5.28,5.28,1022,68,6.72,350,100,0.0,Clouds,overcast clouds,7
Becehegy,46.776111,17.372778,2026-03-17 07:27:57.221673,4.11,-0.55,4.11,4.11,1021,69,6.78,349,100,0.0,Clouds,overcast clouds,7
Balatonederics,46.8025,17.385,2026-03-17 07:27:58.492482,4.01,-0.7,4.01,4.01,1021,69,6.84,348,99,0.0,Clouds,overcast clouds,7
Dabronc,47.025766,17.167006,2026-03-17 07:27:59.763552,4.85,0.25,4.85,4.85,1022,72,7.2,344,100,0.0,Clouds,overcast clouds,7
Türje,46.994444,17.093611,2026-03-17 07:28:01.039103,4.86,0.2,4.86,4.86,1022,71,7.38,346,100,0.0,Clouds,overcast clouds,7
Zalabér-Batyk,46.983056,17.040833,2026-03-17 07:28:02.306021,4.98,0.28,4.98,4.98,1022,71,7.6,350,100,0.0,Clouds,overcast clouds,7
Pakod,46.959167,16.996667,2026-03-17 07:28:03.573569,4.87,0.13,4.87,4.87,1022,71,7.62,351,100,0.0,Clouds,overcast clouds,7
Pókaszepetk,46.924444,16.972222,2026-03-17 07:28:04.845577,5.04,0.29,5.04,5.04,1022,71,7.79,353,100,0.0,Clouds,overcast clouds,7
Kemendollár,46.905833,16.946667,2026-03-17 07:28:06.128218,4.74,-0.08,4.74,4.74,1022,71,7.75,354,100,0.0,Clouds,overcast clouds,7
Zalaegerszeg,46.833056,16.848333,2026-03-17 07:28:07.398647,4.88,0.38,4.88,4.88,1022,71,6.93,3,100,0.0,Clouds,overcast clouds,7
Bocfölde,46.780278,16.853611,2026-03-17 07:28:08.664422,5.03,0.55,5.03,5.03,1022,70,7.01,3,100,0.0,Clouds,overcast clouds,7
Sárhida,46.755833,16.851389,2026-03-17 07:28:09.944732,4.26,-0.27,4.26,4.26,1022,71,6.55,5,100,0.0,Clouds,overcast clouds,7
Bak,46.7325,16.849167,2026-03-17 07:28:11.231208,4.71,0.37,4.71,4.71,1022,71,6.39,6,99,0.0,Clouds,overcast clouds,7
Tófej,46.670833,16.801944,2026-03-17 07:28:12.501137,4.61,0.52,4.61,4.61,1022,71,5.73,9,98,0.0,Clouds,overcast clouds,7
Gutorfölde,46.646944,16.739722,2026-03-17 07:28:13.777165,4.9,1.16,4.9,4.9,1022,71,5.11,12,99,0.0,Clouds,overcast clouds,7
Csömödér-Páka,46.608056,16.641111,2026-03-17 07:28:15.047013,5.2,1.76,5.2,5.2,1022,73,4.64,13,99,0.0,Clouds,overcast clouds,7
Iklódbördőce,46.603056,16.604722,2026-03-17 07:28:16.321262,5.02,1.57,5.02,5.02,1022,75,4.58,14,98,0.0,Clouds,overcast clouds,7
Lenti,46.621389,16.528611,2026-03-17 07:28:17.589602,5.13,1.73,5.13,5.13,1022,77,4.53,14,98,0.0,Clouds,overcast clouds,7
Rédics,46.618056,16.471111,2026-03-17 07:28:18.859610,5.12,1.77,5.12,5.12,1022,78,4.44,15,99,0.0,Clouds,overcast clouds,7
Zalalövő,46.845556,16.576389,2026-03-17 07:28:20.125821,4.64,0.79,4.64,4.64,1022,77,5.2,19,100,0.0,Clouds,overcast clouds,7
Zalaegerszeg-Ola,46.849167,16.844722,2026-03-17 07:28:21.397347,4.88,0.38,4.88,4.88,1022,71,6.93,3,100,0.0,Clouds,overcast clouds,7
Andráshida,46.863116,16.7792,2026-03-17 07:28:22.664753,4.8,0.34,4.8,4.8,1022,71,6.78,4,100,0.0,Clouds,overcast clouds,7
Bagod,46.875,16.746111,2026-03-17 07:28:23.931837,4.88,0.6,4.88,4.88,1022,72,6.35,8,100,0.0,Clouds,overcast clouds,7
Zalaszentgyörgy,46.872222,16.7125,2026-03-17 07:28:25.202435,4.81,0.59,4.81,4.81,1022,73,6.17,10,100,0.0,Clouds,overcast clouds,7
Zalacséb-Salomvár,46.858056,16.662222,2026-03-17 07:28:26.466668,4.57,0.35,4.57,4.57,1022,73,5.99,12,100,0.0,Clouds,overcast clouds,7
Kópháza,47.631389,16.6375,2026-03-17 07:28:27.742711,4.34,-0.55,4.34,4.34,1022,73,7.61,327,15,0.0,Clouds,few clouds,7
Nagycenk,47.601111,16.690278,2026-03-17 07:28:29.014244,4.47,-0.4,4.47,4.47,1022,73,7.64,329,13,0.0,Clouds,few clouds,7
Sopronkövesd,47.548333,16.748056,2026-03-17 07:28:30.287790,4.24,-0.67,4.24,4.24,1022,73,7.57,333,9,0.0,Clear,clear sky,7
Lövő,47.509444,16.7775,2026-03-17 07:28:31.564173,4.2,-0.69,4.2,4.2,1022,73,7.49,334,8,0.0,Clear,clear sky,7
Újkér,47.457778,16.786667,2026-03-17 07:28:32.835995,4.24,-0.56,4.24,4.24,1022,73,7.26,338,6,0.0,Clear,clear sky,7
Bük,47.388611,16.752222,2026-03-17 07:28:34.113148,4.28,-0.36,4.28,4.28,1022,73,6.86,343,4,0.0,Clear,clear sky,7
Acsád,47.308333,16.734722,2026-03-17 07:28:35.380778,4.04,-0.52,4.04,4.04,1022,73,6.49,348,9,0.0,Clear,clear sky,7
Salköveskút-Vassurány,47.291389,16.704167,2026-03-17 07:28:36.655538,4.11,-0.41,4.11,4.11,1022,73,6.43,350,13,0.0,Clouds,few clouds,7
Zalaszentiván,46.8875,16.909444,2026-03-17 07:28:37.923421,4.93,0.24,4.93,4.93,1022,71,7.53,358,100,0.0,Clouds,overcast clouds,7
Alsónemesapáti,46.854167,16.936389,2026-03-17 07:28:39.199429,5.06,0.3,5.06,5.06,1022,71,7.84,356,100,0.0,Clouds,overcast clouds,7
Józsa,47.600833,21.584444,2026-03-17 07:28:40.470236,6.16,6.16,6.16,6.16,1018,75,0.47,28,100,0.0,Clouds,overcast clouds,7
Hajdúszentgyörgy,47.608056,21.578333,2026-03-17 07:28:41.743700,6.16,6.16,6.16,6.16,1018,75,0.47,28,100,0.0,Clouds,overcast clouds,7
Zelemér,47.627778,21.578333,2026-03-17 07:28:43.010996,6.2,6.2,6.2,6.2,1018,76,0.82,34,100,0.0,Clouds,overcast clouds,7
Hajdúböszörmény,47.668056,21.524167,2026-03-17 07:28:44.275486,6.44,5.17,6.44,6.44,1018,76,1.87,36,100,0.0,Clouds,overcast clouds,7
Hajdúvid,47.749444,21.508056,2026-03-17 07:28:45.543127,6.73,4.61,6.73,6.73,1018,76,2.96,38,100,0.0,Clouds,overcast clouds,7
Hajdúdorog,47.805556,21.493056,2026-03-17 07:28:46.812655,6.8,4.39,6.8,6.8,1018,76,3.43,37,100,0.0,Clouds,overcast clouds,7
Hajdúnánás,47.831944,21.426667,2026-03-17 07:28:48.084611,6.97,4.46,6.97,6.97,1018,75,3.67,37,100,0.0,Clouds,overcast clouds,7
Hajdúnánás-Vásártér,47.843056,21.407222,2026-03-17 07:28:49.348516,6.97,4.46,6.97,6.97,1018,75,3.67,37,100,0.0,Clouds,overcast clouds,7
Tedej,47.903611,21.404444,2026-03-17 07:28:50.619912,7.02,4.46,7.02,7.02,1018,74,3.78,33,100,0.0,Clouds,overcast clouds,7
Tiszavasvári,47.945278,21.374722,2026-03-17 07:28:51.891983,7.05,4.6,7.05,7.05,1018,74,3.6,31,100,0.0,Clouds,overcast clouds,7
Egyházerdő,47.9725,21.365,2026-03-17 07:28:53.158260,7.08,4.67,7.08,7.08,1018,74,3.53,29,100,0.0,Clouds,overcast clouds,7
Tiszalök,48.013056,21.369167,2026-03-17 07:28:54.428156,7.06,4.76,7.06,7.06,1018,73,3.34,26,100,0.0,Clouds,overcast clouds,7
Hajnalos,47.998889,21.414167,2026-03-17 07:28:55.695136,7.06,4.57,7.06,7.06,1018,74,3.67,29,100,0.0,Clouds,overcast clouds,7
Kisfástanya,47.989167,21.47,2026-03-17 07:28:56.970787,7.0,4.39,7.0,7.0,1018,74,3.87,30,100,0.0,Clouds,overcast clouds,7
Tiszaeszlár,48.010556,21.491944,2026-03-17 07:28:58.243449,7.01,4.3,7.01,7.01,1018,74,4.05,29,100,0.0,Clouds,overcast clouds,7
Bashalom,48.026111,21.514722,2026-03-17 07:28:59.515827,7.04,4.33,7.04,7.04,1018,74,4.06,29,100,0.0,Clouds,overcast clouds,7
Sáránd,47.415556,21.625,2026-03-17 07:29:00.782161,6.28,6.28,6.28,6.28,1018,73,1.28,230,100,0.0,Clouds,overcast clouds,7
Derecske,47.365,21.584167,2026-03-17 07:29:02.045418,6.41,5.69,6.41,6.41,1018,72,1.39,241,100,0.0,Clouds,overcast clouds,7
Derecske-Vásártér,47.352222,21.58,2026-03-17 07:29:03.311841,6.41,5.69,6.41,6.41,1018,72,1.39,241,100,0.0,Clouds,overcast clouds,7
Konyár,47.323611,21.666111,2026-03-17 07:29:04.593527,6.5,5.66,6.5,6.5,1018,71,1.5,229,100,0.0,Clouds,overcast clouds,7
Konyári Sóstófürdő,47.324167,21.744444,2026-03-17 07:29:05.867646,6.52,5.44,6.52,6.52,1018,71,1.71,209,100,0.0,Clouds,overcast clouds,7
Pocsaj-Esztár,47.288333,21.793056,2026-03-17 07:29:07.146702,6.55,5.3,6.55,6.55,1018,70,1.87,201,99,0.0,Clouds,overcast clouds,7
Kismarja,47.243889,21.813889,2026-03-17 07:29:08.415770,6.59,5.38,6.59,6.59,1018,70,1.84,201,99,0.0,Clouds,overcast clouds,7
Nagykereki,47.191667,21.8,2026-03-17 07:29:09.688518,6.58,5.39,6.58,6.58,1018,70,1.82,201,99,0.0,Clouds,overcast clouds,7
Debrecen-Szabadságtelep,47.527778,21.658611,2026-03-17 07:29:10.964395,6.01,6.01,6.01,6.01,1018,75,0.69,216,100,0.0,Clouds,overcast clouds,7
Kondoroskert,47.525556,21.713889,2026-03-17 07:29:12.234554,6.16,6.16,6.16,6.16,1018,74,1.02,194,100,0.0,Clouds,overcast clouds,7
Nagycsere,47.523889,21.763056,2026-03-17 07:29:13.506159,6.22,6.22,6.22,6.22,1018,73,1.12,189,100,0.0,Clouds,overcast clouds,7
Haláp,47.521667,21.818333,2026-03-17 07:29:14.777173,6.24,6.24,6.24,6.24,1018,73,1.24,186,100,0.0,Clouds,overcast clouds,7
Vámospércs,47.518056,21.893889,2026-03-17 07:29:16.045915,6.33,5.37,6.33,6.33,1018,71,1.58,181,100,0.0,Clouds,overcast clouds,7
Szentannapuszta,47.52,21.965833,2026-03-17 07:29:17.313238,6.46,5.32,6.46,6.46,1018,71,1.75,181,100,0.0,Clouds,overcast clouds,7
Nyírábrány,47.523889,22.016944,2026-03-17 07:29:18.583360,6.51,5.33,6.51,6.51,1018,70,1.8,182,100,0.0,Clouds,overcast clouds,7
Dombostanya,47.602778,21.706389,2026-03-17 07:29:19.859578,6.2,6.2,6.2,6.2,1018,75,0.17,100,100,0.0,Clouds,overcast clouds,7
Hajdúsámson,47.608056,21.755278,2026-03-17 07:29:21.131601,6.27,6.27,6.27,6.27,1018,74,0.46,157,100,0.0,Clouds,overcast clouds,7
Tamásipuszta,47.632778,21.796111,2026-03-17 07:29:22.407671,6.29,6.29,6.29,6.29,1018,74,0.4,133,100,0.0,Clouds,overcast clouds,7
Aradványpuszta,47.662778,21.8425,2026-03-17 07:29:23.682084,6.37,6.37,6.37,6.37,1018,74,0.36,109,100,0.0,Clouds,overcast clouds,7
Nyíradony,47.699444,21.903333,2026-03-17 07:29:24.948315,6.47,6.47,6.47,6.47,1018,74,0.14,111,100,0.0,Clouds,overcast clouds,7
Nyírmihálydi,47.7375,21.958889,2026-03-17 07:29:26.212831,6.52,6.52,6.52,6.52,1018,74,0.04,14,100,0.0,Clouds,overcast clouds,7
Nyírgelse,47.750833,21.987778,2026-03-17 07:29:27.479425,6.53,6.53,6.53,6.53,1018,74,0.17,310,100,0.0,Clouds,overcast clouds,7
Nyírbogát,47.793056,22.066389,2026-03-17 07:29:28.748804,6.74,6.74,6.74,6.74,1018,74,0.55,267,99,0.0,Clouds,overcast clouds,7
Nagykálló,47.871111,21.825833,2026-03-17 07:29:30.015723,6.75,4.87,6.75,6.75,1018,77,2.63,20,100,0.0,Clouds,overcast clouds,7
Kállósemjén,47.854722,21.935,2026-03-17 07:29:31.285609,6.72,5.77,6.72,6.72,1018,76,1.62,9,100,0.0,Clouds,overcast clouds,7
Nyírbátor,47.8425,22.131111,2026-03-17 07:29:32.549857,6.75,6.75,6.75,6.75,1018,74,0.67,261,99,0.0,Clouds,overcast clouds,7
Nyírcsászári,47.865556,22.179167,2026-03-17 07:29:33.822628,6.9,6.9,6.9,6.9,1018,73,0.95,239,99,0.0,Clouds,overcast clouds,7
Hodász,47.896111,22.213611,2026-03-17 07:29:35.094731,6.94,6.94,6.94,6.94,1018,73,1.26,221,99,0.0,Clouds,overcast clouds,7
Nyírmeggyes,47.9225,22.256667,2026-03-17 07:29:36.366413,7.04,7.04,7.04,7.04,1018,73,1.3,211,100,0.0,Clouds,overcast clouds,7
Mátészalka,47.951389,22.313333,2026-03-17 07:29:37.641559,7.14,6.46,7.14,7.14,1018,72,1.44,202,100,0.0,Clouds,overcast clouds,7
Kocsord,47.941944,22.375833,2026-03-17 07:29:38.914288,7.41,6.17,7.41,7.41,1018,71,2.01,195,100,0.0,Clouds,overcast clouds,7
Kocsord alsó,47.946389,22.400556,2026-03-17 07:29:40.179717,7.41,6.17,7.41,7.41,1018,71,2.01,195,100,0.0,Clouds,overcast clouds,7
Győrtelek,47.936667,22.424722,2026-03-17 07:29:41.446537,7.49,6.16,7.49,7.49,1018,71,2.12,192,100,0.0,Clouds,overcast clouds,7
Győrtelek alsó,47.921111,22.443333,2026-03-17 07:29:42.714831,7.56,6.13,7.56,7.56,1018,71,2.25,192,100,0.0,Clouds,overcast clouds,7
Ököritófülpös,47.911389,22.495,2026-03-17 07:29:43.986765,7.62,6.16,7.62,7.62,1018,70,2.3,189,100,0.0,Clouds,overcast clouds,7
Porcsalma-Tyukod,47.868056,22.568333,2026-03-17 07:29:45.260333,7.8,6.26,7.8,7.8,1018,69,2.44,187,100,0.0,Clouds,overcast clouds,7
Csenger,47.826111,22.666389,2026-03-17 07:29:46.529780,7.93,6.46,7.93,7.93,1018,68,2.38,186,100,0.0,Clouds,overcast clouds,7
Kisfái,46.888303,19.807366,2026-03-17 07:29:47.796384,5.73,2.56,5.73,5.73,1019,66,4.37,314,100,0.0,Clouds,overcast clouds,7
Nyárlőrinci szőlők,46.8775,19.828333,2026-03-17 07:29:49.065855,5.94,2.84,5.94,5.94,1019,66,4.32,313,100,0.0,Clouds,overcast clouds,7
Nyárlőrinc alsó,46.863889,19.878889,2026-03-17 07:29:50.336077,5.99,2.94,5.99,5.99,1019,67,4.25,312,100,0.0,Clouds,overcast clouds,7
Tiszaug-Tiszahídfő,46.866106,20.052098,2026-03-17 07:29:51.606554,6.35,3.51,6.35,6.35,1019,67,4.02,310,100,0.0,Clouds,overcast clouds,7
Csongrádi úti tanyák,46.690278,19.921667,2026-03-17 07:29:52.880540,6.47,3.39,6.47,6.47,1019,68,4.53,311,100,0.0,Clouds,overcast clouds,7
Kettőshalom,46.689167,20.0225,2026-03-17 07:29:54.148657,6.56,3.56,6.56,6.56,1019,67,4.42,309,100,0.0,Clouds,overcast clouds,7
Csongrád alsó,46.711389,20.126389,2026-03-17 07:29:55.416207,6.75,3.92,6.75,6.75,1019,66,4.17,309,100,0.0,Clouds,overcast clouds,7
Dónát,46.66988,20.368168,2026-03-17 07:29:56.686432,6.36,3.96,6.36,6.36,1019,66,3.27,318,100,0.0,Clouds,overcast clouds,7
Pusztatemplom,46.676667,20.407222,2026-03-17 07:29:57.952791,6.4,4.14,6.4,6.4,1019,66,3.07,321,100,0.0,Clouds,overcast clouds,7
Előhát,47.364722,20.653611,2026-03-17 07:29:59.224292,6.75,4.75,6.75,6.75,1018,70,2.8,2,100,0.0,Clouds,overcast clouds,7
Polgárdi-Tekerespuszta,47.017778,18.297778,2026-03-17 07:30:00.495471,6.85,2.77,6.85,6.85,1021,64,7.38,336,100,0.0,Clouds,overcast clouds,7
Szatina-Kishajmás,46.202778,18.083611,2026-03-17 07:30:01.777301,6.48,3.36,6.48,6.48,1021,64,4.62,356,100,0.0,Clouds,overcast clouds,7
Márok,45.886944,18.499167,2026-03-17 07:30:03.046620,6.83,3.43,6.83,6.83,1021,61,5.45,346,100,1.78,Rain,moderate rain,7
Nagynyárád,45.953333,18.564722,2026-03-17 07:30:04.320391,6.85,3.26,6.85,6.85,1021,63,5.97,347,100,1.78,Rain,moderate rain,7
Szászvár,46.2875,18.369722222222222,2026-03-17 07:30:05.592563,6.48,3.07,6.48,6.48,1021,66,5.26,346,100,0.0,Clouds,overcast clouds,7
Cikó,46.263514,18.557605,2026-03-17 07:30:06.859730,6.88,3.29,6.88,6.88,1021,66,5.98,341,100,0.0,Clouds,overcast clouds,7
Gyöngyfa-Magyarmecske,45.983889,17.958889,2026-03-17 07:30:08.129827,6.75,3.47,6.75,6.75,1021,65,5.12,357,100,0.0,Clouds,overcast clouds,7
Nagyhát,47.581389,21.445,2026-03-17 07:30:09.409012,7.66,7.66,7.66,7.66,1019,67,1.23,13,100,0.0,Clouds,overcast clouds,7
Balmazújváros,47.613889,21.348056,2026-03-17 07:30:10.685290,8.06,6.31,8.06,8.06,1019,68,2.8,31,100,0.0,Clouds,overcast clouds,7
Kónya,47.600833,21.2375,2026-03-17 07:30:11.949273,8.16,6.21,8.16,8.16,1019,68,3.15,32,100,0.0,Clouds,overcast clouds,7
Hortobágy,47.586111,21.154722,2026-03-17 07:30:13.214722,8.23,6.07,8.23,8.23,1019,68,3.54,33,100,0.0,Clouds,overcast clouds,7
Hortobágyi Halastó,47.604167,21.074167,2026-03-17 07:30:14.485553,7.85,5.54,7.85,7.85,1018,70,3.66,34,100,0.0,Clouds,overcast clouds,7
Ohat-Pusztakócs,47.623333,20.951111,2026-03-17 07:30:15.753577,7.88,5.64,7.88,7.88,1018,70,3.54,34,100,0.0,Clouds,overcast clouds,7
Egyek,47.616944,20.883611,2026-03-17 07:30:17.023387,7.9,5.71,7.9,7.9,1018,71,3.47,33,100,0.0,Clouds,overcast clouds,7
Tiszafüred,47.627778,20.756111,2026-03-17 07:30:18.295745,7.88,5.79,7.88,7.88,1018,71,3.29,35,100,0.0,Clouds,overcast clouds,7
Poroszló,47.657778,20.654444,2026-03-17 07:30:19.565789,7.91,6.07,7.91,7.91,1018,70,2.89,46,100,0.0,Clouds,overcast clouds,7
Kétútköz,47.694167,20.565,2026-03-17 07:30:20.841445,7.83,5.97,7.83,7.83,1018,70,2.9,54,100,0.0,Clouds,overcast clouds,7
Egerfarmos,47.711667,20.5225,2026-03-17 07:30:22.107277,7.81,5.92,7.81,7.81,1018,69,2.94,60,100,0.0,Clouds,overcast clouds,7
Piliscsaba,47.638056,18.829722,2026-03-17 07:30:23.371846,5.32,1.95,5.32,5.32,1019,73,4.57,322,100,0.0,Clouds,overcast clouds,7
Pilisjászfalu,47.656111,18.797778,2026-03-17 07:30:24.634804,6.24,2.97,6.24,6.24,1020,72,4.82,323,100,0.0,Clouds,overcast clouds,7
