station_name,station_lat,station_lon,observation_time,temp,feels_like,temp_min,temp_max,pressure,humidity,wind_speed,wind_deg,clouds,precipitation_1h,weather_main,weather_description,collection_hour
Búcsúszentlászló,46.793056,16.932778,2026-03-05 07:02:31.897444,3.66,2.19,3.66,3.66,1027,87,1.67,318,0,0.0,Clear,clear sky,7
Angyalföld,47.549722,19.09,2026-03-05 07:02:33.188410,5.31,5.31,5.31,5.31,1025,78,1.32,355,0,0.0,Clear,clear sky,7
Felsőjánosfa,46.841389,16.544167,2026-03-05 07:02:34.478018,3.4,3.4,3.4,3.4,1027,84,1.18,314,0,0.0,Clear,clear sky,7
Pankasz,46.835833,16.496111,2026-03-05 07:02:35.715219,3.09,3.09,3.09,3.09,1027,84,1.19,311,0,0.0,Clear,clear sky,7
Nagyrákos,46.827222,16.455556,2026-03-05 07:02:36.946548,3.03,3.03,3.03,3.03,1027,84,1.2,309,0,0.0,Clear,clear sky,7
Őriszentpéter,46.828889,16.415278,2026-03-05 07:02:38.182943,3.12,3.12,3.12,3.12,1027,84,1.2,306,0,0.0,Clear,clear sky,7
Törökbálint,47.45,18.908611,2026-03-05 07:02:39.477682,5.24,3.54,5.24,5.24,1025,79,2.11,341,1,0.0,Clear,clear sky,7
Bicske alsó,47.486389,18.642778,2026-03-05 07:02:40.735644,4.9,2.65,4.9,4.9,1025,84,2.66,325,0,0.0,Clear,clear sky,7
Bajánsenye,46.818056,16.358056,2026-03-05 07:02:41.974022,3.23,3.23,3.23,3.23,1027,84,1.19,306,0,0.0,Clear,clear sky,7
Aquincum,47.566218,19.048273,2026-03-05 07:02:43.207717,4.88,3.93,4.88,4.88,1025,79,1.41,342,0,0.0,Clear,clear sky,7
Piliscsév,47.673889,18.791389,2026-03-05 07:02:44.442911,4.69,3.11,4.69,4.69,1025,83,1.9,322,0,0.0,Clear,clear sky,7
Tát,47.741201,18.64783,2026-03-05 07:02:45.687117,4.89,4.89,4.89,4.89,1026,84,1.29,294,0,0.0,Clear,clear sky,7
Süttő felső,47.756667,18.437222,2026-03-05 07:02:46.928623,4.61,4.61,4.61,4.61,1026,85,1.29,278,0,0.0,Clear,clear sky,7
Budatétény,47.405,19.016389,2026-03-05 07:02:48.167009,5.51,4.31,5.51,5.51,1025,77,1.68,346,2,0.0,Clear,clear sky,7
Seregélyes-Szőlőhegy,47.119444,18.612222,2026-03-05 07:02:49.403138,5.11,3.16,5.11,5.11,1026,82,2.35,321,0,0.0,Clear,clear sky,7
Gödöllő-Állami telepek,47.564444,19.375556,2026-03-05 07:02:50.642348,4.73,3.19,4.73,4.73,1025,79,1.87,8,1,0.0,Clear,clear sky,7
Dunakeszi alsó,47.607778,19.128889,2026-03-05 07:02:51.936244,5.23,4.43,5.23,5.23,1025,78,1.34,356,0,0.0,Clear,clear sky,7
Vác-Alsóváros,47.773056,19.149722,2026-03-05 07:02:53.187669,5.08,4.19,5.08,5.08,1025,80,1.39,342,0,0.0,Clear,clear sky,7
Szob alsó,47.816667,18.8725,2026-03-05 07:02:54.423685,5.03,5.03,5.03,5.03,1026,82,1.12,309,0,0.0,Clear,clear sky,7
Zalaszentmihály-Pacsa,46.7225,16.951944,2026-03-05 07:02:55.669918,3.68,2.26,3.68,3.68,1027,87,1.64,317,0,0.0,Clear,clear sky,7
Pötréte,46.682778,16.9575,2026-03-05 07:02:56.905877,3.72,2.35,3.72,3.72,1027,87,1.6,318,0,0.0,Clear,clear sky,7
Felsőrajk,46.667222,16.982778,2026-03-05 07:02:58.154836,3.67,2.14,3.67,3.67,1027,88,1.72,318,0,0.0,Clear,clear sky,7
Gelse,46.600556,16.982778,2026-03-05 07:02:59.451180,3.75,2.26,3.75,3.75,1027,87,1.7,320,0,0.0,Clear,clear sky,7
Őrtilos,46.297778,16.887778,2026-03-05 07:03:00.690556,4.14,2.36,4.14,4.14,1027,81,2.01,312,0,0.0,Clear,clear sky,7
Zákány,46.251944,16.9425,2026-03-05 07:03:01.995119,3.94,1.98,3.94,3.94,1027,82,2.15,319,0,0.0,Clear,clear sky,7
Berzence,46.201389,17.143611,2026-03-05 07:03:03.235234,4.28,2.21,4.28,4.28,1027,83,2.32,327,0,0.0,Clear,clear sky,7
Somogyudvarhely,46.163333,17.179722,2026-03-05 07:03:04.485788,4.28,2.21,4.28,4.28,1027,83,2.32,327,0,0.0,Clear,clear sky,7
Bélavár,46.122778,17.207778,2026-03-05 07:03:05.774241,4.39,2.44,4.39,4.39,1027,83,2.22,325,0,0.0,Clear,clear sky,7
Vízvár,46.101389,17.239444,2026-03-05 07:03:07.012286,4.33,2.4,4.33,4.33,1027,84,2.18,324,0,0.0,Clear,clear sky,7
Babócsa,46.028359,17.342276,2026-03-05 07:03:08.258824,4.42,2.61,4.42,4.42,1027,84,2.08,319,0,0.0,Clear,clear sky,7
Péterhida-Komlósd,46.006667,17.358056,2026-03-05 07:03:09.495236,4.52,2.8,4.52,4.52,1027,84,2.01,316,0,0.0,Clear,clear sky,7
Barcs,45.951944,17.446944,2026-03-05 07:03:10.732933,4.61,2.98,4.61,4.61,1027,85,1.94,305,0,0.0,Clear,clear sky,7
Barcs felső,45.958333,17.486389,2026-03-05 07:03:12.032101,4.54,2.85,4.54,4.54,1027,85,1.98,304,0,0.0,Clear,clear sky,7
Középrigóc,45.970556,17.525,2026-03-05 07:03:13.261976,4.48,2.73,4.48,4.48,1027,86,2.03,304,0,0.0,Clear,clear sky,7
Darány,45.992222,17.598611,2026-03-05 07:03:14.510208,4.5,2.64,4.5,4.5,1027,86,2.14,308,0,0.0,Clear,clear sky,7
Kisdobsza,46.012222,17.668056,2026-03-05 07:03:15.745433,4.59,2.77,4.59,4.59,1027,87,2.12,312,0,0.0,Clear,clear sky,7
Nemeske,46.023333,17.705278,2026-03-05 07:03:16.987330,4.63,2.8,4.63,4.63,1027,87,2.13,313,0,0.0,Clear,clear sky,7
Molvány,46.035278,17.748611,2026-03-05 07:03:18.272515,4.63,2.92,4.63,4.63,1027,87,2.02,318,0,0.0,Clear,clear sky,7
Szigetvár,46.043333,17.801944,2026-03-05 07:03:19.505278,4.63,2.95,4.63,4.63,1026,87,1.99,318,0,0.0,Clear,clear sky,7
Nagypeterd,46.039444,17.871667,2026-03-05 07:03:20.753453,4.67,3.08,4.67,4.67,1026,87,1.91,320,0,0.0,Clear,clear sky,7
Szentdénes,46.036667,17.926944,2026-03-05 07:03:21.986545,4.63,3.08,4.63,4.63,1026,87,1.87,322,0,0.0,Clear,clear sky,7
Háros,47.412222,19.035,2026-03-05 07:03:23.225291,5.51,4.31,5.51,5.51,1025,77,1.68,346,2,0.0,Clear,clear sky,7
Nagytétény-Diósd,47.398333,18.974444,2026-03-05 07:03:24.476540,5.75,4.4,5.75,5.75,1025,78,1.85,343,2,0.0,Clear,clear sky,7
Érdliget,47.390278,18.937778,2026-03-05 07:03:25.712035,5.64,4.14,5.64,5.64,1025,78,1.97,342,2,0.0,Clear,clear sky,7
Érd felső,47.381111,18.922222,2026-03-05 07:03:26.994671,5.27,3.57,5.27,5.27,1025,79,2.11,340,2,0.0,Clear,clear sky,7
Érd,47.369722,18.900833,2026-03-05 07:03:28.235893,5.42,3.75,5.42,5.42,1025,79,2.11,340,2,0.0,Clear,clear sky,7
Százhalombatta,47.322222,18.899167,2026-03-05 07:03:29.473294,5.42,3.74,5.42,5.42,1025,79,2.12,338,3,0.0,Clear,clear sky,7
Dunai Finomító,47.294444,18.878889,2026-03-05 07:03:30.715774,5.27,3.5,5.27,5.27,1025,80,2.19,335,2,0.0,Clear,clear sky,7
Ercsi,47.247222,18.875278,2026-03-05 07:03:31.953001,5.39,3.66,5.39,5.39,1025,80,2.17,334,2,0.0,Clear,clear sky,7
Iváncsa,47.177778,18.811944,2026-03-05 07:03:33.190310,5.28,3.48,5.28,5.28,1025,81,2.22,329,2,0.0,Clear,clear sky,7
Pusztaszabolcs,47.139722,18.761667,2026-03-05 07:03:34.432136,5.31,3.37,5.31,5.31,1026,81,2.38,327,3,0.0,Clear,clear sky,7
Szabadegyháza,47.082778,18.704167,2026-03-05 07:03:35.670325,5.24,3.12,5.24,5.24,1026,82,2.58,324,3,0.0,Clear,clear sky,7
Sárosd,47.039722,18.660278,2026-03-05 07:03:36.908542,5.18,2.99,5.18,5.18,1026,83,2.65,321,2,0.0,Clear,clear sky,7
Nagylók,46.979444,18.635833,2026-03-05 07:03:38.143159,5.04,2.63,5.04,5.04,1026,83,2.9,321,4,0.0,Clear,clear sky,7
Sárbogárd,46.896944,18.611944,2026-03-05 07:03:39.378779,5.2,2.76,5.2,5.2,1026,83,2.98,321,5,0.0,Clear,clear sky,7
Rétszilas,46.814167,18.601389,2026-03-05 07:03:40.616931,5.28,2.87,5.28,5.28,1026,83,2.96,322,6,0.0,Clear,clear sky,7
Nagyatád,46.228611,17.354167,2026-03-05 07:03:41.852084,4.26,2.07,4.26,4.26,1027,84,2.45,331,0,0.0,Clear,clear sky,7
Budapest-Keleti,47.500278,19.084167,2026-03-05 07:03:43.089790,5.5,4.6,5.5,5.5,1025,77,1.44,349,0,0.0,Clear,clear sky,7
Ferencváros,47.468611,19.088056,2026-03-05 07:03:44.336240,5.68,4.75,5.68,5.68,1025,77,1.48,350,1,0.0,Clear,clear sky,7
Budapest-Nyugati,47.510833,19.0575,2026-03-05 07:03:45.565939,5.43,4.57,5.43,5.43,1025,78,1.4,348,0,0.0,Clear,clear sky,7
Kőbánya felső,47.491944,19.133889,2026-03-05 07:03:46.801481,5.36,4.52,5.36,5.36,1025,77,1.38,360,0,0.0,Clear,clear sky,7
Rákos,47.488889,19.174722,2026-03-05 07:03:48.031321,5.25,4.32,5.25,5.25,1025,77,1.43,3,0,0.0,Clear,clear sky,7
Rákosrendező,47.525556,19.089444,2026-03-05 07:03:49.271043,5.39,5.39,5.39,5.39,1025,77,1.33,356,0,0.0,Clear,clear sky,7
Zugló,47.511389,19.101389,2026-03-05 07:03:50.517958,5.39,5.39,5.39,5.39,1025,77,1.33,356,0,0.0,Clear,clear sky,7
Mezőtárkány,47.725,20.480278,2026-03-05 07:03:51.751620,6.26,4.6,6.26,6.26,1025,83,2.25,80,8,0.0,Clear,clear sky,7
Istvántelek,47.550278,19.106389,2026-03-05 07:03:52.986075,5.31,5.31,5.31,5.31,1025,78,1.32,355,0,0.0,Clear,clear sky,7
Rákospalota-Újpest,47.565833,19.111944,2026-03-05 07:03:54.217921,5.21,5.21,5.21,5.21,1025,78,1.3,353,0,0.0,Clear,clear sky,7
Kőbánya alsó,47.483056,19.127222,2026-03-05 07:03:55.451741,5.36,4.52,5.36,5.36,1025,77,1.38,360,0,0.0,Clear,clear sky,7
Kőbánya-Kispest,47.463889,19.149444,2026-03-05 07:03:56.686896,5.4,4.52,5.4,5.4,1025,77,1.41,360,0,0.0,Clear,clear sky,7
Pestszentlőrinc,47.454722,19.182778,2026-03-05 07:03:57.918584,5.27,4.31,5.27,5.27,1025,77,1.46,3,1,0.0,Clear,clear sky,7
Kispest,47.448135,19.157552,2026-03-05 07:03:59.154802,5.46,4.55,5.46,5.46,1025,77,1.44,360,1,0.0,Clear,clear sky,7
Újpest,47.558889,19.079722,2026-03-05 07:04:00.387855,5.33,4.5,5.33,5.33,1025,78,1.37,347,0,0.0,Clear,clear sky,7
Pestszentimre felső,47.413611,19.173333,2026-03-05 07:04:01.617033,5.3,4.3,5.3,5.3,1025,77,1.49,3,2,0.0,Clear,clear sky,7
Dunakeszi,47.626111,19.136111,2026-03-05 07:04:02.855993,5.16,4.33,5.16,5.16,1025,79,1.35,354,0,0.0,Clear,clear sky,7
Dunakeszi-Gyártelep,47.643611,19.135,2026-03-05 07:04:04.088010,5.2,4.38,5.2,5.2,1025,79,1.35,352,0,0.0,Clear,clear sky,7
Alsógöd,47.676944,19.134444,2026-03-05 07:04:05.317356,5.2,4.36,5.2,5.2,1025,79,1.36,351,0,0.0,Clear,clear sky,7
Göd,47.687778,19.1375,2026-03-05 07:04:06.549659,5.2,4.36,5.2,5.2,1025,79,1.36,351,0,0.0,Clear,clear sky,7
Felsőgöd,47.705556,19.143333,2026-03-05 07:04:07.788683,5.25,4.41,5.25,5.25,1025,80,1.37,349,0,0.0,Clear,clear sky,7
Sződ-Sződliget,47.728056,19.154722,2026-03-05 07:04:09.022852,5.26,4.4,5.26,5.26,1025,80,1.38,347,0,0.0,Clear,clear sky,7
Vác,47.782778,19.133056,2026-03-05 07:04:10.255824,5.08,4.19,5.08,5.08,1025,80,1.39,342,0,0.0,Clear,clear sky,7
Verőce,47.823889,19.029444,2026-03-05 07:04:11.495039,4.29,4.29,4.29,4.29,1025,81,1.18,322,0,0.0,Clear,clear sky,7
Kismaros,47.8275,19.010278,2026-03-05 07:04:12.727766,3.5,3.5,3.5,3.5,1025,81,1.13,319,0,0.0,Clear,clear sky,7
Nagymaros-Visegrád,47.791389,18.959167,2026-03-05 07:04:13.961318,3.95,3.95,3.95,3.95,1025,82,1.2,317,0,0.0,Clear,clear sky,7
Nagymaros,47.780278,18.952222,2026-03-05 07:04:15.198168,3.95,3.95,3.95,3.95,1025,82,1.2,317,0,0.0,Clear,clear sky,7
Zebegény,47.801389,18.908889,2026-03-05 07:04:16.442527,4.61,4.61,4.61,4.61,1025,82,1.13,314,0,0.0,Clear,clear sky,7
Szob,47.821111,18.861944,2026-03-05 07:04:17.679150,4.43,4.43,4.43,4.43,1026,82,1.03,307,0,0.0,Clear,clear sky,7
Alagimajor,47.601944,19.153889,2026-03-05 07:04:18.913856,5.23,4.43,5.23,5.23,1025,78,1.34,356,0,0.0,Clear,clear sky,7
Fót,47.611389,19.181667,2026-03-05 07:04:20.144286,5.01,4.07,5.01,5.01,1025,78,1.42,358,0,0.0,Clear,clear sky,7
Fótújfalu,47.615,19.192778,2026-03-05 07:04:21.371276,5.01,4.07,5.01,5.01,1025,78,1.42,358,0,0.0,Clear,clear sky,7
Csomád,47.635556,19.222778,2026-03-05 07:04:22.600997,4.26,3.1,4.26,4.26,1025,78,1.5,0,0,0.0,Clear,clear sky,7
Veresegyház,47.649167,19.288611,2026-03-05 07:04:23.833746,4.91,3.52,4.91,4.91,1025,79,1.76,3,0,0.0,Clear,clear sky,7
Erdőkertes,47.662222,19.295833,2026-03-05 07:04:25.068244,4.91,3.52,4.91,4.91,1025,79,1.76,3,0,0.0,Clear,clear sky,7
Őrbottyán,47.685833,19.283611,2026-03-05 07:04:26.306238,4.73,3.32,4.73,4.73,1025,79,1.76,2,0,0.0,Clear,clear sky,7
Váchartyán,47.725833,19.248889,2026-03-05 07:04:27.548720,4.77,3.47,4.77,4.77,1025,80,1.67,358,0,0.0,Clear,clear sky,7
Magyarkút-Verőce,47.826111,19.044444,2026-03-05 07:04:28.784774,4.29,4.29,4.29,4.29,1025,81,1.18,322,0,0.0,Clear,clear sky,7
Szokolya,47.871111,19.030556,2026-03-05 07:04:30.023866,3.53,3.53,3.53,3.53,1026,81,1.14,323,0,0.0,Clear,clear sky,7
Berkenye,47.885278,19.071944,2026-03-05 07:04:31.272632,4.28,4.28,4.28,4.28,1026,81,1.2,327,0,0.0,Clear,clear sky,7
Nógrád,47.901944,19.0475,2026-03-05 07:04:32.503449,3.85,3.85,3.85,3.85,1026,81,1.12,325,0,0.0,Clear,clear sky,7
Diósjenő,47.94,19.049444,2026-03-05 07:04:33.737126,3.44,3.44,3.44,3.44,1026,81,1.1,328,0,0.0,Clear,clear sky,7
Borsosberény,47.971389,19.093056,2026-03-05 07:04:34.974252,4.18,4.18,4.18,4.18,1026,80,1.29,337,0,0.0,Clear,clear sky,7
Nagyoroszi,47.993611,19.101111,2026-03-05 07:04:36.212348,3.99,3.99,3.99,3.99,1026,80,1.28,339,0,0.0,Clear,clear sky,7
Drégelyvár,48.001944,19.079444,2026-03-05 07:04:37.444825,4.17,4.17,4.17,4.17,1026,80,1.2,341,0,0.0,Clear,clear sky,7
Drégely,48.042222,19.056111,2026-03-05 07:04:38.687124,4.51,4.51,4.51,4.51,1026,80,1.25,346,0,0.0,Clear,clear sky,7
Drégelypalánk,48.055,19.046111,2026-03-05 07:04:39.919960,4.57,4.57,4.57,4.57,1026,80,1.24,351,0,0.0,Clear,clear sky,7
Ipolyvece,48.056944,19.106389,2026-03-05 07:04:41.158513,4.63,3.7,4.63,4.63,1026,80,1.37,351,0,0.0,Clear,clear sky,7
Dejtár,48.045556,19.196389,2026-03-05 07:04:42.395323,4.66,3.78,4.66,4.66,1026,80,1.34,348,0,0.0,Clear,clear sky,7
Ipolyszög,48.054444,19.221944,2026-03-05 07:04:43.628655,4.69,3.8,4.69,4.69,1026,79,1.35,354,0,0.0,Clear,clear sky,7
Iklad-Domony,47.658056,19.444444,2026-03-05 07:04:44.863422,5.26,3.85,5.26,5.26,1025,80,1.83,9,2,0.0,Clear,clear sky,7
Iklad-Domony felső,47.667778,19.428056,2026-03-05 07:04:46.101616,5.19,3.76,5.19,5.19,1025,80,1.84,7,2,0.0,Clear,clear sky,7
Galgamácsa,47.693889,19.3925,2026-03-05 07:04:47.337189,4.88,3.41,4.88,4.88,1025,80,1.83,3,1,0.0,Clear,clear sky,7
Vácrátót,47.732778,19.217778,2026-03-05 07:04:48.567416,5.01,3.93,5.01,5.01,1025,80,1.52,354,0,0.0,Clear,clear sky,7
Csörög,47.735833,19.196389,2026-03-05 07:04:49.808817,5.22,4.26,5.22,5.22,1025,80,1.45,350,0,0.0,Clear,clear sky,7
Galgagyörk,47.735278,19.372222,2026-03-05 07:04:51.044325,4.95,3.51,4.95,4.95,1025,80,1.81,2,0,0.0,Clear,clear sky,7
Püspökhatvan,47.768611,19.366944,2026-03-05 07:04:52.286038,4.94,3.59,4.94,4.94,1025,80,1.73,360,0,0.0,Clear,clear sky,7
Acsa-Erdőkürt,47.801111,19.386111,2026-03-05 07:04:53.524532,4.77,3.47,4.77,4.77,1025,80,1.67,358,0,0.0,Clear,clear sky,7
Galgaguta,47.848611,19.385556,2026-03-05 07:04:54.765438,4.44,3.26,4.44,4.44,1026,81,1.54,356,0,0.0,Clear,clear sky,7
Nógrádkövesd,47.879444,19.371111,2026-03-05 07:04:56.000243,4.58,3.51,4.58,4.58,1026,81,1.47,355,0,0.0,Clear,clear sky,7
Magyarnándor,47.970833,19.356667,2026-03-05 07:04:57.238018,4.35,4.35,4.35,4.35,1026,81,1.32,351,0,0.0,Clear,clear sky,7
Mohora,47.995556,19.347778,2026-03-05 07:04:58.478059,4.44,4.44,4.44,4.44,1026,80,1.28,351,1,0.0,Clear,clear sky,7
Szügy,48.036389,19.333056,2026-03-05 07:04:59.712441,4.62,4.62,4.62,4.62,1026,80,1.24,356,1,0.0,Clear,clear sky,7
Balassagyarmat,48.071111,19.293611,2026-03-05 07:05:00.944804,4.67,4.67,4.67,4.67,1026,79,1.27,357,1,0.0,Clear,clear sky,7
Őrhalom,48.078773,19.403936,2026-03-05 07:05:02.175976,4.49,4.49,4.49,4.49,1026,80,1.15,10,3,0.0,Clear,clear sky,7
Hugyag,48.083056,19.421111,2026-03-05 07:05:03.413537,4.49,4.49,4.49,4.49,1026,80,1.15,10,3,0.0,Clear,clear sky,7
Szécsény,48.093056,19.521111,2026-03-05 07:05:04.656876,4.85,4.85,4.85,4.85,1026,80,1.08,21,4,0.0,Clear,clear sky,7
Ludányhalászi,48.1325,19.529444,2026-03-05 07:05:05.918275,4.77,4.77,4.77,4.77,1026,79,1.13,20,5,0.0,Clear,clear sky,7
Nógrádszakál,48.178333,19.521667,2026-03-05 07:05:07.157043,4.7,4.7,4.7,4.7,1026,79,1.16,20,5,0.0,Clear,clear sky,7
Ráróspuszta,48.207222,19.541389,2026-03-05 07:05:08.395362,4.08,4.08,4.08,4.08,1026,78,1.21,17,5,0.0,Clear,clear sky,7
Litke,48.215833,19.598611,2026-03-05 07:05:09.628461,4.69,4.69,4.69,4.69,1026,79,1.08,23,6,0.0,Clear,clear sky,7
Nyíregyháza külső,47.943056,21.740278,2026-03-05 07:05:10.864298,5.35,1.49,5.35,5.35,1025,71,5.63,22,72,0.0,Clouds,broken clouds,7
Oros,47.945833,21.806389,2026-03-05 07:05:12.097333,5.29,1.48,5.29,5.29,1025,72,5.49,17,76,0.0,Clouds,broken clouds,7
Napkor,47.948889,21.873056,2026-03-05 07:05:13.336315,5.22,1.45,5.22,5.22,1025,72,5.36,9,75,0.0,Clouds,broken clouds,7
Apagy,47.953775,21.939044,2026-03-05 07:05:14.568267,5.19,1.45,5.19,5.19,1025,72,5.27,7,76,0.0,Clouds,broken clouds,7
Levelek-Magy,47.948056,21.993611,2026-03-05 07:05:15.808046,5.08,1.41,5.08,5.08,1025,73,5.06,2,76,0.0,Clouds,broken clouds,7
Ófehértó,47.940556,22.041389,2026-03-05 07:05:17.042736,4.96,1.35,4.96,4.96,1025,74,4.86,1,81,0.0,Clouds,broken clouds,7
Ligettanya,47.951667,22.071389,2026-03-05 07:05:18.278139,4.9,1.32,4.9,4.9,1025,74,4.77,355,74,0.0,Clouds,broken clouds,7
Baktalórántháza,47.988611,22.083333,2026-03-05 07:05:19.507013,4.91,1.29,4.91,4.91,1025,73,4.87,354,67,0.0,Clouds,broken clouds,7
Vaja-Rohod,48.006389,22.164167,2026-03-05 07:05:20.748012,4.88,1.31,4.88,4.88,1025,74,4.75,348,57,0.0,Clouds,broken clouds,7
Rákóczitanya,48.022222,22.178333,2026-03-05 07:05:21.989621,4.83,1.3,4.83,4.83,1025,74,4.65,346,55,0.0,Clouds,broken clouds,7
Nyírmada,48.059167,22.203056,2026-03-05 07:05:23.227641,4.85,1.26,4.85,4.85,1025,74,4.78,343,41,0.0,Clouds,scattered clouds,7
Tunyogmatolcs,47.960244,22.442247,2026-03-05 07:05:24.472279,4.82,2.01,4.82,4.82,1025,82,3.4,339,33,0.0,Clouds,scattered clouds,7
Tunyogmatolcs alsó,47.966025,22.464713,2026-03-05 07:05:25.717927,4.76,2.04,4.76,4.76,1025,82,3.25,338,28,0.0,Clouds,scattered clouds,7
Fehérgyarmat,47.979167,22.524444,2026-03-05 07:05:26.955873,4.71,2.26,4.71,4.71,1025,83,2.87,335,13,0.0,Clouds,few clouds,7
Penyige,47.995278,22.566944,2026-03-05 07:05:28.197560,4.69,2.37,4.69,4.69,1025,83,2.69,334,12,0.0,Clouds,few clouds,7
Nagyszekeres,47.976111,22.6125,2026-03-05 07:05:29.437540,4.66,2.5,4.66,4.66,1025,83,2.5,334,11,0.0,Clouds,few clouds,7
Kisszekeres,47.965833,22.629444,2026-03-05 07:05:30.676591,4.64,2.5,4.64,4.64,1025,83,2.47,336,18,0.0,Clouds,few clouds,7
Jánkmajtis,47.941944,22.657222,2026-03-05 07:05:31.913375,4.58,2.6,4.58,4.58,1025,83,2.28,338,24,0.0,Clouds,few clouds,7
Gacsály,47.926111,22.745,2026-03-05 07:05:33.150105,4.53,2.97,4.53,4.53,1025,83,1.86,336,21,0.0,Clouds,few clouds,7
Zajta,47.9025,22.796111,2026-03-05 07:05:34.388118,4.45,3.18,4.45,4.45,1025,82,1.61,335,21,0.0,Clouds,few clouds,7
Eperjeske alsó,48.360556,22.19,2026-03-05 07:05:35.624223,4.93,1.34,4.93,4.93,1025,77,4.81,335,0,0.0,Clear,clear sky,7
Mándok,48.326944,22.196389,2026-03-05 07:05:36.860865,4.91,1.31,4.91,4.91,1025,76,4.82,335,0,0.0,Clear,clear sky,7
Tornyospálca,48.268333,22.201944,2026-03-05 07:05:38.095578,4.95,1.36,4.95,4.95,1025,75,4.83,336,0,0.0,Clear,clear sky,7
Aranyosapáti,48.211303,22.253534,2026-03-05 07:05:39.335070,4.96,1.47,4.96,4.96,1025,76,4.63,331,4,0.0,Clear,clear sky,7
Gyüre,48.171389,22.269167,2026-03-05 07:05:40.566161,4.95,1.45,4.95,4.95,1025,76,4.64,332,10,0.0,Clear,clear sky,7
Varsány,48.151722,22.290047,2026-03-05 07:05:41.804787,4.92,1.47,4.92,4.92,1025,76,4.53,331,12,0.0,Clouds,few clouds,7
Vásárosnamény,48.126667,22.306111,2026-03-05 07:05:43.043246,4.93,1.5,4.93,4.93,1025,76,4.5,333,16,0.0,Clouds,few clouds,7
Vitka,48.095556,22.308056,2026-03-05 07:05:44.277087,4.92,1.52,4.92,4.92,1025,76,4.44,334,21,0.0,Clouds,few clouds,7
Nagydobos,48.054167,22.311111,2026-03-05 07:05:45.513174,4.85,1.46,4.85,4.85,1025,77,4.38,336,26,0.0,Clouds,scattered clouds,7
Ópályi,47.997778,22.318333,2026-03-05 07:05:46.743589,4.81,1.56,4.81,4.81,1025,78,4.11,341,46,0.0,Clouds,scattered clouds,7
Nyírcsaholy,47.908056,22.348333,2026-03-05 07:05:47.981928,4.81,1.89,4.81,4.81,1025,80,3.56,346,65,0.0,Clouds,broken clouds,7
Nagyecsed,47.864722,22.385556,2026-03-05 07:05:49.221486,4.78,2.27,4.78,4.78,1025,82,2.96,347,70,0.0,Clouds,broken clouds,7
Tiborszállás,47.815278,22.402778,2026-03-05 07:05:50.457544,4.77,2.55,4.77,4.77,1025,82,2.59,350,80,0.0,Clouds,broken clouds,7
Kiskunhalas,46.434444,19.493611,2026-03-05 07:05:51.690832,6.03,3.93,6.03,6.03,1026,83,2.74,328,7,0.0,Clear,clear sky,7
Kecskemét alsó,46.895833,19.692222,2026-03-05 07:05:52.921827,5.64,4.24,5.64,5.64,1025,82,1.88,3,4,0.0,Clear,clear sky,7
Putnok,48.286667,20.4375,2026-03-05 07:05:54.151776,6.15,6.15,6.15,6.15,1025,84,0.51,72,77,0.0,Clouds,broken clouds,7
Bánréve,48.299722,20.351944,2026-03-05 07:05:55.386479,6.39,6.39,6.39,6.39,1025,83,0.44,69,72,0.0,Clouds,broken clouds,7
Ipolytarnóc,48.236667,19.629167,2026-03-05 07:05:56.619968,4.65,4.65,4.65,4.65,1026,79,1.03,22,6,0.0,Clear,clear sky,7
Rákosliget,47.486111,19.257778,2026-03-05 07:05:57.865547,4.86,3.6,4.86,4.86,1025,78,1.65,8,1,0.0,Clear,clear sky,7
Ikrény,47.657778,17.524167,2026-03-05 07:05:59.105099,3.81,2.47,3.81,3.81,1027,89,1.59,334,6,0.0,Clear,clear sky,7
Rábapatona,47.648889,17.461944,2026-03-05 07:06:00.346085,3.8,2.42,3.8,3.8,1027,89,1.62,336,6,0.0,Clear,clear sky,7
Enese,47.644167,17.425278,2026-03-05 07:06:01.585408,3.8,2.32,3.8,3.8,1027,89,1.7,336,6,0.0,Clear,clear sky,7
Kóny,47.632222,17.357222,2026-03-05 07:06:02.828637,3.75,2.15,3.75,3.75,1027,89,1.79,336,6,0.0,Clear,clear sky,7
Farád,47.595278,17.195833,2026-03-05 07:06:04.059104,3.69,1.27,3.69,3.69,1027,88,2.59,336,6,0.0,Clear,clear sky,7
Rábatamási,47.592778,17.161389,2026-03-05 07:06:05.294818,3.69,1.27,3.69,3.69,1027,88,2.59,336,6,0.0,Clear,clear sky,7
Szárföld,47.589167,17.123889,2026-03-05 07:06:06.529331,3.67,1.13,3.67,3.67,1027,88,2.73,336,6,0.0,Clear,clear sky,7
Veszkény,47.586944,17.101389,2026-03-05 07:06:07.776777,3.66,1.01,3.66,3.66,1027,88,2.86,336,6,0.0,Clear,clear sky,7
Kapuvár,47.581944,17.046944,2026-03-05 07:06:09.020163,3.63,0.81,3.63,3.63,1027,87,3.06,336,6,0.0,Clear,clear sky,7
Vitnyéd-Csermajor,47.5825,16.987222,2026-03-05 07:06:10.259186,3.6,0.71,3.6,3.6,1027,87,3.15,335,6,0.0,Clear,clear sky,7
Petőháza,47.595278,16.893056,2026-03-05 07:06:11.501982,3.58,0.66,3.58,3.58,1027,86,3.18,334,5,0.0,Clear,clear sky,7
Fertőszentmiklós,47.6,16.858889,2026-03-05 07:06:12.741536,3.55,0.67,3.55,3.55,1027,86,3.12,333,4,0.0,Clear,clear sky,7
Pinnye,47.600278,16.768611,2026-03-05 07:06:13.969619,3.43,0.86,3.43,3.43,1027,85,2.7,328,2,0.0,Clear,clear sky,7
Fertőboz,47.625,16.691667,2026-03-05 07:06:15.209421,3.37,0.93,3.37,3.37,1027,84,2.54,323,2,0.0,Clear,clear sky,7
Sopron,47.677778,16.587222,2026-03-05 07:06:16.440717,3.09,0.97,3.09,3.09,1027,84,2.16,311,0,0.0,Clear,clear sky,7
Fertőszéplak-Fertőd,47.618889,16.850833,2026-03-05 07:06:17.673344,3.59,0.7,3.59,3.59,1027,86,3.15,331,4,0.0,Clear,clear sky,7
Nyúl,47.587778,17.698056,2026-03-05 07:06:18.918813,3.76,2.56,3.76,3.76,1027,91,1.48,320,5,0.0,Clear,clear sky,7
Pannonhalma,47.547778,17.740833,2026-03-05 07:06:20.160732,3.61,2.29,3.61,3.61,1027,91,1.55,304,3,0.0,Clear,clear sky,7
Tarjánpuszta,47.504722,17.789167,2026-03-05 07:06:21.393195,3.6,2.2,3.6,3.6,1027,91,1.61,298,2,0.0,Clear,clear sky,7
Győrasszonyfa,47.4925,17.799167,2026-03-05 07:06:22.630700,3.6,2.2,3.6,3.6,1027,91,1.61,298,2,0.0,Clear,clear sky,7
Veszprémvarsány,47.443333,17.818333,2026-03-05 07:06:23.868691,3.58,1.99,3.58,3.58,1027,91,1.76,298,1,0.0,Clear,clear sky,7
Bakonyszentlászló,47.395556,17.8175,2026-03-05 07:06:25.106197,3.25,1.54,3.25,3.25,1027,90,1.82,303,1,0.0,Clear,clear sky,7
Porva-Csesznek,47.326944,17.841111,2026-03-05 07:06:26.340301,1.93,-0.1,1.93,1.93,1027,90,1.91,309,1,0.0,Clear,clear sky,7
Zirc,47.266667,17.878056,2026-03-05 07:06:27.576233,2.08,-0.29,2.08,2.08,1026,89,2.23,316,1,0.0,Clear,clear sky,7
Eplény,47.192778,17.921667,2026-03-05 07:06:28.822833,2.59,0.16,2.59,2.59,1026,88,2.38,317,1,0.0,Clear,clear sky,7
Marcaltő,47.4275,17.348889,2026-03-05 07:06:30.054141,3.6,1.87,3.6,3.6,1027,89,1.88,342,4,0.0,Clear,clear sky,7
Szany-Rábaszentandrás,47.460833,17.315278,2026-03-05 07:06:31.288835,3.64,1.87,3.64,3.64,1027,89,1.92,341,5,0.0,Clear,clear sky,7
Egyed-Rábacsanak,47.521944,17.316389,2026-03-05 07:06:32.527461,3.66,1.87,3.66,3.66,1027,89,1.94,339,6,0.0,Clear,clear sky,7
Rábapordány,47.557222,17.315,2026-03-05 07:06:33.767592,3.71,1.93,3.71,3.71,1027,89,1.94,338,6,0.0,Clear,clear sky,7
Albertfalva,47.440784,19.033965,2026-03-05 07:06:35.002915,5.76,4.65,5.76,5.76,1025,77,1.63,347,1,0.0,Clear,clear sky,7
Budafok,47.425833,19.041389,2026-03-05 07:06:36.230007,5.51,4.31,5.51,5.51,1025,77,1.68,346,2,0.0,Clear,clear sky,7
Tétényliget,47.384722,18.955278,2026-03-05 07:06:37.467843,5.64,4.14,5.64,5.64,1025,78,1.97,342,2,0.0,Clear,clear sky,7
Érd alsó,47.379722,18.923056,2026-03-05 07:06:38.693937,5.27,3.57,5.27,5.27,1025,79,2.11,340,2,0.0,Clear,clear sky,7
Tárnok,47.365556,18.873889,2026-03-05 07:06:39.947748,5.54,3.68,5.54,5.54,1025,80,2.34,338,1,0.0,Clear,clear sky,7
Martonvásár,47.321389,18.781667,2026-03-05 07:06:41.188428,5.39,3.55,5.39,5.39,1025,81,2.28,334,0,0.0,Clear,clear sky,7
Baracska,47.297222,18.753333,2026-03-05 07:06:42.422475,5.4,3.64,5.4,5.4,1025,81,2.2,332,0,0.0,Clear,clear sky,7
Pettend,47.26,18.708889,2026-03-05 07:06:43.658027,5.21,3.49,5.21,5.21,1025,81,2.12,329,0,0.0,Clear,clear sky,7
Kápolnásnyék,47.245556,18.692222,2026-03-05 07:06:44.894930,5.22,3.53,5.22,5.22,1025,82,2.09,326,0,0.0,Clear,clear sky,7
Velence,47.226944,18.663889,2026-03-05 07:06:46.129433,5.24,3.55,5.24,5.24,1026,82,2.1,325,0,0.0,Clear,clear sky,7
Velencefürdő,47.218611,18.648056,2026-03-05 07:06:47.362483,5.23,3.52,5.23,5.23,1026,82,2.12,324,0,0.0,Clear,clear sky,7
Gárdony,47.205833,18.624722,2026-03-05 07:06:48.601943,5.2,3.44,5.2,5.2,1026,82,2.16,323,0,0.0,Clear,clear sky,7
Agárd,47.197666,18.604907,2026-03-05 07:06:49.834835,5.2,3.44,5.2,5.2,1026,82,2.16,323,0,0.0,Clear,clear sky,7
Dinnyés,47.179722,18.560833,2026-03-05 07:06:51.068161,5.13,3.26,5.13,5.13,1026,83,2.27,321,0,0.0,Clear,clear sky,7
Székesfehérvár,47.183611,18.424722,2026-03-05 07:06:52.300065,4.84,2.7,4.84,4.84,1026,84,2.51,320,0,0.0,Clear,clear sky,7
Szabadbattyán,47.105278,18.388333,2026-03-05 07:06:53.529503,4.7,2.82,4.7,4.7,1026,83,2.2,314,0,0.0,Clear,clear sky,7
Kiscséripuszta,47.048056,18.355,2026-03-05 07:06:54.759752,4.39,2.71,4.39,4.39,1026,83,1.95,308,0,0.0,Clear,clear sky,7
Lepsény,46.9875,18.248056,2026-03-05 07:06:55.988973,4.41,3.07,4.41,4.41,1026,83,1.66,300,0,0.0,Clear,clear sky,7
Balatonaliga,46.984444,18.171389,2026-03-05 07:06:57.218562,4.01,2.72,4.01,4.01,1026,83,1.57,296,0,0.0,Clear,clear sky,7
Balatonvilágos,46.964167,18.157222,2026-03-05 07:06:58.462969,4.2,3.01,4.2,4.2,1026,83,1.52,294,0,0.0,Clear,clear sky,7
Szabadifürdő,46.926111,18.103333,2026-03-05 07:06:59.699664,3.96,2.76,3.96,3.96,1026,83,1.5,294,0,0.0,Clear,clear sky,7
Ózd alsó,48.227778,20.306111,2026-03-05 07:07:00.938165,6.54,6.54,6.54,6.54,1025,84,0.43,82,58,0.0,Clouds,broken clouds,7
Ózd,48.2225,20.294722,2026-03-05 07:07:02.170813,6.54,6.54,6.54,6.54,1025,84,0.43,82,58,0.0,Clouds,broken clouds,7
Alsóboldva,48.212778,20.792222,2026-03-05 07:07:03.405437,5.94,4.37,5.94,5.94,1025,82,2.1,10,93,0.0,Clouds,overcast clouds,7
Boldva,48.223333,20.790278,2026-03-05 07:07:04.640675,5.94,4.37,5.94,5.94,1025,82,2.1,10,93,0.0,Clouds,overcast clouds,7
Borsodszirák,48.259167,20.770556,2026-03-05 07:07:05.875998,5.85,4.38,5.85,5.85,1025,82,1.98,20,100,0.0,Clouds,overcast clouds,7
Edelény alsó,48.279167,20.760833,2026-03-05 07:07:07.111300,5.85,4.38,5.85,5.85,1025,82,1.98,20,100,0.0,Clouds,overcast clouds,7
Edelény,48.299722,20.749444,2026-03-05 07:07:08.347824,5.73,4.3,5.73,5.73,1025,82,1.92,25,100,0.0,Clouds,overcast clouds,7
Szendrőlád,48.334444,20.731944,2026-03-05 07:07:09.584644,4.56,3.41,4.56,4.56,1025,82,1.53,35,98,0.0,Clouds,overcast clouds,7
Szendrő,48.400725,20.721346,2026-03-05 07:07:10.819777,5.28,5.28,5.28,5.28,1025,81,1.27,43,87,0.0,Clouds,overcast clouds,7
Szendrő felső,48.409907,20.720148,2026-03-05 07:07:12.055346,5.28,5.28,5.28,5.28,1025,81,1.27,43,87,0.0,Clouds,overcast clouds,7
Szalonna,48.449444,20.722222,2026-03-05 07:07:13.293436,5.15,5.15,5.15,5.15,1025,81,1.02,51,72,0.0,Clouds,broken clouds,7
Perkupa,48.471389,20.691111,2026-03-05 07:07:14.526488,4.38,4.38,4.38,4.38,1026,81,0.66,46,66,0.0,Clouds,broken clouds,7
Szemeretelep,47.443056,19.214167,2026-03-05 07:07:15.762126,5.09,4.02,5.09,5.09,1025,77,1.52,6,1,0.0,Clear,clear sky,7
Jósvafő-Aggtelek,48.489722,20.693889,2026-03-05 07:07:16.995686,4.6,4.6,4.6,4.6,1026,81,0.62,42,59,0.0,Clouds,broken clouds,7
Bódvaszilas,48.5375,20.738056,2026-03-05 07:07:18.241680,4.08,4.08,4.08,4.08,1026,81,0.84,50,48,0.0,Clouds,scattered clouds,7
Komjáti,48.5475,20.759722,2026-03-05 07:07:19.481742,3.51,3.51,3.51,3.51,1026,81,0.99,47,38,0.0,Clouds,scattered clouds,7
Tornanádaska,48.558333,20.787222,2026-03-05 07:07:20.716727,4.65,4.65,4.65,4.65,1026,81,1.2,50,34,0.0,Clouds,scattered clouds,7
Onga,48.121111,20.906667,2026-03-05 07:07:21.948247,6.03,5.16,6.03,6.03,1025,81,1.47,347,59,0.0,Clouds,broken clouds,7
Szikszó-Vásártér,48.193056,20.934722,2026-03-05 07:07:23.186613,5.87,4.37,5.87,5.87,1025,81,2.01,5,90,0.0,Clouds,overcast clouds,7
Szikszó,48.201667,20.941667,2026-03-05 07:07:24.422524,5.87,4.46,5.87,5.87,1025,81,1.92,6,90,0.0,Clouds,overcast clouds,7
Aszaló,48.219867,20.961466,2026-03-05 07:07:25.652328,5.66,4.04,5.66,5.66,1025,81,2.1,11,96,0.0,Clouds,overcast clouds,7
Halmaj,48.246667,20.991667,2026-03-05 07:07:26.887840,5.69,3.99,5.69,5.69,1025,81,2.19,17,100,0.0,Clouds,overcast clouds,7
Csobád,48.277222,21.033889,2026-03-05 07:07:28.121685,5.59,3.81,5.59,5.59,1025,81,2.26,24,100,0.0,Clouds,overcast clouds,7
Ináncs,48.291111,21.057778,2026-03-05 07:07:29.366448,5.43,3.7,5.43,5.43,1025,81,2.17,29,96,0.0,Clouds,overcast clouds,7
Forró-Encs,48.3275,21.117778,2026-03-05 07:07:30.604860,5.27,3.49,5.27,5.27,1025,81,2.2,34,90,0.0,Clouds,overcast clouds,7
Méra,48.363056,21.140278,2026-03-05 07:07:31.838961,4.87,2.81,4.87,4.87,1025,80,2.43,40,72,0.0,Clouds,broken clouds,7
Novajidrány,48.404444,21.170556,2026-03-05 07:07:33.079285,4.97,2.91,4.97,4.97,1026,80,2.45,41,60,0.0,Clouds,broken clouds,7
Hernádszurdok,48.487222,21.213889,2026-03-05 07:07:34.310839,4.67,2.39,4.67,4.67,1026,79,2.64,40,29,0.0,Clouds,scattered clouds,7
Hidasnémeti,48.508333,21.229722,2026-03-05 07:07:35.548960,4.46,2.03,4.46,4.46,1026,79,2.78,38,20,0.0,Clouds,few clouds,7
Mád,48.19,21.268889,2026-03-05 07:07:36.785877,5.2,4.05,5.2,5.2,1025,79,1.6,34,80,0.0,Clouds,broken clouds,7
Rátka,48.215,21.230278,2026-03-05 07:07:38.018003,5.54,4.69,5.54,5.54,1025,80,1.4,29,89,0.0,Clouds,overcast clouds,7
Tállya,48.226944,21.225278,2026-03-05 07:07:39.256043,5.54,4.69,5.54,5.54,1025,80,1.4,29,89,0.0,Clouds,overcast clouds,7
Golop,48.242778,21.204167,2026-03-05 07:07:40.493888,5.55,4.65,5.55,5.55,1025,81,1.44,24,97,0.0,Clouds,overcast clouds,7
Abaújszántó,48.286944,21.181667,2026-03-05 07:07:41.731821,5.13,3.86,5.13,5.13,1025,81,1.69,30,94,0.0,Clouds,overcast clouds,7
Abaújszántói fürdő,48.268333,21.179722,2026-03-05 07:07:42.975903,5.46,4.41,5.46,5.46,1025,81,1.55,27,97,0.0,Clouds,overcast clouds,7
Abaújkér,48.309444,21.198333,2026-03-05 07:07:44.209907,5.05,3.59,5.05,5.05,1025,81,1.85,34,89,0.0,Clouds,overcast clouds,7
Boldogkőváralja,48.345,21.208889,2026-03-05 07:07:45.449659,4.93,3.58,4.93,4.93,1025,80,1.73,36,79,0.0,Clouds,broken clouds,7
Korlát-Vizsoly,48.365,21.219167,2026-03-05 07:07:46.685878,4.96,3.43,4.96,4.96,1025,80,1.9,38,70,0.0,Clouds,broken clouds,7
Fony,48.411389,21.242778,2026-03-05 07:07:47.922494,4.87,2.94,4.87,4.87,1026,80,2.28,40,49,0.0,Clouds,scattered clouds,7
Hejce-Vilmány,48.419444,21.245556,2026-03-05 07:07:49.164751,4.87,2.94,4.87,4.87,1026,80,2.28,40,49,0.0,Clouds,scattered clouds,7
Göncruszka,48.445,21.246944,2026-03-05 07:07:50.403167,4.77,2.66,4.77,4.77,1026,80,2.46,40,39,0.0,Clouds,scattered clouds,7
Gönc,48.470556,21.261389,2026-03-05 07:07:51.634806,4.65,2.52,4.65,4.65,1026,79,2.46,38,29,0.0,Clouds,scattered clouds,7
Zsujta,48.4925,21.265,2026-03-05 07:07:52.878376,4.58,2.31,4.58,4.58,1026,79,2.61,36,21,0.0,Clouds,few clouds,7
Bodrogkeresztúr,48.175556,21.354167,2026-03-05 07:07:54.112969,4.8,2.88,4.8,4.8,1025,78,2.26,39,64,0.0,Clouds,broken clouds,7
Szegi,48.201944,21.387778,2026-03-05 07:07:55.350036,5.22,3.03,5.22,5.22,1025,77,2.66,35,63,0.0,Clouds,broken clouds,7
Erdőbénye,48.218056,21.401944,2026-03-05 07:07:56.583993,5.5,3.29,5.5,5.5,1025,77,2.75,32,62,0.0,Clouds,broken clouds,7
Olaszliszka-Tolcsva,48.258333,21.448056,2026-03-05 07:07:57.822985,5.33,3.18,5.33,5.33,1025,77,2.63,27,58,0.0,Clouds,broken clouds,7
Bodrogolaszi,48.286944,21.512778,2026-03-05 07:07:59.062805,3.92,1.41,3.92,3.92,1025,78,2.75,24,50,0.0,Clouds,scattered clouds,7
Sárospatak,48.325833,21.566111,2026-03-05 07:08:00.295879,5.09,2.26,5.09,5.09,1025,78,3.52,16,28,0.0,Clouds,scattered clouds,7
Sátoraljaújhely,48.385833,21.657778,2026-03-05 07:08:01.560179,4.28,1.11,4.28,4.28,1025,83,3.77,6,8,0.0,Clear,clear sky,7
Vecsés,47.40855,19.25652,2026-03-05 07:08:02.799480,5.11,3.87,5.11,5.11,1025,78,1.66,10,2,0.0,Clear,clear sky,7
Vecsés-Kertekalja,47.403333,19.271389,2026-03-05 07:08:04.037480,5.11,3.87,5.11,5.11,1025,78,1.66,10,2,0.0,Clear,clear sky,7
Üllő,47.390833,19.348889,2026-03-05 07:08:05.276361,5.29,3.87,5.29,5.29,1025,78,1.84,13,4,0.0,Clear,clear sky,7
Monor,47.34545,19.43701,2026-03-05 07:08:06.514866,5.34,3.53,5.34,5.34,1025,80,2.24,18,7,0.0,Clear,clear sky,7
Pilis,47.279722,19.536389,2026-03-05 07:08:07.750851,5.33,3.39,5.33,5.33,1025,81,2.38,18,7,0.0,Clear,clear sky,7
Albertirsa,47.240278,19.606389,2026-03-05 07:08:08.985606,5.46,3.53,5.46,5.46,1025,82,2.4,18,5,0.0,Clear,clear sky,7
Ceglédbercel-Cserő,47.210278,19.686944,2026-03-05 07:08:10.220878,5.58,3.75,5.58,5.58,1025,82,2.31,18,5,0.0,Clear,clear sky,7
Cegléd,47.182778,19.806111,2026-03-05 07:08:11.469143,5.74,4.15,5.74,5.74,1025,82,2.08,19,5,0.0,Clear,clear sky,7
Abony,47.173056,20.016389,2026-03-05 07:08:12.699953,5.98,4.91,5.98,5.98,1025,82,1.63,36,7,0.0,Clear,clear sky,7
Szolnok,47.179167,20.175833,2026-03-05 07:08:13.940732,5.97,4.95,5.97,5.97,1025,82,1.58,60,6,0.0,Clear,clear sky,7
Szajol,47.170556,20.295278,2026-03-05 07:08:15.169463,5.97,4.75,5.97,5.97,1025,82,1.76,73,5,0.0,Clear,clear sky,7
Törökszentmiklós,47.170278,20.413611,2026-03-05 07:08:16.411624,6.1,4.71,6.1,6.1,1025,82,1.94,79,6,0.0,Clear,clear sky,7
Rákoscsaba-Újtelep,47.4875,19.271944,2026-03-05 07:08:17.645273,4.86,3.6,4.86,4.86,1025,78,1.65,8,1,0.0,Clear,clear sky,7
Rákoscsaba,47.492222,19.284722,2026-03-05 07:08:18.887618,4.95,3.62,4.95,4.95,1025,78,1.72,9,1,0.0,Clear,clear sky,7
Pécel,47.493889,19.338889,2026-03-05 07:08:20.124187,4.86,3.42,4.86,4.86,1025,78,1.8,11,2,0.0,Clear,clear sky,7
Isaszeg,47.537719,19.388955,2026-03-05 07:08:21.368106,4.74,3.2,4.74,4.74,1025,79,1.87,10,2,0.0,Clear,clear sky,7
Gödöllő,47.592222,19.358611,2026-03-05 07:08:22.609022,4.61,3.05,4.61,4.61,1025,79,1.87,7,1,0.0,Clear,clear sky,7
Máriabesnyő,47.595556,19.389722,2026-03-05 07:08:23.841253,4.61,3.05,4.61,4.61,1025,79,1.87,7,1,0.0,Clear,clear sky,7
Bag,47.641111,19.471667,2026-03-05 07:08:25.072251,5.26,3.85,5.26,5.26,1025,80,1.83,9,2,0.0,Clear,clear sky,7
Aszód,47.647467,19.492882,2026-03-05 07:08:26.302456,5.16,3.8,5.16,5.16,1025,80,1.77,11,3,0.0,Clear,clear sky,7
Hévízgyörk,47.638611,19.526667,2026-03-05 07:08:27.540644,5.17,3.93,5.17,5.17,1025,80,1.67,14,3,0.0,Clear,clear sky,7
Galgahévíz,47.6325,19.558333,2026-03-05 07:08:28.775449,5.4,4.35,5.4,5.4,1025,81,1.54,23,5,0.0,Clear,clear sky,7
Tura,47.626389,19.5975,2026-03-05 07:08:30.005944,5.36,4.44,5.36,5.36,1025,81,1.44,29,5,0.0,Clear,clear sky,7
Hatvan,47.663611,19.671389,2026-03-05 07:08:31.239460,5.49,5.49,5.49,5.49,1026,80,1.0,54,5,0.0,Clear,clear sky,7
Vámosgyörk,47.686111,19.927778,2026-03-05 07:08:32.472231,5.68,4.39,5.68,5.68,1025,80,1.78,73,6,0.0,Clear,clear sky,7
Adács,47.696389,19.975278,2026-03-05 07:08:33.707871,5.78,4.43,5.78,5.78,1025,80,1.85,69,6,0.0,Clear,clear sky,7
Karácsond,47.718056,20.048611,2026-03-05 07:08:34.940022,5.71,4.43,5.71,5.71,1025,80,1.78,67,6,0.0,Clear,clear sky,7
Ludas,47.723889,20.095556,2026-03-05 07:08:36.168618,5.96,4.61,5.96,5.96,1025,81,1.88,68,7,0.0,Clear,clear sky,7
Nagyút,47.72666666666667,20.161388888888887,2026-03-05 07:08:37.399036,5.95,4.59,5.95,5.95,1025,81,1.89,70,7,0.0,Clear,clear sky,7
Kál-Kápolna,47.734167,20.254167,2026-03-05 07:08:38.637167,6.05,4.65,6.05,6.05,1025,82,1.94,77,7,0.0,Clear,clear sky,7
Füzesabony,47.751389,20.415278,2026-03-05 07:08:39.874533,6.19,4.71,6.19,6.19,1025,83,2.05,78,7,0.0,Clear,clear sky,7
Szihalom,47.766944,20.491944,2026-03-05 07:08:41.111862,6.19,4.79,6.19,6.19,1025,84,1.96,76,5,0.0,Clear,clear sky,7
Mezőkövesd,47.797222,20.5675,2026-03-05 07:08:42.346934,6.28,5.12,6.28,6.28,1025,84,1.75,72,3,0.0,Clear,clear sky,7
Mezőkövesd felső,47.807222,20.591389,2026-03-05 07:08:43.578663,6.28,5.12,6.28,6.28,1025,84,1.75,72,3,0.0,Clear,clear sky,7
Mezőkeresztes-Mezőnyárád,47.845556,20.670278,2026-03-05 07:08:44.823939,6.28,6.28,6.28,6.28,1025,84,1.28,53,0,0.0,Clear,clear sky,7
Csincse,47.890833,20.764167,2026-03-05 07:08:46.058000,6.29,6.29,6.29,6.29,1025,83,1.05,36,0,0.0,Clear,clear sky,7
Emőd,47.930556,20.822778,2026-03-05 07:08:47.296868,6.04,6.04,6.04,6.04,1025,83,0.92,2,0,0.0,Clear,clear sky,7
Nyékládháza,47.9925,20.840556,2026-03-05 07:08:48.546911,6.22,6.22,6.22,6.22,1025,83,1.06,340,6,0.0,Clear,clear sky,7
Miskolc-Tiszai,48.098611,20.811389,2026-03-05 07:08:49.780338,6.03,4.94,6.03,6.03,1025,82,1.65,345,40,0.0,Clouds,scattered clouds,7
Felsőzsolca,48.083611,20.866111,2026-03-05 07:08:51.020703,6.05,5.11,6.05,6.05,1025,82,1.53,342,44,0.0,Clouds,scattered clouds,7
Hernádnémeti-Bőcs,48.051389,20.985,2026-03-05 07:08:52.252268,5.98,5.98,5.98,5.98,1025,81,0.85,344,38,0.0,Clouds,scattered clouds,7
Tiszalúc,48.039722,21.0575,2026-03-05 07:08:53.489690,5.94,5.94,5.94,5.94,1025,80,0.82,33,27,0.0,Clouds,scattered clouds,7
Taktaharkány,48.091667,21.128611,2026-03-05 07:08:54.726623,5.92,5.92,5.92,5.92,1025,80,0.99,28,48,0.0,Clouds,scattered clouds,7
Taktaszada,48.1125,21.149444,2026-03-05 07:08:55.958212,5.84,5.84,5.84,5.84,1025,80,1.16,29,59,0.0,Clouds,broken clouds,7
Szerencs,48.155556,21.214444,2026-03-05 07:08:57.186930,5.76,4.75,5.76,5.76,1025,79,1.55,35,74,0.0,Clouds,broken clouds,7
Mezőzombor,48.156944,21.267778,2026-03-05 07:08:58.427514,5.64,4.39,5.64,5.64,1025,79,1.74,37,72,0.0,Clouds,broken clouds,7
Tarcal,48.125,21.34,2026-03-05 07:08:59.674318,5.74,3.54,5.74,5.74,1025,77,2.8,43,46,0.0,Clouds,scattered clouds,7
Tokaj,48.112778,21.406667,2026-03-05 07:09:00.909074,5.12,2.11,5.12,5.12,1025,75,3.83,38,38,0.0,Clouds,scattered clouds,7
Rakamaz,48.12,21.475,2026-03-05 07:09:02.147563,5.6,2.51,5.6,5.6,1025,74,4.16,36,36,0.0,Clouds,scattered clouds,7
Görögszállás,48.04,21.555,2026-03-05 07:09:03.386982,5.56,1.91,5.56,5.56,1025,72,5.29,35,28,0.0,Clouds,scattered clouds,7
Nyírtelek,48.005,21.615556,2026-03-05 07:09:04.622850,5.47,1.58,5.47,5.47,1025,71,5.78,30,40,0.0,Clouds,scattered clouds,7
Rákoshegy,47.468611,19.245556,2026-03-05 07:09:05.856624,4.92,3.67,4.92,4.92,1025,78,1.65,9,1,0.0,Clear,clear sky,7
Ecser,47.439444,19.318056,2026-03-05 07:09:07.092516,5.04,3.71,5.04,5.04,1025,78,1.73,11,2,0.0,Clear,clear sky,7
Maglód,47.438889,19.340833,2026-03-05 07:09:08.332209,4.92,3.48,4.92,4.92,1025,78,1.81,12,3,0.0,Clear,clear sky,7
Maglódi nyaraló,47.434167,19.363611,2026-03-05 07:09:09.569054,4.75,3.19,4.75,4.75,1025,79,1.89,14,4,0.0,Clear,clear sky,7
Gyömrő,47.429722,19.393333,2026-03-05 07:09:10.803911,4.75,3.19,4.75,4.75,1025,79,1.89,14,4,0.0,Clear,clear sky,7
Mende,47.426944,19.439722,2026-03-05 07:09:12.041505,4.82,3.01,4.82,4.82,1025,80,2.15,18,6,0.0,Clear,clear sky,7
Szőlősnyaraló,47.450278,19.561111,2026-03-05 07:09:13.277303,5.27,3.4,5.27,5.27,1025,82,2.29,21,7,0.0,Clear,clear sky,7
Sülysáp,47.451944,19.5275,2026-03-05 07:09:14.515949,5.14,3.31,5.14,5.14,1025,81,2.23,19,7,0.0,Clear,clear sky,7
Tápiószecső,47.443056,19.614722,2026-03-05 07:09:15.754705,5.35,3.5,5.35,5.35,1025,82,2.29,23,7,0.0,Clear,clear sky,7
Szentmártonkáta,47.431944,19.680556,2026-03-05 07:09:16.999882,5.37,3.54,5.37,5.37,1025,82,2.27,28,7,0.0,Clear,clear sky,7
Nagykáta,47.409722,19.737778,2026-03-05 07:09:18.234434,5.42,3.55,5.42,5.42,1025,83,2.32,28,6,0.0,Clear,clear sky,7
Farmos,47.355278,19.8375,2026-03-05 07:09:19.470635,5.47,3.69,5.47,5.47,1025,83,2.23,33,6,0.0,Clear,clear sky,7
Tápiószele,47.346313,19.873504,2026-03-05 07:09:20.712058,5.44,3.73,5.44,5.44,1025,83,2.15,33,6,0.0,Clear,clear sky,7
Tápiógyörgye,47.325,19.95,2026-03-05 07:09:21.948231,5.65,4.1,5.65,5.65,1025,83,2.03,45,6,0.0,Clear,clear sky,7
Újszász,47.285833,20.066944,2026-03-05 07:09:23.182927,5.9,4.6,5.9,5.9,1025,82,1.82,59,7,0.0,Clear,clear sky,7
Szurdokpüspöki,47.851944,19.690278,2026-03-05 07:09:24.420640,5.32,5.32,5.32,5.32,1026,80,0.76,72,4,0.0,Clear,clear sky,7
Lőrinci,47.739444,19.673611,2026-03-05 07:09:25.657017,5.42,5.42,5.42,5.42,1026,80,0.81,65,5,0.0,Clear,clear sky,7
Selyp,47.759167,19.670833,2026-03-05 07:09:26.891865,5.4,5.4,5.4,5.4,1026,80,0.76,69,5,0.0,Clear,clear sky,7
Apc-Zagyvaszántó,47.791328,19.66822,2026-03-05 07:09:28.127691,5.41,5.41,5.41,5.41,1026,80,0.72,73,5,0.0,Clear,clear sky,7
Pásztó,47.918889,19.688889,2026-03-05 07:09:29.363658,5.15,5.15,5.15,5.15,1026,81,0.83,66,5,0.0,Clear,clear sky,7
Mátraszőlős-Hasznos,47.938506,19.706122,2026-03-05 07:09:30.606039,5.19,5.19,5.19,5.19,1026,81,0.91,69,5,0.0,Clear,clear sky,7
Tar,47.956111,19.746389,2026-03-05 07:09:31.852016,4.8,4.8,4.8,4.8,1026,81,0.98,73,6,0.0,Clear,clear sky,7
Mátraverebély,47.968333,19.778611,2026-03-05 07:09:33.088467,4.8,4.8,4.8,4.8,1026,81,0.98,73,6,0.0,Clear,clear sky,7
Nagybátony,47.981111,19.82,2026-03-05 07:09:34.326063,5.0,5.0,5.0,5.0,1025,82,1.01,71,6,0.0,Clear,clear sky,7
Kisterenye,48.009444,19.831944,2026-03-05 07:09:35.570810,5.11,5.11,5.11,5.11,1025,82,0.97,70,6,0.0,Clear,clear sky,7
Kisterenye-Bányatelep,48.021389,19.831944,2026-03-05 07:09:36.799752,5.11,5.11,5.11,5.11,1025,82,0.97,70,6,0.0,Clear,clear sky,7
Salgótarján külső,48.089444,19.790833,2026-03-05 07:09:38.032772,4.48,4.48,4.48,4.48,1026,82,0.98,55,6,0.0,Clear,clear sky,7
Balatonfenyves GV,46.7125,17.479167,2026-03-05 07:09:39.264894,4.09,1.96,4.09,4.09,1027,88,2.35,319,0,0.0,Clear,clear sky,7
Várhegyalja,47.737778,18.366667,2026-03-05 07:09:40.509958,4.45,3.44,4.45,4.45,1026,85,1.41,285,0,0.0,Clear,clear sky,7
Imremajor,46.680556,17.499722,2026-03-05 07:09:41.757784,4.13,2.01,4.13,4.13,1027,88,2.35,319,0,0.0,Clear,clear sky,7
Rákospalota-Kertváros,47.578333,19.122778,2026-03-05 07:09:43.001979,5.21,5.21,5.21,5.21,1025,78,1.3,353,0,0.0,Clear,clear sky,7
Vicziántelep,47.675833,19.286111,2026-03-05 07:09:44.240025,4.73,3.32,4.73,4.73,1025,79,1.76,2,0,0.0,Clear,clear sky,7
Pálmajor,46.662831,17.457526,2026-03-05 07:09:45.476858,4.1,1.89,4.1,4.1,1027,88,2.44,321,0,0.0,Clear,clear sky,7
Somogyszentpál felső,46.649758,17.471404,2026-03-05 07:09:46.713509,4.13,2.01,4.13,4.13,1027,88,2.35,319,0,0.0,Clear,clear sky,7
Somogyszentpál,46.638611,17.478611,2026-03-05 07:09:47.949352,4.07,1.93,4.07,4.07,1027,88,2.36,320,0,0.0,Clear,clear sky,7
Rudnaykert,47.7175,19.257778,2026-03-05 07:09:49.182672,4.77,3.47,4.77,4.77,1025,80,1.67,358,0,0.0,Clear,clear sky,7
Maroshegy,47.158333,18.406667,2026-03-05 07:09:50.421917,4.81,2.75,4.81,4.81,1026,84,2.42,319,0,0.0,Clear,clear sky,7
Bánhida,47.573703,18.371737,2026-03-05 07:09:51.667796,4.32,2.58,4.32,4.32,1026,86,2.0,295,0,0.0,Clear,clear sky,7
Magyarkút,47.850278,19.045,2026-03-05 07:09:52.899166,4.24,4.24,4.24,4.24,1026,81,1.16,323,0,0.0,Clear,clear sky,7
Becske alsó,47.897222,19.364722,2026-03-05 07:09:54.131900,4.04,2.98,4.04,4.04,1026,81,1.41,353,0,0.0,Clear,clear sky,7
Hosszúberek-Péteri,47.370556,19.389722,2026-03-05 07:09:55.369327,5.33,3.79,5.33,5.33,1025,79,1.96,15,5,0.0,Clear,clear sky,7
Monorierdő,47.308889,19.499167,2026-03-05 07:09:56.599664,5.32,3.44,5.32,5.32,1025,81,2.32,18,7,0.0,Clear,clear sky,7
Ceglédbercel,47.215833,19.658611,2026-03-05 07:09:57.835678,5.52,3.64,5.52,5.52,1025,82,2.35,18,5,0.0,Clear,clear sky,7
Budai út,47.208333,19.731389,2026-03-05 07:09:59.068902,5.5,3.68,5.5,5.5,1025,82,2.28,18,5,0.0,Clear,clear sky,7
Büdöskútpuszta,48.373056,20.726111,2026-03-05 07:10:00.308368,5.52,4.67,5.52,5.52,1025,81,1.4,39,94,0.0,Clouds,overcast clouds,7
Bánrévei Vízmű,48.282778,20.368333,2026-03-05 07:10:01.554182,6.28,6.28,6.28,6.28,1025,84,0.45,72,74,0.0,Clouds,broken clouds,7
Rákoskert,47.456389,19.296111,2026-03-05 07:10:02.784529,4.87,3.51,4.87,4.87,1025,78,1.73,10,2,0.0,Clear,clear sky,7
Szirmabesenyő,48.146944,20.783056,2026-03-05 07:10:04.015228,5.49,4.12,5.49,5.49,1025,82,1.83,356,63,0.0,Clouds,broken clouds,7
Kitérőgyár,47.766944,19.935278,2026-03-05 07:10:05.260075,5.44,5.44,5.44,5.44,1025,80,1.31,78,6,0.0,Clear,clear sky,7
Tápiószentmárton,47.373333,19.797778,2026-03-05 07:10:06.498743,5.37,3.55,5.37,5.37,1025,83,2.26,30,6,0.0,Clear,clear sky,7
Zagyvarékas,47.244229,20.097435,2026-03-05 07:10:07.748002,5.97,4.86,5.97,5.97,1025,82,1.66,58,7,0.0,Clear,clear sky,7
Abonyi út,47.206401,20.125204,2026-03-05 07:10:08.987269,6.0,4.98,6.0,6.0,1025,82,1.59,54,6,0.0,Clear,clear sky,7
Jászkisér felső,47.438056,20.202222,2026-03-05 07:10:10.242103,5.95,3.95,5.95,5.95,1025,82,2.6,82,7,0.0,Clear,clear sky,7
Szellőhát,47.425556,20.188889,2026-03-05 07:10:11.487429,5.95,4.0,5.95,5.95,1025,82,2.53,82,7,0.0,Clear,clear sky,7
Szilvásvárad-Szalajkavölgy,48.0956,20.38272,2026-03-05 07:10:12.729174,4.91,4.91,4.91,4.91,1025,86,0.38,101,26,0.0,Clouds,scattered clouds,7
Vásárosnamény külső,48.084444,22.255556,2026-03-05 07:10:13.960339,4.85,1.37,4.85,4.85,1025,76,4.55,336,25,0.0,Clouds,scattered clouds,7
Újváros,46.660556,20.536111,2026-03-05 07:10:15.190688,6.61,5.6,6.61,6.61,1025,81,1.66,7,25,0.0,Clouds,scattered clouds,7
Városi park,46.697778,19.864722,2026-03-05 07:10:16.425960,6.37,4.83,6.37,6.37,1026,83,2.14,348,0,0.0,Clear,clear sky,7
Belsőkamaráspuszta,46.341944,20.848889,2026-03-05 07:10:17.663244,6.2,5.24,6.2,6.2,1025,84,1.56,33,90,0.0,Clouds,overcast clouds,7
Sajószöged,47.945278,20.981667,2026-03-05 07:10:18.907156,6.17,6.17,6.17,6.17,1025,82,0.78,47,5,0.0,Clear,clear sky,7
Kazincbarcika alsó,48.255278,20.649167,2026-03-05 07:10:20.143184,5.85,5.85,5.85,5.85,1025,84,1.3,25,88,0.0,Clouds,overcast clouds,7
Nyárjas,46.857778,19.923611,2026-03-05 07:10:21.386632,6.13,4.98,6.13,6.13,1025,82,1.72,9,7,0.0,Clear,clear sky,7
Pogonyipuszta,48.296389,20.381667,2026-03-05 07:10:22.624849,6.28,6.28,6.28,6.28,1025,84,0.45,72,74,0.0,Clouds,broken clouds,7
Sióvölgy,46.911103,18.076964,2026-03-05 07:10:23.868833,3.86,2.63,3.86,3.86,1026,83,1.51,293,0,0.0,Clear,clear sky,7
Répáspuszta,46.430278,17.847222,2026-03-05 07:10:25.110572,4.16,2.28,4.16,4.16,1026,86,2.11,324,0,0.0,Clear,clear sky,7
Virányos,48.066667,21.527222,2026-03-05 07:10:26.353155,5.55,1.96,5.55,5.55,1025,72,5.14,35,28,0.0,Clouds,scattered clouds,7
Füzesbokor,47.988611,21.6475,2026-03-05 07:10:27.589114,5.45,1.53,5.45,5.45,1025,71,5.84,28,50,0.0,Clouds,scattered clouds,7
Kunfehértó,46.355833,19.417222,2026-03-05 07:10:28.835369,5.95,3.78,5.95,5.95,1026,83,2.81,329,8,0.0,Clear,clear sky,7
Erdőszél,46.329444,19.395,2026-03-05 07:10:30.080507,5.81,3.59,5.81,5.81,1026,83,2.85,330,8,0.0,Clear,clear sky,7
Jánoshalma,46.293056,19.330278,2026-03-05 07:10:31.316172,5.9,3.67,5.9,5.9,1026,83,2.89,332,8,0.0,Clear,clear sky,7
Mélykút,46.213056,19.370556,2026-03-05 07:10:32.562288,5.93,3.8,5.93,5.93,1026,83,2.76,332,7,0.0,Clear,clear sky,7
Bácsalmás,46.118056,19.346389,2026-03-05 07:10:33.795779,5.91,3.91,5.91,5.91,1026,84,2.59,333,5,0.0,Clear,clear sky,7
Almás,46.116216,19.328803,2026-03-05 07:10:35.037996,5.91,3.91,5.91,5.91,1026,84,2.59,333,5,0.0,Clear,clear sky,7
Bácsbokod-Bácsborsód,46.115833,19.16,2026-03-05 07:10:36.269163,5.72,3.49,5.72,5.72,1026,84,2.84,339,5,0.0,Clear,clear sky,7
Baja,46.187014,18.957602,2026-03-05 07:10:37.502990,5.74,3.51,5.74,5.74,1026,84,2.84,338,1,0.0,Clear,clear sky,7
Harkakötöny,46.458333,19.601944,2026-03-05 07:10:38.744970,6.15,4.11,6.15,6.15,1026,83,2.7,328,8,0.0,Clear,clear sky,7
Tajó,46.473056,19.650556,2026-03-05 07:10:39.979001,6.19,4.16,6.19,6.19,1026,83,2.69,329,9,0.0,Clear,clear sky,7
Kiskunmajsa,46.501667,19.728056,2026-03-05 07:10:41.216288,6.27,4.28,6.27,6.27,1026,83,2.66,330,9,0.0,Clear,clear sky,7
Jászszentlászló,46.565833,19.753611,2026-03-05 07:10:42.453862,6.32,4.42,6.32,6.32,1026,83,2.55,335,4,0.0,Clear,clear sky,7
Galambos,46.625,19.801111,2026-03-05 07:10:43.699565,6.33,4.54,6.33,6.33,1026,83,2.42,339,1,0.0,Clear,clear sky,7
Pestszentimre,47.402222,19.188611,2026-03-05 07:10:44.930584,5.42,4.39,5.42,5.42,1025,77,1.53,2,3,0.0,Clear,clear sky,7
Gyál felső,47.390278,19.204722,2026-03-05 07:10:46.168459,5.31,4.21,5.31,5.31,1025,77,1.57,5,3,0.0,Clear,clear sky,7
Gyál,47.376667,19.219444,2026-03-05 07:10:47.403912,5.31,4.21,5.31,5.31,1025,77,1.57,5,3,0.0,Clear,clear sky,7
Ócsa,47.301389,19.232222,2026-03-05 07:10:48.636956,5.52,4.32,5.52,5.52,1025,78,1.68,1,5,0.0,Clear,clear sky,7
Inárcs-Kakucs,47.247222,19.317778,2026-03-05 07:10:49.878615,5.59,4.19,5.59,5.59,1025,79,1.87,8,6,0.0,Clear,clear sky,7
Dabas,47.194722,19.328889,2026-03-05 07:10:51.116336,5.58,4.06,5.58,5.58,1025,80,1.98,8,6,0.0,Clear,clear sky,7
Gyón,47.178333,19.355556,2026-03-05 07:10:52.351338,5.62,4.09,5.62,5.62,1025,80,2.0,6,6,0.0,Clear,clear sky,7
Hernád,47.161389,19.4025,2026-03-05 07:10:53.580853,5.56,3.86,5.56,5.56,1025,80,2.16,11,4,0.0,Clear,clear sky,7
Bakonygyirót,47.416389,17.811944,2026-03-05 07:10:54.816368,3.58,2.15,3.58,3.58,1027,91,1.63,301,1,0.0,Clear,clear sky,7
Vinye,47.360317,17.819635,2026-03-05 07:10:56.056421,3.18,1.41,3.18,3.18,1027,90,1.86,306,1,0.0,Clear,clear sky,7
Nemesgörzsöny,47.402924,17.376385,2026-03-05 07:10:57.303048,3.58,1.99,3.58,3.58,1027,89,1.76,343,4,0.0,Clear,clear sky,7
Rábahíd,47.438618,17.337525,2026-03-05 07:10:58.538511,3.63,1.88,3.63,3.63,1027,89,1.9,342,5,0.0,Clear,clear sky,7
Öskü,47.162222,18.076389,2026-03-05 07:10:59.775669,3.91,1.49,3.91,3.91,1026,86,2.64,317,0,0.0,Clear,clear sky,7
Márkó,47.1275,17.813889,2026-03-05 07:11:01.006998,2.79,0.76,2.79,2.79,1026,88,2.03,317,1,0.0,Clear,clear sky,7
Nemeskocs,47.203333,17.188889,2026-03-05 07:11:02.242475,3.63,1.52,3.63,3.63,1027,89,2.24,340,1,0.0,Clear,clear sky,7
Zalagyömörő,47.011111,17.220833,2026-03-05 07:11:03.484129,3.66,1.49,3.66,3.66,1027,89,2.31,337,0,0.0,Clear,clear sky,7
Rigács,47.061667,17.199167,2026-03-05 07:11:04.723534,3.61,1.45,3.61,3.61,1027,89,2.29,338,0,0.0,Clear,clear sky,7
Kemenespálfa,47.139722,17.183056,2026-03-05 07:11:05.963035,3.64,1.54,3.64,3.64,1027,89,2.23,340,0,0.0,Clear,clear sky,7
Lentiszombathely,46.611389,16.5725,2026-03-05 07:11:07.195554,3.8,3.8,3.8,3.8,1027,81,1.19,314,0,0.0,Clear,clear sky,7
Ortaháza,46.626667,16.685833,2026-03-05 07:11:08.432877,3.58,3.58,3.58,3.58,1027,83,1.08,319,0,0.0,Clear,clear sky,7
Rádiháza,46.654722,16.765833,2026-03-05 07:11:09.677345,3.5,3.5,3.5,3.5,1027,85,1.09,320,0,0.0,Clear,clear sky,7
Baktüttös,46.690833,16.826389,2026-03-05 07:11:10.915866,3.56,3.56,3.56,3.56,1027,86,1.23,319,0,0.0,Clear,clear sky,7
Budafa,46.851667,16.624722,2026-03-05 07:11:12.148824,3.47,3.47,3.47,3.47,1027,84,1.2,319,0,0.0,Clear,clear sky,7
Zalapatakalja,46.845556,16.603889,2026-03-05 07:11:13.387183,3.46,3.46,3.46,3.46,1027,84,1.17,316,0,0.0,Clear,clear sky,7
Tormásliget,47.430556,16.781667,2026-03-05 07:11:14.628968,3.33,1.11,3.33,3.33,1027,86,2.3,338,0,0.0,Clear,clear sky,7
Belecska,46.64,18.411389,2026-03-05 07:11:15.877574,5.04,3.65,5.04,5.04,1026,83,1.78,313,2,0.0,Clear,clear sky,7
Almár,47.956111,20.356944,2026-03-05 07:11:17.114268,5.27,5.27,5.27,5.27,1025,84,0.59,79,1,0.0,Clear,clear sky,7
Vasútmúzeum,47.543889,19.099444,2026-03-05 07:11:18.354727,5.31,5.31,5.31,5.31,1025,78,1.32,355,0,0.0,Clear,clear sky,7
Abda,47.690833,17.540556,2026-03-05 07:11:19.588863,3.84,2.36,3.84,3.84,1027,89,1.7,335,6,0.0,Clear,clear sky,7
Vadaspark,47.526111,18.949167,2026-03-05 07:11:20.821921,3.96,2.36,3.96,3.96,1025,79,1.82,341,0,0.0,Clear,clear sky,7
Barosstelep,47.398889,18.989167,2026-03-05 07:11:22.059207,5.75,4.4,5.75,5.75,1025,78,1.85,343,2,0.0,Clear,clear sky,7
Fegyvernek-Örményes,47.194444,20.5575,2026-03-05 07:11:23.298089,6.14,4.52,6.14,6.14,1025,82,2.19,85,10,0.0,Clear,clear sky,7
Zagyvapálfalva,48.068889,19.785,2026-03-05 07:11:24.531663,4.72,4.72,4.72,4.72,1026,82,1.0,59,6,0.0,Clear,clear sky,7
Salgótarján,48.105556,19.807222,2026-03-05 07:11:25.765077,4.03,4.03,4.03,4.03,1026,82,0.95,52,6,0.0,Clear,clear sky,7
Szabadisóstó,46.933889,18.118056,2026-03-05 07:11:27.000299,4.04,2.85,4.04,4.04,1026,83,1.5,293,0,0.0,Clear,clear sky,7
Siófok,46.907778,18.053889,2026-03-05 07:11:28.233058,3.86,2.63,3.86,3.86,1026,83,1.51,293,0,0.0,Clear,clear sky,7
Balatonszéplak felső,46.898056,18.018056,2026-03-05 07:11:29.473279,3.9,2.67,3.9,3.9,1026,83,1.52,294,0,0.0,Clear,clear sky,7
Balatonszéplak alsó,46.891944,17.993333,2026-03-05 07:11:30.703326,4.04,2.83,4.04,4.04,1026,84,1.52,293,0,0.0,Clear,clear sky,7
Zamárdi felső,46.886111,17.969444,2026-03-05 07:11:31.954330,4.08,2.86,4.08,4.08,1026,84,1.53,293,0,0.0,Clear,clear sky,7
Zamárdi,46.88,17.944722,2026-03-05 07:11:33.195164,4.08,2.86,4.08,4.08,1026,84,1.53,293,0,0.0,Clear,clear sky,7
Szántód,46.861944,17.899167,2026-03-05 07:11:34.427622,4.13,2.98,4.13,4.13,1026,84,1.48,291,0,0.0,Clear,clear sky,7
Szőny-Déli,47.735278,18.141944,2026-03-05 07:11:35.657463,4.25,2.79,4.25,4.25,1026,87,1.74,307,2,0.0,Clear,clear sky,7
Várpalota,47.194444,18.149167,2026-03-05 07:11:36.895752,3.78,0.99,3.78,3.78,1026,86,3.07,321,0,0.0,Clear,clear sky,7
Pétfürdő,47.1675,18.121389,2026-03-05 07:11:38.128789,4.15,1.58,4.15,4.15,1026,85,2.88,320,0,0.0,Clear,clear sky,7
Hajmáskér,47.141111,18.009444,2026-03-05 07:11:39.378428,3.63,1.18,3.63,3.63,1026,86,2.61,317,0,0.0,Clear,clear sky,7
Veszprém,47.118889,17.91,2026-03-05 07:11:40.612640,3.42,1.27,3.42,3.42,1026,87,2.25,315,0,0.0,Clear,clear sky,7
Herend,47.136944,17.760278,2026-03-05 07:11:41.842749,2.67,0.69,2.67,2.67,1026,88,1.97,319,1,0.0,Clear,clear sky,7
Városlőd,47.144167,17.652778,2026-03-05 07:11:43.074918,2.35,0.61,2.35,2.35,1027,90,1.73,330,2,0.0,Clear,clear sky,7
Városlőd-Kislőd,47.133889,17.631111,2026-03-05 07:11:44.312427,2.81,1.0,2.81,2.81,1027,89,1.84,329,2,0.0,Clear,clear sky,7
Ajka,47.105902,17.572938,2026-03-05 07:11:45.545406,3.19,1.24,3.19,3.19,1027,90,2.02,336,2,0.0,Clear,clear sky,7
Ajka-Gyártelep,47.096806,17.555219,2026-03-05 07:11:46.775277,3.19,1.24,3.19,3.19,1027,90,2.02,336,2,0.0,Clear,clear sky,7
Devecser,47.1125,17.435278,2026-03-05 07:11:48.006917,3.48,1.47,3.48,3.48,1027,90,2.12,340,1,0.0,Clear,clear sky,7
Somlóvásárhely,47.124444,17.369167,2026-03-05 07:11:49.241605,3.49,1.49,3.49,3.49,1027,90,2.11,342,1,0.0,Clear,clear sky,7
Tüskevár,47.128611,17.331389,2026-03-05 07:11:50.472453,3.58,1.58,3.58,3.58,1027,90,2.13,342,0,0.0,Clear,clear sky,7
Karakószörcsök,47.133611,17.287778,2026-03-05 07:11:51.702536,3.62,1.59,3.62,3.62,1027,89,2.16,341,0,0.0,Clear,clear sky,7
Kerta,47.151944,17.237222,2026-03-05 07:11:52.942980,3.67,1.6,3.67,3.67,1027,89,2.21,340,0,0.0,Clear,clear sky,7
Boba,47.183333,17.191389,2026-03-05 07:11:54.175312,3.62,1.53,3.62,3.62,1027,89,2.22,340,1,0.0,Clear,clear sky,7
Börgönd,47.140278,18.515,2026-03-05 07:11:55.412899,4.92,2.92,4.92,4.92,1026,83,2.37,318,0,0.0,Clear,clear sky,7
Belsőbáránd,47.102778,18.499722,2026-03-05 07:11:56.650609,4.8,2.79,4.8,4.8,1026,83,2.36,317,0,0.0,Clear,clear sky,7
Zichyújfalu,47.124444,18.6725,2026-03-05 07:11:57.887752,5.15,3.23,5.15,5.15,1026,82,2.33,323,1,0.0,Clear,clear sky,7
Seregélyes,47.121111,18.580556,2026-03-05 07:11:59.123244,5.12,3.16,5.12,5.12,1026,83,2.36,319,0,0.0,Clear,clear sky,7
Polgárdi-Ipartelepek,47.079167,18.314444,2026-03-05 07:12:00.365763,4.19,2.42,4.19,4.19,1026,83,2.0,310,0,0.0,Clear,clear sky,7
Polgárdi,47.07,18.284167,2026-03-05 07:12:01.607643,4.19,2.42,4.19,4.19,1026,83,2.0,310,0,0.0,Clear,clear sky,7
Füle,47.05,18.255278,2026-03-05 07:12:02.846567,4.07,2.47,4.07,4.07,1026,83,1.83,305,0,0.0,Clear,clear sky,7
Zánka-Erzsébettábor,46.8775,17.709167,2026-03-05 07:12:04.086709,4.16,2.76,4.16,4.16,1026,86,1.68,303,0,0.0,Clear,clear sky,7
Csajág,47.033889,18.186389,2026-03-05 07:12:05.326574,4.01,2.61,4.01,4.01,1026,83,1.66,299,0,0.0,Clear,clear sky,7
Balatonakarattya,47.017222,18.167778,2026-03-05 07:12:06.558233,4.01,2.61,4.01,4.01,1026,83,1.66,299,0,0.0,Clear,clear sky,7
Csittényhegy,47.025278,18.1375,2026-03-05 07:12:07.816175,4.19,2.82,4.19,4.19,1026,83,1.66,299,0,0.0,Clear,clear sky,7
Balatonkenese,47.0325,18.105556,2026-03-05 07:12:09.053964,4.25,2.86,4.25,4.25,1026,83,1.68,299,0,0.0,Clear,clear sky,7
Balatonfűzfő,47.060278,18.0425,2026-03-05 07:12:10.286528,3.99,2.28,3.99,3.99,1026,84,1.92,305,0,0.0,Clear,clear sky,7
Balatonalmádi,47.028333,18.015,2026-03-05 07:12:11.524527,4.13,2.59,4.13,4.13,1026,84,1.79,301,0,0.0,Clear,clear sky,7
Káptalanfüred,47.008889,18.003889,2026-03-05 07:12:12.758147,3.2,1.61,3.2,3.2,1026,84,1.71,299,0,0.0,Clear,clear sky,7
Alsóörs,46.985278,17.974722,2026-03-05 07:12:14.002565,3.2,1.61,3.2,3.2,1026,84,1.71,299,0,0.0,Clear,clear sky,7
Csopak,46.974722,17.931111,2026-03-05 07:12:15.229689,3.56,2.02,3.56,3.56,1026,85,1.72,300,0,0.0,Clear,clear sky,7
Balatonarács,46.9625,17.8975,2026-03-05 07:12:16.470055,3.56,2.02,3.56,3.56,1026,85,1.72,300,0,0.0,Clear,clear sky,7
Balatonfüred,46.955833,17.883056,2026-03-05 07:12:17.706786,3.97,2.55,3.97,3.97,1026,85,1.67,298,0,0.0,Clear,clear sky,7
Aszófő,46.925556,17.8325,2026-03-05 07:12:18.948570,3.94,2.58,3.94,3.94,1026,85,1.62,297,0,0.0,Clear,clear sky,7
Örvényes,46.9125,17.818056,2026-03-05 07:12:20.179605,3.94,2.58,3.94,3.94,1026,85,1.62,297,0,0.0,Clear,clear sky,7
Balatonudvari,46.904722,17.808056,2026-03-05 07:12:21.412003,3.43,1.96,3.43,3.43,1026,85,1.65,300,0,0.0,Clear,clear sky,7
Fövenyes,46.893611,17.789444,2026-03-05 07:12:22.651756,4.08,2.8,4.08,4.08,1026,85,1.57,296,0,0.0,Clear,clear sky,7
Balatonakali-Dörgicse,46.88,17.747778,2026-03-05 07:12:23.888230,3.72,2.33,3.72,3.72,1026,86,1.62,299,0,0.0,Clear,clear sky,7
Zánka-Köveskál,46.872778,17.687778,2026-03-05 07:12:25.126211,3.75,2.16,3.75,3.75,1026,87,1.78,307,0,0.0,Clear,clear sky,7
Balatonszepezd,46.851111,17.663056,2026-03-05 07:12:26.375783,4.16,2.73,4.16,4.16,1026,87,1.7,305,0,0.0,Clear,clear sky,7
Szepezdfürdő,46.839722,17.649444,2026-03-05 07:12:27.613111,3.11,1.39,3.11,3.11,1026,87,1.81,309,0,0.0,Clear,clear sky,7
Révfülöp,46.829167,17.632222,2026-03-05 07:12:28.846033,3.11,1.39,3.11,3.11,1026,87,1.81,309,0,0.0,Clear,clear sky,7
Balatonrendes,46.824722,17.582778,2026-03-05 07:12:30.083522,3.74,1.72,3.74,3.74,1027,88,2.17,318,0,0.0,Clear,clear sky,7
Ábrahámhegy,46.815,17.572222,2026-03-05 07:12:31.321821,3.74,1.72,3.74,3.74,1027,88,2.17,318,0,0.0,Clear,clear sky,7
Badacsonyörs,46.805556,17.531667,2026-03-05 07:12:32.564244,3.98,1.88,3.98,3.98,1027,88,2.3,320,0,0.0,Clear,clear sky,7
Kisújszállás,47.223889,20.751111,2026-03-05 07:12:33.795191,6.17,4.4,6.17,6.17,1025,82,2.36,88,12,0.0,Clouds,few clouds,7
Karcag,47.303333,20.928056,2026-03-05 07:12:35.030175,6.08,4.12,6.08,6.08,1025,83,2.58,89,1,0.0,Clear,clear sky,7
Püspökladány,47.3275,21.128889,2026-03-05 07:12:36.267422,5.94,3.96,5.94,5.94,1025,83,2.57,86,0,0.0,Clear,clear sky,7
Kaba,47.368889,21.259444,2026-03-05 07:12:37.499069,5.73,3.74,5.73,5.73,1025,84,2.53,82,0,0.0,Clear,clear sky,7
Hajdúszoboszló,47.429444,21.406944,2026-03-05 07:12:38.730632,5.35,3.27,5.35,5.35,1025,85,2.55,74,0,0.0,Clear,clear sky,7
Ebes,47.462778,21.488889,2026-03-05 07:12:39.965749,5.12,2.98,5.12,5.12,1025,86,2.58,70,0,0.0,Clear,clear sky,7
Debrecen,47.520278,21.628611,2026-03-05 07:12:41.203368,4.77,2.5,4.77,4.77,1025,86,2.65,60,14,0.0,Clouds,few clouds,7
Debrecen-Csapókert,47.540556,21.648056,2026-03-05 07:12:42.438316,4.76,2.43,4.76,4.76,1025,85,2.73,55,24,0.0,Clouds,few clouds,7
Apafa,47.584045,21.655858,2026-03-05 07:12:43.669573,4.8,2.35,4.8,4.8,1025,84,2.89,51,33,0.0,Clouds,scattered clouds,7
Bocskaikert,47.6425,21.666389,2026-03-05 07:12:44.920358,4.83,1.96,4.83,4.83,1025,81,3.49,41,64,0.0,Clouds,broken clouds,7
Hajdúhadház,47.686944,21.679167,2026-03-05 07:12:46.155901,4.95,1.98,4.95,4.95,1025,80,3.7,36,71,0.0,Clouds,broken clouds,7
Téglás,47.714722,21.684722,2026-03-05 07:12:47.394705,5.02,1.92,5.02,5.02,1025,78,3.94,34,79,0.0,Clouds,broken clouds,7
Újfehértó,47.814444,21.706389,2026-03-05 07:12:48.637760,5.29,1.75,5.29,5.29,1025,74,4.89,29,91,0.0,Clouds,overcast clouds,7
Nyíregyháza,47.946667,21.705556,2026-03-05 07:12:49.867551,5.38,1.48,5.38,5.38,1025,71,5.74,26,67,0.0,Clouds,broken clouds,7
Sóstó,47.998051,21.729047,2026-03-05 07:12:51.102866,5.33,1.41,5.33,5.33,1025,71,5.77,21,60,0.0,Clouds,broken clouds,7
Sóstóhegy,48.012222,21.742778,2026-03-05 07:12:52.341421,5.41,1.5,5.41,5.41,1025,71,5.8,21,54,0.0,Clouds,broken clouds,7
Kemecse,48.065556,21.801667,2026-03-05 07:12:53.571800,5.34,1.43,5.34,5.34,1025,71,5.75,14,46,0.0,Clouds,scattered clouds,7
Nyírbogdány,48.082222,21.855278,2026-03-05 07:12:54.806582,5.28,1.36,5.28,5.28,1025,72,5.73,11,40,0.0,Clouds,scattered clouds,7
Kék,48.093333,21.883889,2026-03-05 07:12:56.037973,5.27,1.4,5.27,5.27,1025,72,5.61,6,41,0.0,Clouds,scattered clouds,7
Demecser,48.111667,21.926667,2026-03-05 07:12:57.277835,5.25,1.4,5.25,5.25,1025,72,5.55,3,33,0.0,Clouds,scattered clouds,7
Gégény,48.128333,21.951944,2026-03-05 07:12:58.507693,5.19,1.36,5.19,5.19,1025,73,5.46,359,26,0.0,Clouds,scattered clouds,7
Pátroha,48.158611,21.996667,2026-03-05 07:12:59.744079,5.19,1.41,5.19,5.19,1025,73,5.36,356,19,0.0,Clouds,few clouds,7
Ajak,48.1865,22.048972,2026-03-05 07:13:00.983182,5.14,1.39,5.14,5.14,1025,73,5.26,352,13,0.0,Clouds,few clouds,7
Kisvárda,48.208333,22.078333,2026-03-05 07:13:02.231081,5.12,1.45,5.12,5.12,1025,74,5.08,346,8,0.0,Clear,clear sky,7
Kisvárda-Hármasút,48.228333,22.091944,2026-03-05 07:13:03.467158,5.12,1.45,5.12,5.12,1025,74,5.08,346,8,0.0,Clear,clear sky,7
Fényeslitke,48.267222,22.107222,2026-03-05 07:13:04.697823,5.03,1.38,5.03,5.03,1025,75,4.98,342,0,0.0,Clear,clear sky,7
Komoró,48.305278,22.118056,2026-03-05 07:13:05.934664,5.04,1.4,5.04,5.04,1025,76,4.97,341,0,0.0,Clear,clear sky,7
Tuzsér,48.342222,22.131667,2026-03-05 07:13:07.166000,4.97,1.32,4.97,4.97,1025,76,4.96,340,0,0.0,Clear,clear sky,7
Tiszabezdéd,48.371389,22.145,2026-03-05 07:13:08.404945,4.96,1.33,4.96,4.96,1026,77,4.9,337,0,0.0,Clear,clear sky,7
Záhony,48.402222,22.183611,2026-03-05 07:13:09.634566,4.92,1.34,4.92,4.92,1025,78,4.78,335,0,0.0,Clear,clear sky,7
Karcag-Vásártér,47.3225,20.9075,2026-03-05 07:13:10.873085,6.08,4.12,6.08,6.08,1025,83,2.58,89,1,0.0,Clear,clear sky,7
Berekfürdő,47.374722,20.827222,2026-03-05 07:13:12.109979,6.1,4.07,6.1,6.1,1025,83,2.67,90,2,0.0,Clear,clear sky,7
Kunmadaras,47.415278,20.793056,2026-03-05 07:13:13.341658,6.1,4.03,6.1,6.1,1025,83,2.72,89,5,0.0,Clear,clear sky,7
Tiszaszentimre,47.490833,20.733056,2026-03-05 07:13:14.575593,6.18,4.11,6.18,6.18,1025,84,2.74,89,10,0.0,Clear,clear sky,7
Tiszaszőlős,47.555556,20.728056,2026-03-05 07:13:15.811729,6.19,4.13,6.19,6.19,1025,84,2.73,87,12,0.0,Clouds,few clouds,7
Hosszúhát,47.235556,21.101944,2026-03-05 07:13:17.045902,6.0,4.14,6.0,6.0,1025,82,2.43,84,13,0.0,Clouds,few clouds,7
Szerep,47.234444,21.145833,2026-03-05 07:13:18.277114,5.97,4.12,5.97,5.97,1025,82,2.42,84,13,0.0,Clouds,few clouds,7
Sárrétudvari,47.231667,21.180833,2026-03-05 07:13:19.517576,5.92,4.06,5.92,5.92,1025,82,2.42,83,12,0.0,Clouds,few clouds,7
Biharnagybajom,47.208889,21.221944,2026-03-05 07:13:20.764101,5.89,4.09,5.89,5.89,1025,82,2.34,82,18,0.0,Clouds,few clouds,7
Füzesgyarmat,47.113056,21.194444,2026-03-05 07:13:21.995362,6.06,4.55,6.06,6.06,1025,82,2.05,74,54,0.0,Clouds,broken clouds,7
Füzesgyarmatfürdő,47.093787,21.201582,2026-03-05 07:13:23.235122,6.06,4.55,6.06,6.06,1025,82,2.05,74,54,0.0,Clouds,broken clouds,7
Báránd,47.299722,21.235278,2026-03-05 07:13:24.479695,5.83,3.88,5.83,5.83,1025,83,2.5,83,0,0.0,Clear,clear sky,7
Sáp,47.259722,21.360556,2026-03-05 07:13:25.716774,5.72,3.86,5.72,5.72,1025,83,2.37,82,7,0.0,Clear,clear sky,7
Berettyóújfalu,47.211944,21.535556,2026-03-05 07:13:26.956844,5.53,4.06,5.53,5.53,1025,82,1.93,83,11,0.0,Clouds,few clouds,7
Mezőpeterd,47.176111,21.625278,2026-03-05 07:13:28.193921,5.46,4.32,5.46,5.46,1025,82,1.62,89,11,0.0,Clouds,few clouds,7
Biharkeresztes,47.135556,21.721389,2026-03-05 07:13:29.429293,5.31,5.31,5.31,5.31,1025,81,1.21,104,9,0.0,Clear,clear sky,7
Tócóvölgy,47.529444,21.588889,2026-03-05 07:13:30.667616,4.86,2.57,4.86,4.86,1025,86,2.7,61,13,0.0,Clouds,few clouds,7
Sáregres,46.7825,18.588889,2026-03-05 07:13:31.907546,5.27,2.9,5.27,5.27,1026,83,2.91,322,6,0.0,Clear,clear sky,7
Simontornya,46.756582,18.540674,2026-03-05 07:13:33.145022,5.07,2.91,5.07,5.07,1026,83,2.59,320,5,0.0,Clear,clear sky,7
Tolnanémedi,46.727778,18.475833,2026-03-05 07:13:34.383368,5.09,3.07,5.09,5.09,1026,83,2.43,320,5,0.0,Clear,clear sky,7
Pincehely,46.681389,18.43,2026-03-05 07:13:35.621275,4.87,3.18,4.87,4.87,1026,83,2.04,317,3,0.0,Clear,clear sky,7
Keszőhidegkút-Gyönk,46.597778,18.426111,2026-03-05 07:13:36.859416,4.98,3.71,4.98,4.98,1026,83,1.67,311,1,0.0,Clear,clear sky,7
Szárazd,46.575556,18.420833,2026-03-05 07:13:38.095328,5.04,3.93,5.04,5.04,1026,83,1.55,308,1,0.0,Clear,clear sky,7
Regöly,46.568889,18.396111,2026-03-05 07:13:39.335024,5.04,3.93,5.04,5.04,1026,83,1.55,308,1,0.0,Clear,clear sky,7
Szakály-Hőgyész,46.523611,18.389444,2026-03-05 07:13:40.569446,4.94,4.07,4.94,4.94,1026,83,1.36,303,0,0.0,Clear,clear sky,7
Dúzs,46.493889,18.377222,2026-03-05 07:13:41.802904,5.0,5.0,5.0,5.0,1026,83,1.32,301,0,0.0,Clear,clear sky,7
Csibrák,46.466667,18.336389,2026-03-05 07:13:43.037953,5.03,5.03,5.03,5.03,1026,84,1.29,301,0,0.0,Clear,clear sky,7
Kurd,46.449167,18.319167,2026-03-05 07:13:44.276180,4.7,4.7,4.7,4.7,1026,84,1.28,301,0,0.0,Clear,clear sky,7
Döbrököz,46.418889,18.255,2026-03-05 07:13:45.511781,4.92,4.92,4.92,4.92,1026,84,1.25,304,0,0.0,Clear,clear sky,7
Dombóvár,46.37,18.149722,2026-03-05 07:13:46.748895,4.81,4.81,4.81,4.81,1026,85,1.19,313,0,0.0,Clear,clear sky,7
Dombóvár alsó,46.363889,18.134167,2026-03-05 07:13:47.985607,4.81,4.81,4.81,4.81,1026,85,1.19,313,0,0.0,Clear,clear sky,7
Somoskőújfalu,48.154722,19.815556,2026-03-05 07:13:49.218271,2.87,2.87,2.87,2.87,1026,82,0.9,45,6,0.0,Clear,clear sky,7
Jászfényszaru,47.593056,19.754444,2026-03-05 07:13:50.451415,5.56,4.51,5.56,5.56,1025,81,1.56,58,6,0.0,Clear,clear sky,7
Pusztamonostor,47.564444,19.794167,2026-03-05 07:13:51.691811,5.58,4.26,5.58,5.58,1025,81,1.79,58,6,0.0,Clear,clear sky,7
Jászberény,47.494444,19.893333,2026-03-05 07:13:52.924209,5.66,3.93,5.66,5.66,1025,82,2.22,54,6,0.0,Clear,clear sky,7
Meggyespele,47.441944,19.938889,2026-03-05 07:13:54.156153,5.72,3.9,5.72,5.72,1025,82,2.33,59,6,0.0,Clear,clear sky,7
Portelek,47.418056,19.958889,2026-03-05 07:13:55.390826,5.71,3.93,5.71,5.71,1025,83,2.28,56,6,0.0,Clear,clear sky,7
Jászboldogháza-Jánoshida,47.366944,20.001389,2026-03-05 07:13:56.626609,5.72,4.1,5.72,5.72,1025,82,2.11,54,6,0.0,Clear,clear sky,7
Jászárokszállás,47.635556,19.971111,2026-03-05 07:13:57.859315,5.81,4.17,5.81,5.81,1025,81,2.15,70,6,0.0,Clear,clear sky,7
Jászdózsa,47.563056,20.028056,2026-03-05 07:13:59.098282,5.87,3.96,5.87,5.87,1025,81,2.46,70,6,0.0,Clear,clear sky,7
Jászapáti,47.513611,20.155,2026-03-05 07:14:00.343283,5.93,3.88,5.93,5.93,1025,82,2.65,79,6,0.0,Clear,clear sky,7
Jászkisér,47.456111,20.203333,2026-03-05 07:14:01.581801,5.95,3.91,5.95,5.95,1025,82,2.64,82,7,0.0,Clear,clear sky,7
Jászladány,47.373333,20.159167,2026-03-05 07:14:02.820142,5.93,4.2,5.93,5.93,1025,82,2.27,77,7,0.0,Clear,clear sky,7
Szászberek,47.320556,20.090833,2026-03-05 07:14:04.052256,5.9,4.46,5.9,5.9,1025,82,1.96,67,7,0.0,Clear,clear sky,7
Gyöngyöshalász,47.743056,19.932222,2026-03-05 07:14:05.291630,5.62,4.77,5.62,5.62,1025,80,1.41,76,6,0.0,Clear,clear sky,7
Gyöngyös,47.783056,19.937222,2026-03-05 07:14:06.521093,5.31,4.45,5.31,5.31,1025,80,1.39,73,6,0.0,Clear,clear sky,7
Erdőtelek,47.683333,20.3025,2026-03-05 07:14:07.757802,6.04,4.35,6.04,6.04,1025,82,2.24,81,8,0.0,Clear,clear sky,7
Heves,47.609444,20.306111,2026-03-05 07:14:08.989824,6.05,4.12,6.05,6.05,1025,82,2.53,85,7,0.0,Clear,clear sky,7
Hevesvezekény,47.562222,20.365833,2026-03-05 07:14:10.237427,6.13,4.15,6.13,6.13,1025,82,2.61,89,7,0.0,Clear,clear sky,7
Tarnaszentmiklós,47.546944,20.390833,2026-03-05 07:14:11.477275,6.12,4.11,6.12,6.12,1025,82,2.65,90,6,0.0,Clear,clear sky,7
Kisköre,47.495556,20.481667,2026-03-05 07:14:12.711507,6.15,4.1,6.15,6.15,1025,83,2.71,96,6,0.0,Clear,clear sky,7
Abádszalók,47.455278,20.553056,2026-03-05 07:14:13.948530,6.14,4.07,6.14,6.14,1025,83,2.73,96,7,0.0,Clear,clear sky,7
Kunhegyes,47.376667,20.641111,2026-03-05 07:14:15.186314,6.13,4.07,6.13,6.13,1025,83,2.72,95,6,0.0,Clear,clear sky,7
Kenderes,47.254444,20.686111,2026-03-05 07:14:16.425374,6.17,4.34,6.17,6.17,1025,82,2.43,90,8,0.0,Clear,clear sky,7
Maklár,47.808056,20.404722,2026-03-05 07:14:17.660614,6.17,5.01,6.17,6.17,1025,83,1.73,76,3,0.0,Clear,clear sky,7
Andornaktálya,47.852203,20.402295,2026-03-05 07:14:18.898067,6.05,5.33,6.05,6.05,1025,84,1.36,73,0,0.0,Clear,clear sky,7
Eger,47.891667,20.381667,2026-03-05 07:14:20.137533,5.93,5.93,5.93,5.93,1025,84,1.08,74,0,0.0,Clear,clear sky,7
Egervár,47.908056,20.380556,2026-03-05 07:14:21.371596,6.08,6.08,6.08,6.08,1025,84,0.91,75,0,0.0,Clear,clear sky,7
Eger-Felnémet,47.936667,20.370556,2026-03-05 07:14:22.607789,6.03,6.03,6.03,6.03,1025,84,0.76,76,0,0.0,Clear,clear sky,7
Szarvaskő,47.988611,20.3325,2026-03-05 07:14:23.840436,5.38,5.38,5.38,5.38,1025,84,0.49,83,4,0.0,Clear,clear sky,7
Mónosbél,48.031944,20.33,2026-03-05 07:14:25.072898,5.48,5.48,5.48,5.48,1025,85,0.38,95,12,0.0,Clouds,few clouds,7
Bélapátfalva,48.055556,20.340556,2026-03-05 07:14:26.305068,5.21,5.21,5.21,5.21,1025,85,0.36,98,18,0.0,Clouds,few clouds,7
Bélapátfalvi Cementgyár,48.058056,20.355,2026-03-05 07:14:27.541325,5.21,5.21,5.21,5.21,1025,85,0.36,98,18,0.0,Clouds,few clouds,7
Szilvásvárad,48.11345,20.37919,2026-03-05 07:14:28.774189,4.96,4.96,4.96,4.96,1025,86,0.39,102,34,0.0,Clouds,scattered clouds,7
Hejőkeresztúr,47.960278,20.869444,2026-03-05 07:14:30.012828,6.24,6.24,6.24,6.24,1025,82,0.82,348,2,0.0,Clear,clear sky,7
Tiszaújváros,47.926111,21.030556,2026-03-05 07:14:31.252452,6.14,6.14,6.14,6.14,1025,81,0.95,54,5,0.0,Clear,clear sky,7
Miskolc-Gömöri,48.106667,20.800278,2026-03-05 07:14:32.490980,6.03,4.82,6.03,6.03,1025,81,1.76,350,53,0.0,Clouds,broken clouds,7
Sajókeresztúr,48.168008,20.774014,2026-03-05 07:14:33.725309,5.99,4.61,5.99,5.99,1025,82,1.91,1,74,0.0,Clouds,broken clouds,7
Sajóecseg,48.186111,20.766667,2026-03-05 07:14:34.963656,6.03,4.6,6.03,6.03,1025,82,1.97,6,84,0.0,Clouds,broken clouds,7
Sajószentpéter,48.222222,20.708056,2026-03-05 07:14:36.196306,6.01,4.68,6.01,6.01,1025,83,1.87,12,90,0.0,Clouds,overcast clouds,7
Kazincbarcika,48.264444,20.6275,2026-03-05 07:14:37.433043,6.01,6.01,6.01,6.01,1025,84,1.08,33,90,0.0,Clouds,overcast clouds,7
Sajókaza,48.272778,20.581944,2026-03-05 07:14:38.664265,6.06,6.06,6.06,6.06,1025,84,0.91,40,86,0.0,Clouds,overcast clouds,7
Vadna,48.276389,20.555278,2026-03-05 07:14:39.910644,6.06,6.06,6.06,6.06,1025,84,0.91,40,86,0.0,Clouds,overcast clouds,7
Dubicsány,48.280833,20.504722,2026-03-05 07:14:41.152544,6.17,6.17,6.17,6.17,1025,84,0.61,65,79,0.0,Clouds,broken clouds,7
Raposka,46.851389,17.412778,2026-03-05 07:14:42.386690,3.97,1.56,3.97,3.97,1027,89,2.64,328,0,0.0,Clear,clear sky,7
Ivacs,47.641944,19.273889,2026-03-05 07:14:43.628117,4.69,3.37,4.69,4.69,1025,79,1.68,2,0,0.0,Clear,clear sky,7
Kisköre-Tiszahíd,47.480835,20.507698,2026-03-05 07:14:44.858980,6.14,4.07,6.14,6.14,1025,83,2.73,97,6,0.0,Clear,clear sky,7
Rozsály,47.912778,22.7825,2026-03-05 07:14:46.115743,4.46,3.03,4.46,4.46,1025,82,1.74,336,24,0.0,Clouds,few clouds,7
Pusztakettős,47.453611,20.749722,2026-03-05 07:14:47.352639,6.13,4.06,6.13,6.13,1025,84,2.73,90,8,0.0,Clear,clear sky,7
Kisvác,47.795278,19.113611,2026-03-05 07:14:48.584748,4.96,4.96,4.96,4.96,1025,81,1.33,337,0,0.0,Clear,clear sky,7
Tiszafüred-Gyártelep,47.6075,20.736111,2026-03-05 07:14:49.817450,6.21,4.16,6.21,6.21,1025,84,2.72,85,12,0.0,Clouds,few clouds,7
Újkenéz,48.251111,22.221667,2026-03-05 07:14:51.048355,4.92,1.39,4.92,4.92,1025,76,4.68,332,1,0.0,Clear,clear sky,7
Püspökladány-Vásártér,47.319167,21.096111,2026-03-05 07:14:52.285549,5.95,3.99,5.95,5.95,1025,83,2.55,86,0,0.0,Clear,clear sky,7
Végegyháza alsó,46.3675,20.866944,2026-03-05 07:14:53.515552,6.23,5.4,6.23,6.23,1025,84,1.46,32,84,0.0,Clouds,broken clouds,7
Orosháza felső,46.553611,20.655278,2026-03-05 07:14:54.749874,6.53,5.61,6.53,6.53,1025,82,1.57,11,49,0.0,Clouds,scattered clouds,7
Ambrózfalva,46.353056,20.740556,2026-03-05 07:14:55.988652,6.32,5.27,6.32,6.32,1025,84,1.65,26,89,0.0,Clouds,overcast clouds,7
Alsónyék,46.199444,18.738056,2026-03-05 07:14:57.221882,5.51,3.69,5.51,5.51,1026,83,2.29,327,0,0.0,Clear,clear sky,7
Tompapuszta,46.321389,20.966389,2026-03-05 07:14:58.465860,6.08,5.37,6.08,6.08,1025,84,1.35,40,92,0.0,Clouds,overcast clouds,7
Halászlak,46.911879,20.56228,2026-03-05 07:14:59.701509,6.43,5.57,6.43,6.43,1025,82,1.51,34,12,0.0,Clouds,few clouds,7
Sirató,46.840556,20.61,2026-03-05 07:15:00.948255,6.51,5.77,6.51,6.51,1025,82,1.42,27,7,0.0,Clear,clear sky,7
Csabacsűd felső,46.829167,20.649167,2026-03-05 07:15:02.205182,6.5,5.76,6.5,6.5,1025,82,1.42,28,9,0.0,Clear,clear sky,7
Orosháza-Üveggyár,46.579979,20.683644,2026-03-05 07:15:03.439181,6.52,5.76,6.52,6.52,1025,82,1.44,12,43,0.0,Clouds,scattered clouds,7
Gyulai városerdő,46.69482,21.32281,2026-03-05 07:15:04.680477,6.57,6.57,6.57,6.57,1025,83,1.14,28,57,0.0,Clouds,broken clouds,7
Kórógyszentgyörgy,46.564377,20.224998,2026-03-05 07:15:05.922378,6.73,5.09,6.73,6.73,1025,82,2.33,351,59,0.0,Clouds,broken clouds,7
Kunszállás,46.784444,19.767222,2026-03-05 07:15:07.165080,6.07,4.62,6.07,6.07,1026,83,1.99,352,6,0.0,Clear,clear sky,7
Selymes,46.655321,19.8534,2026-03-05 07:15:08.404701,6.35,4.64,6.35,6.35,1026,83,2.33,341,0,0.0,Clear,clear sky,7
Petőfiszállási tanyák,46.587805,19.874509,2026-03-05 07:15:09.640648,6.44,4.65,6.44,6.44,1026,83,2.45,339,0,0.0,Clear,clear sky,7
Kisteleki szőlők,46.514199,19.92868,2026-03-05 07:15:10.873601,6.44,4.58,6.44,6.44,1026,83,2.53,338,0,0.0,Clear,clear sky,7
Kapitányság,46.435336,19.987564,2026-03-05 07:15:12.112057,6.48,4.69,6.48,6.48,1025,82,2.45,336,25,0.0,Clouds,scattered clouds,7
Őszeszék,46.39025,20.016017,2026-03-05 07:15:13.345987,6.46,4.77,6.46,6.46,1025,82,2.33,336,50,0.0,Clouds,scattered clouds,7
Vilmaszállás,46.366389,20.030833,2026-03-05 07:15:14.580799,6.44,4.82,6.44,6.44,1025,82,2.25,335,60,0.0,Clouds,broken clouds,7
Jánosszállás,46.334359,20.051199,2026-03-05 07:15:15.821308,6.43,4.88,6.43,6.43,1025,82,2.16,334,69,0.0,Clouds,broken clouds,7
Felsőpakony,47.343056,19.230556,2026-03-05 07:15:17.061054,5.48,4.32,5.48,5.48,1025,78,1.64,2,4,0.0,Clear,clear sky,7
Felsőméntelek,46.987074,19.557745,2026-03-05 07:15:18.300194,5.57,4.01,5.57,5.57,1025,81,2.02,9,1,0.0,Clear,clear sky,7
Alsóméntelek,46.961558,19.579121,2026-03-05 07:15:19.537062,5.58,4.05,5.58,5.58,1025,82,1.99,6,1,0.0,Clear,clear sky,7
Nagynyír,46.943319,19.585447,2026-03-05 07:15:20.778997,5.58,4.06,5.58,5.58,1025,82,1.98,4,1,0.0,Clear,clear sky,7
Úrihegy,46.917778,19.621389,2026-03-05 07:15:22.016925,5.62,4.15,5.62,5.62,1025,82,1.94,3,2,0.0,Clear,clear sky,7
Miklóstelep,46.913412,19.630913,2026-03-05 07:15:23.257150,5.6,4.15,5.6,5.6,1025,82,1.92,5,3,0.0,Clear,clear sky,7
Tiszajenő alsó,47.016944,20.134444,2026-03-05 07:15:24.488776,6.24,5.37,6.24,6.24,1025,82,1.49,29,7,0.0,Clear,clear sky,7
Óbög,46.987222,20.111111,2026-03-05 07:15:25.730241,6.27,5.37,6.27,6.27,1025,82,1.52,25,8,0.0,Clear,clear sky,7
Árpádszállás,46.866456,19.989163,2026-03-05 07:15:26.965207,6.35,5.26,6.35,6.35,1025,82,1.69,10,9,0.0,Clear,clear sky,7
Tőserdő,46.851111,19.980278,2026-03-05 07:15:28.205621,6.46,5.36,6.46,6.46,1025,82,1.72,7,9,0.0,Clear,clear sky,7
Tiszaalpár felső,46.836256,19.976753,2026-03-05 07:15:29.446642,6.46,5.36,6.46,6.46,1025,82,1.72,7,9,0.0,Clear,clear sky,7
Borsihalom,46.773056,19.92,2026-03-05 07:15:30.685482,6.39,5.11,6.39,6.39,1025,83,1.88,358,5,0.0,Clear,clear sky,7
Petőfiváros,46.725556,19.848611,2026-03-05 07:15:31.922864,6.29,4.78,6.29,6.29,1026,83,2.09,349,3,0.0,Clear,clear sky,7
Csorna,47.601944,17.248889,2026-03-05 07:15:33.161628,3.7,1.55,3.7,3.7,1027,88,2.3,336,6,0.0,Clear,clear sky,7
Szorgalmatos,47.986667,21.366389,2026-03-05 07:15:34.394114,5.75,2.45,5.75,5.75,1025,74,4.64,44,20,0.0,Clouds,few clouds,7
Fótfürdő,47.6225,19.200556,2026-03-05 07:15:35.625199,5.01,4.07,5.01,5.01,1025,78,1.42,358,0,0.0,Clear,clear sky,7
Fenyveshegy,47.818333,19.068056,2026-03-05 07:15:36.860263,5.13,5.13,5.13,5.13,1025,81,1.24,327,0,0.0,Clear,clear sky,7
Hűvösvölgy,47.541202,18.96351,2026-03-05 07:15:38.102410,4.2,2.71,4.2,4.2,1025,79,1.76,340,0,0.0,Clear,clear sky,7
Hárshegy,47.535318,18.961433,2026-03-05 07:15:39.327194,4.2,2.71,4.2,4.2,1025,79,1.76,340,0,0.0,Clear,clear sky,7
Szépjuhászné,47.528277,18.955246,2026-03-05 07:15:40.565032,3.96,2.36,3.96,3.96,1025,79,1.82,341,0,0.0,Clear,clear sky,7
Jánoshegy,47.51433,18.95047,2026-03-05 07:15:41.796278,3.96,2.36,3.96,3.96,1025,79,1.82,341,0,0.0,Clear,clear sky,7
Virágvölgy,47.505965,18.95876,2026-03-05 07:15:43.028101,4.2,2.59,4.2,4.2,1025,79,1.86,342,0,0.0,Clear,clear sky,7
Csillebérc,47.498196,18.961694,2026-03-05 07:15:44.266812,4.2,2.59,4.2,4.2,1025,79,1.86,342,0,0.0,Clear,clear sky,7
Normafa,47.5,18.970558,2026-03-05 07:15:45.509461,4.2,2.59,4.2,4.2,1025,79,1.86,342,0,0.0,Clear,clear sky,7
Széchenyihegy,47.49413,18.977049,2026-03-05 07:15:46.741124,3.41,1.89,3.41,3.41,1025,78,1.68,344,0,0.0,Clear,clear sky,7
Balatonfőkajár felső,47.031389,18.215278,2026-03-05 07:15:47.973868,4.22,2.84,4.22,4.22,1026,83,1.67,299,0,0.0,Clear,clear sky,7
Piroska,47.148333,20.129722,2026-03-05 07:15:49.221581,6.03,5.12,6.03,6.03,1025,82,1.5,51,6,0.0,Clear,clear sky,7
Somodor,46.4725,17.836667,2026-03-05 07:15:50.462504,4.23,2.32,4.23,4.23,1026,86,2.15,323,0,0.0,Clear,clear sky,7
Középmező,45.995833,18.668889,2026-03-05 07:15:51.694687,5.19,3.84,5.19,5.19,1026,84,1.77,338,0,0.0,Clear,clear sky,7
Jobbágyi,47.828889,19.6875,2026-03-05 07:15:52.935953,5.32,5.32,5.32,5.32,1026,80,0.73,74,5,0.0,Clear,clear sky,7
Ferihegy,47.437222,19.223889,2026-03-05 07:15:54.166943,5.09,4.02,5.09,5.09,1025,77,1.52,6,1,0.0,Clear,clear sky,7
Máriapócs,47.852778,22.019167,2026-03-05 07:15:55.398376,4.91,1.53,4.91,4.91,1025,76,4.4,5,92,0.0,Clouds,overcast clouds,7
Máriaudvar,47.751944,19.165,2026-03-05 07:15:56.634478,5.25,4.39,5.25,5.25,1025,80,1.38,344,0,0.0,Clear,clear sky,7
Nagyberki,46.353333,18.004167,2026-03-05 07:15:57.864614,4.5,3.56,4.5,4.5,1026,85,1.37,322,0,0.0,Clear,clear sky,7
Badacsonytomaj,46.804722,17.518056,2026-03-05 07:15:59.109015,3.98,1.88,3.98,3.98,1027,88,2.3,320,0,0.0,Clear,clear sky,7
Badacsony,46.788611,17.506389,2026-03-05 07:16:00.346468,4.03,1.85,4.03,4.03,1027,89,2.39,321,0,0.0,Clear,clear sky,7
Badacsonylábdihegy,46.793889,17.470833,2026-03-05 07:16:01.582546,4.03,1.85,4.03,4.03,1027,89,2.39,321,0,0.0,Clear,clear sky,7
Badacsonytördemic-Szigliget,46.809722,17.469167,2026-03-05 07:16:02.814982,4.01,1.8,4.01,4.01,1027,89,2.42,323,0,0.0,Clear,clear sky,7
Nemesgulács-Kisapáti,46.836944,17.476389,2026-03-05 07:16:04.068501,4.01,1.78,4.01,4.01,1027,89,2.44,324,0,0.0,Clear,clear sky,7
Tapolca,46.877778,17.428611,2026-03-05 07:16:05.300492,3.92,1.51,3.92,3.92,1027,89,2.63,330,0,0.0,Clear,clear sky,7
Uzsabánya alsó,46.898333,17.345278,2026-03-05 07:16:06.570638,2.8,0.19,2.8,2.8,1027,90,2.61,332,0,0.0,Clear,clear sky,7
Uzsa,46.920278,17.331667,2026-03-05 07:16:07.806957,3.57,1.14,3.57,3.57,1027,90,2.58,333,0,0.0,Clear,clear sky,7
Sümegi Bazaltbánya,46.9525,17.2925,2026-03-05 07:16:09.040024,3.56,1.18,3.56,3.56,1027,90,2.52,334,0,0.0,Clear,clear sky,7
Sümeg,46.981111,17.270833,2026-03-05 07:16:10.275754,3.71,1.46,3.71,3.71,1027,89,2.4,335,0,0.0,Clear,clear sky,7
Gógánfa,47.021111,17.207778,2026-03-05 07:16:11.515803,3.66,1.49,3.66,3.66,1027,89,2.31,337,0,0.0,Clear,clear sky,7
Ukk,47.041944,17.195833,2026-03-05 07:16:12.752057,3.69,1.56,3.69,3.69,1027,89,2.27,337,0,0.0,Clear,clear sky,7
Nemeskeresztúr,47.093611,17.183611,2026-03-05 07:16:13.988024,3.59,1.48,3.59,3.59,1027,89,2.24,339,0,0.0,Clear,clear sky,7
Jánosháza,47.115833,17.171667,2026-03-05 07:16:15.234469,3.64,1.54,3.64,3.64,1027,89,2.23,340,0,0.0,Clear,clear sky,7
Keszthely,46.758333,17.248056,2026-03-05 07:16:16.474457,3.83,1.5,3.83,3.83,1027,90,2.52,327,0,0.0,Clear,clear sky,7
Alsógyenes,46.765844,17.276435,2026-03-05 07:16:17.717336,3.9,1.5,3.9,3.9,1027,90,2.61,327,0,0.0,Clear,clear sky,7
Gyenesdiás,46.763333,17.292778,2026-03-05 07:16:18.951914,3.9,1.5,3.9,3.9,1027,90,2.61,327,0,0.0,Clear,clear sky,7
Vonyarcvashegy,46.755278,17.318333,2026-03-05 07:16:20.182129,3.37,0.85,3.37,3.37,1027,90,2.63,327,0,0.0,Clear,clear sky,7
Balatongyörök,46.751944,17.354444,2026-03-05 07:16:21.417180,3.97,1.57,3.97,3.97,1027,89,2.63,326,0,0.0,Clear,clear sky,7
Becehegy,46.776111,17.372778,2026-03-05 07:16:22.655264,2.82,0.19,2.82,2.82,1027,89,2.64,327,0,0.0,Clear,clear sky,7
Balatonederics,46.8025,17.385,2026-03-05 07:16:23.888613,2.75,0.1,2.75,2.75,1027,89,2.65,328,0,0.0,Clear,clear sky,7
Dabronc,47.025766,17.167006,2026-03-05 07:16:25.129890,3.69,1.56,3.69,3.69,1027,89,2.27,336,0,0.0,Clear,clear sky,7
Türje,46.994444,17.093611,2026-03-05 07:16:26.362176,3.67,1.63,3.67,3.67,1027,88,2.18,334,0,0.0,Clear,clear sky,7
Zalabér-Batyk,46.983056,17.040833,2026-03-05 07:16:27.597427,3.77,1.95,3.77,3.77,1027,87,1.99,330,0,0.0,Clear,clear sky,7
Pakod,46.959167,16.996667,2026-03-05 07:16:28.835871,3.66,1.88,3.66,3.66,1027,86,1.93,330,0,0.0,Clear,clear sky,7
Pókaszepetk,46.924444,16.972222,2026-03-05 07:16:30.076231,3.78,2.09,3.78,3.78,1027,87,1.87,327,0,0.0,Clear,clear sky,7
Kemendollár,46.905833,16.946667,2026-03-05 07:16:31.312932,3.49,1.84,3.49,3.49,1027,86,1.8,326,0,0.0,Clear,clear sky,7
Zalaegerszeg,46.833056,16.848333,2026-03-05 07:16:32.543838,3.58,2.47,3.58,3.58,1027,86,1.4,321,0,0.0,Clear,clear sky,7
Bocfölde,46.780278,16.853611,2026-03-05 07:16:33.780984,3.68,2.58,3.68,3.68,1027,86,1.4,319,0,0.0,Clear,clear sky,7
Sárhida,46.755833,16.851389,2026-03-05 07:16:35.039109,2.9,2.9,2.9,2.9,1027,86,1.3,319,0,0.0,Clear,clear sky,7
Bak,46.7325,16.849167,2026-03-05 07:16:36.278359,3.33,3.33,3.33,3.33,1027,86,1.28,318,0,0.0,Clear,clear sky,7
Tófej,46.670833,16.801944,2026-03-05 07:16:37.517842,3.22,3.22,3.22,3.22,1027,85,1.16,319,0,0.0,Clear,clear sky,7
Gutorfölde,46.646944,16.739722,2026-03-05 07:16:38.749953,3.5,3.5,3.5,3.5,1027,85,1.09,320,0,0.0,Clear,clear sky,7
Csömödér-Páka,46.608056,16.641111,2026-03-05 07:16:39.990743,3.78,3.78,3.78,3.78,1027,82,1.1,317,0,0.0,Clear,clear sky,7
Iklódbördőce,46.603056,16.604722,2026-03-05 07:16:41.243332,3.61,3.61,3.61,3.61,1027,82,1.15,315,0,0.0,Clear,clear sky,7
Lenti,46.621389,16.528611,2026-03-05 07:16:42.477833,3.76,3.76,3.76,3.76,1027,82,1.22,314,0,0.0,Clear,clear sky,7
Rédics,46.618056,16.471111,2026-03-05 07:16:43.719283,3.75,3.75,3.75,3.75,1027,82,1.25,312,0,0.0,Clear,clear sky,7
Zalalövő,46.845556,16.576389,2026-03-05 07:16:44.958737,3.4,3.4,3.4,3.4,1027,84,1.18,314,0,0.0,Clear,clear sky,7
Zalaegerszeg-Ola,46.849167,16.844722,2026-03-05 07:16:46.197364,3.58,2.47,3.58,3.58,1027,86,1.4,321,0,0.0,Clear,clear sky,7
Andráshida,46.863116,16.7792,2026-03-05 07:16:47.428786,3.53,2.43,3.53,3.53,1027,85,1.39,322,0,0.0,Clear,clear sky,7
Bagod,46.875,16.746111,2026-03-05 07:16:48.671768,3.62,3.62,3.62,3.62,1027,85,1.31,322,0,0.0,Clear,clear sky,7
Zalaszentgyörgy,46.872222,16.7125,2026-03-05 07:16:49.909675,3.57,3.57,3.57,3.57,1027,85,1.28,321,0,0.0,Clear,clear sky,7
Zalacséb-Salomvár,46.858056,16.662222,2026-03-05 07:16:51.140137,3.33,3.33,3.33,3.33,1027,84,1.26,320,0,0.0,Clear,clear sky,7
Kópháza,47.631389,16.6375,2026-03-05 07:16:52.382107,3.17,0.83,3.17,3.17,1027,84,2.4,321,1,0.0,Clear,clear sky,7
Nagycenk,47.601111,16.690278,2026-03-05 07:16:53.613341,3.32,0.95,3.32,3.32,1027,84,2.46,325,1,0.0,Clear,clear sky,7
Sopronkövesd,47.548333,16.748056,2026-03-05 07:16:54.851633,3.14,0.72,3.14,3.14,1027,85,2.48,331,1,0.0,Clear,clear sky,7
Lövő,47.509444,16.7775,2026-03-05 07:16:56.087228,3.11,0.58,3.11,3.11,1027,86,2.59,334,1,0.0,Clear,clear sky,7
Újkér,47.457778,16.786667,2026-03-05 07:16:57.329476,3.21,0.88,3.21,3.21,1027,86,2.39,337,1,0.0,Clear,clear sky,7
Bük,47.388611,16.752222,2026-03-05 07:16:58.563522,3.31,1.48,3.31,3.31,1027,85,1.93,340,0,0.0,Clear,clear sky,7
Acsád,47.308333,16.734722,2026-03-05 07:16:59.796704,3.06,1.56,3.06,3.06,1027,85,1.63,341,0,0.0,Clear,clear sky,7
Salköveskút-Vassurány,47.291389,16.704167,2026-03-05 07:17:01.035303,3.11,1.69,3.11,3.11,1027,84,1.57,341,0,0.0,Clear,clear sky,7
Zalaszentiván,46.8875,16.909444,2026-03-05 07:17:02.275671,3.66,2.27,3.66,3.66,1027,86,1.61,324,0,0.0,Clear,clear sky,7
Alsónemesapáti,46.854167,16.936389,2026-03-05 07:17:03.530703,3.75,2.21,3.75,3.75,1027,87,1.74,322,0,0.0,Clear,clear sky,7
Józsa,47.600833,21.584444,2026-03-05 07:17:04.764794,4.9,2.27,4.9,4.9,1025,83,3.16,51,43,0.0,Clouds,scattered clouds,7
Hajdúszentgyörgy,47.608056,21.578333,2026-03-05 07:17:06.007312,4.9,2.27,4.9,4.9,1025,83,3.16,51,43,0.0,Clouds,scattered clouds,7
Zelemér,47.627778,21.578333,2026-03-05 07:17:07.247034,4.93,2.18,4.93,4.93,1025,82,3.35,48,54,0.0,Clouds,broken clouds,7
Hajdúböszörmény,47.668056,21.524167,2026-03-05 07:17:08.480743,5.17,2.18,5.17,5.17,1025,80,3.8,46,74,0.0,Clouds,broken clouds,7
Hajdúvid,47.749444,21.508056,2026-03-05 07:17:09.717849,5.47,2.22,5.47,5.47,1025,77,4.4,43,86,0.0,Clouds,overcast clouds,7
Hajdúdorog,47.805556,21.493056,2026-03-05 07:17:10.955861,5.52,2.08,5.52,5.52,1025,75,4.81,41,83,0.0,Clouds,broken clouds,7
Hajdúnánás,47.831944,21.426667,2026-03-05 07:17:12.188544,5.71,2.31,5.71,5.71,1025,75,4.81,44,63,0.0,Clouds,broken clouds,7
Hajdúnánás-Vásártér,47.843056,21.407222,2026-03-05 07:17:13.427965,5.71,2.31,5.71,5.71,1025,75,4.81,44,63,0.0,Clouds,broken clouds,7
Tedej,47.903611,21.404444,2026-03-05 07:17:14.670362,5.73,2.23,5.73,5.73,1025,73,5.05,43,41,0.0,Clouds,scattered clouds,7
Tiszavasvári,47.945278,21.374722,2026-03-05 07:17:15.904215,5.76,2.36,5.76,5.76,1025,74,4.84,45,28,0.0,Clouds,scattered clouds,7
Egyházerdő,47.9725,21.365,2026-03-05 07:17:17.145802,5.77,2.41,5.77,5.77,1025,74,4.76,44,23,0.0,Clouds,few clouds,7
Tiszalök,48.013056,21.369167,2026-03-05 07:17:18.383562,5.73,2.5,5.73,5.73,1025,74,4.48,43,20,0.0,Clouds,few clouds,7
Hajnalos,47.998889,21.414167,2026-03-05 07:17:19.619002,5.72,2.28,5.72,5.72,1025,73,4.91,42,24,0.0,Clouds,few clouds,7
Kisfástanya,47.989167,21.47,2026-03-05 07:17:20.862081,5.65,2.09,5.65,5.65,1025,73,5.13,40,27,0.0,Clouds,scattered clouds,7
Tiszaeszlár,48.010556,21.491944,2026-03-05 07:17:22.094677,5.63,2.02,5.63,5.63,1025,72,5.22,38,27,0.0,Clouds,scattered clouds,7
Bashalom,48.026111,21.514722,2026-03-05 07:17:23.328731,5.64,2.1,5.64,5.64,1025,72,5.08,37,26,0.0,Clouds,scattered clouds,7
Sáránd,47.415556,21.625,2026-03-05 07:17:24.567462,5.08,3.24,5.08,5.08,1025,86,2.23,74,0,0.0,Clear,clear sky,7
Derecske,47.365,21.584167,2026-03-05 07:17:25.806806,5.25,3.53,5.25,5.25,1025,85,2.13,79,0,0.0,Clear,clear sky,7
Derecske-Vásártér,47.352222,21.58,2026-03-05 07:17:27.036948,5.25,3.53,5.25,5.25,1025,85,2.13,79,0,0.0,Clear,clear sky,7
Konyár,47.323611,21.666111,2026-03-05 07:17:28.264077,5.31,3.92,5.31,5.31,1025,84,1.82,84,4,0.0,Clear,clear sky,7
Konyári Sóstófürdő,47.324167,21.744444,2026-03-05 07:17:29.497647,5.28,4.21,5.28,5.28,1025,84,1.54,88,5,0.0,Clear,clear sky,7
Pocsaj-Esztár,47.288333,21.793056,2026-03-05 07:17:30.732095,5.26,5.26,5.26,5.26,1025,83,1.29,94,6,0.0,Clear,clear sky,7
Kismarja,47.243889,21.813889,2026-03-05 07:17:31.974329,5.28,5.28,5.28,5.28,1025,82,1.19,100,7,0.0,Clear,clear sky,7
Nagykereki,47.191667,21.8,2026-03-05 07:17:33.218072,5.25,5.25,5.25,5.25,1025,82,1.12,106,8,0.0,Clear,clear sky,7
Debrecen-Szabadságtelep,47.527778,21.658611,2026-03-05 07:17:34.455447,4.76,2.54,4.76,4.76,1025,86,2.59,59,15,0.0,Clouds,few clouds,7
Kondoroskert,47.525556,21.713889,2026-03-05 07:17:35.691171,4.88,2.84,4.88,4.88,1025,85,2.41,56,17,0.0,Clouds,few clouds,7
Nagycsere,47.523889,21.763056,2026-03-05 07:17:36.936043,4.92,2.93,4.92,4.92,1025,85,2.36,55,18,0.0,Clouds,few clouds,7
Haláp,47.521667,21.818333,2026-03-05 07:17:38.179324,4.92,2.97,4.92,4.92,1025,84,2.31,54,18,0.0,Clouds,few clouds,7
Vámospércs,47.518056,21.893889,2026-03-05 07:17:39.412854,4.93,3.2,4.93,4.93,1025,84,2.09,51,17,0.0,Clouds,few clouds,7
Szentannapuszta,47.52,21.965833,2026-03-05 07:17:40.649337,4.98,3.44,4.98,4.98,1025,83,1.91,49,17,0.0,Clouds,few clouds,7
Nyírábrány,47.523889,22.016944,2026-03-05 07:17:41.883764,4.97,3.53,4.97,4.97,1025,83,1.82,48,16,0.0,Clouds,few clouds,7
Dombostanya,47.602778,21.706389,2026-03-05 07:17:43.116663,4.89,2.36,4.89,4.89,1025,83,3.02,46,42,0.0,Clouds,scattered clouds,7
Hajdúsámson,47.608056,21.755278,2026-03-05 07:17:44.363366,4.92,2.49,4.92,4.92,1025,83,2.89,42,40,0.0,Clouds,scattered clouds,7
Tamásipuszta,47.632778,21.796111,2026-03-05 07:17:45.609373,4.91,2.36,4.91,4.91,1025,82,3.05,37,48,0.0,Clouds,scattered clouds,7
Aradványpuszta,47.662778,21.8425,2026-03-05 07:17:46.845837,4.93,2.26,4.93,4.93,1025,81,3.23,31,55,0.0,Clouds,broken clouds,7
Nyíradony,47.699444,21.903333,2026-03-05 07:17:48.077832,4.91,2.07,4.91,4.91,1025,79,3.48,21,72,0.0,Clouds,broken clouds,7
Nyírmihálydi,47.7375,21.958889,2026-03-05 07:17:49.314763,4.89,1.97,4.89,4.89,1025,78,3.6,17,79,0.0,Clouds,broken clouds,7
Nyírgelse,47.750833,21.987778,2026-03-05 07:17:50.554417,4.83,1.82,4.83,4.83,1025,78,3.71,13,85,0.0,Clouds,overcast clouds,7
Nyírbogát,47.793056,22.066389,2026-03-05 07:17:51.793255,4.86,1.83,4.86,4.86,1025,78,3.76,5,93,0.0,Clouds,overcast clouds,7
Nagykálló,47.871111,21.825833,2026-03-05 07:17:53.034228,5.19,1.5,5.19,5.19,1025,73,5.16,16,86,0.0,Clouds,overcast clouds,7
Kállósemjén,47.854722,21.935,2026-03-05 07:17:54.269678,5.08,1.57,5.08,5.08,1025,74,4.73,10,90,0.0,Clouds,overcast clouds,7
Nyírbátor,47.8425,22.131111,2026-03-05 07:17:55.498867,4.79,1.69,4.79,4.79,1025,78,3.85,1,94,0.0,Clouds,overcast clouds,7
Nyírcsászári,47.865556,22.179167,2026-03-05 07:17:56.738289,4.77,1.7,4.77,4.77,1025,78,3.8,355,91,0.0,Clouds,overcast clouds,7
Hodász,47.896111,22.213611,2026-03-05 07:17:57.969525,4.71,1.65,4.71,4.71,1025,79,3.75,351,83,0.0,Clouds,broken clouds,7
Nyírmeggyes,47.9225,22.256667,2026-03-05 07:17:59.209046,4.76,1.58,4.76,4.76,1025,78,3.97,346,66,0.0,Clouds,broken clouds,7
Mátészalka,47.951389,22.313333,2026-03-05 07:18:00.446778,4.79,1.61,4.79,4.79,1025,78,3.99,343,54,0.0,Clouds,broken clouds,7
Kocsord,47.941944,22.375833,2026-03-05 07:18:01.676947,4.82,2.0,4.82,4.82,1025,81,3.42,342,46,0.0,Clouds,scattered clouds,7
Kocsord alsó,47.946389,22.400556,2026-03-05 07:18:02.930048,4.82,2.0,4.82,4.82,1025,81,3.42,342,46,0.0,Clouds,scattered clouds,7
Győrtelek,47.936667,22.424722,2026-03-05 07:18:04.178621,4.79,2.06,4.79,4.79,1025,82,3.27,341,41,0.0,Clouds,scattered clouds,7
Győrtelek alsó,47.921111,22.443333,2026-03-05 07:18:05.421222,4.74,2.19,4.74,4.74,1025,82,3.01,342,45,0.0,Clouds,scattered clouds,7
Ököritófülpös,47.911389,22.495,2026-03-05 07:18:06.658373,4.7,2.24,4.7,4.7,1025,83,2.88,342,42,0.0,Clouds,scattered clouds,7
Porcsalma-Tyukod,47.868056,22.568333,2026-03-05 07:18:07.893521,4.6,2.57,4.6,4.6,1025,83,2.34,344,49,0.0,Clouds,scattered clouds,7
Csenger,47.826111,22.666389,2026-03-05 07:18:09.130717,4.48,2.72,4.48,4.48,1025,83,2.04,343,51,0.0,Clouds,broken clouds,7
Kisfái,46.888303,19.807366,2026-03-05 07:18:10.366102,5.86,4.59,5.86,5.86,1025,82,1.79,9,6,0.0,Clear,clear sky,7
Nyárlőrinci szőlők,46.8775,19.828333,2026-03-05 07:18:11.605026,6.02,4.77,6.02,6.02,1025,82,1.79,6,7,0.0,Clear,clear sky,7
Nyárlőrinc alsó,46.863889,19.878889,2026-03-05 07:18:12.835258,6.07,4.85,6.07,6.07,1025,82,1.77,7,7,0.0,Clear,clear sky,7
Tiszaug-Tiszahídfő,46.866106,20.052098,2026-03-05 07:18:14.070091,6.52,5.48,6.52,6.52,1025,82,1.67,11,10,0.0,Clear,clear sky,7
Csongrádi úti tanyák,46.690278,19.921667,2026-03-05 07:18:15.307135,6.49,4.93,6.49,6.49,1026,83,2.19,348,0,0.0,Clear,clear sky,7
Kettőshalom,46.689167,20.0225,2026-03-05 07:18:16.541073,6.87,5.44,6.87,6.87,1025,82,2.12,351,4,0.0,Clear,clear sky,7
Csongrád alsó,46.711389,20.126389,2026-03-05 07:18:17.775586,7.31,6.12,7.31,7.31,1025,82,1.94,357,22,0.0,Clouds,few clouds,7
Dónát,46.66988,20.368168,2026-03-05 07:18:19.011137,6.68,5.54,6.68,6.68,1025,81,1.79,3,42,0.0,Clouds,scattered clouds,7
Pusztatemplom,46.676667,20.407222,2026-03-05 07:18:20.248416,6.66,5.59,6.66,6.66,1025,81,1.72,6,32,0.0,Clouds,scattered clouds,7
Előhát,47.364722,20.653611,2026-03-05 07:18:21.495151,6.12,4.08,6.12,6.12,1025,83,2.69,95,6,0.0,Clear,clear sky,7
Polgárdi-Tekerespuszta,47.017778,18.297778,2026-03-05 07:18:22.738816,4.39,2.89,4.39,4.39,1026,83,1.79,304,0,0.0,Clear,clear sky,7
Szatina-Kishajmás,46.202778,18.083611,2026-03-05 07:18:23.976673,4.28,4.28,4.28,4.28,1026,86,1.12,330,0,0.0,Clear,clear sky,7
Márok,45.886944,18.499167,2026-03-05 07:18:25.209922,4.49,3.33,4.49,4.49,1026,85,1.53,317,0,0.0,Clear,clear sky,7
Nagynyárád,45.953333,18.564722,2026-03-05 07:18:26.448856,4.79,3.62,4.79,4.79,1026,85,1.57,332,0,0.0,Clear,clear sky,7
Szászvár,46.2875,18.369722222222222,2026-03-05 07:18:27.685624,4.61,3.46,4.61,4.61,1026,86,1.53,308,0,0.0,Clear,clear sky,7
Cikó,46.263514,18.557605,2026-03-05 07:18:28.931423,5.13,3.55,5.13,5.13,1026,85,1.97,314,0,0.0,Clear,clear sky,7
Gyöngyfa-Magyarmecske,45.983889,17.958889,2026-03-05 07:18:30.176247,4.76,3.03,4.76,4.76,1026,87,2.06,315,0,0.0,Clear,clear sky,7
Nagyhát,47.581389,21.445,2026-03-05 07:18:31.411280,5.15,2.63,5.15,5.15,1025,84,3.08,59,28,0.0,Clouds,scattered clouds,7
Balmazújváros,47.613889,21.348056,2026-03-05 07:18:32.642348,5.61,2.98,5.61,5.61,1025,82,3.38,60,30,0.0,Clouds,scattered clouds,7
Kónya,47.600833,21.2375,2026-03-05 07:18:33.879768,5.79,3.32,5.79,5.79,1025,82,3.2,66,16,0.0,Clouds,few clouds,7
Hortobágy,47.586111,21.154722,2026-03-05 07:18:35.111893,5.9,3.48,5.9,5.9,1025,83,3.16,69,12,0.0,Clouds,few clouds,7
Hortobágyi Halastó,47.604167,21.074167,2026-03-05 07:18:36.359499,6.0,3.62,6.0,6.0,1025,83,3.12,71,11,0.0,Clouds,few clouds,7
Ohat-Pusztakócs,47.623333,20.951111,2026-03-05 07:18:37.591639,6.11,3.82,6.11,6.11,1025,83,3.03,75,12,0.0,Clouds,few clouds,7
Egyek,47.616944,20.883611,2026-03-05 07:18:38.826338,6.17,4.02,6.17,6.17,1025,83,2.85,79,13,0.0,Clouds,few clouds,7
Tiszafüred,47.627778,20.756111,2026-03-05 07:18:40.055807,6.2,4.15,6.2,6.2,1025,84,2.72,83,12,0.0,Clouds,few clouds,7
Poroszló,47.657778,20.654444,2026-03-05 07:18:41.303265,6.28,4.36,6.28,6.28,1025,84,2.57,86,11,0.0,Clouds,few clouds,7
Kétútköz,47.694167,20.565,2026-03-05 07:18:42.541719,6.29,4.53,6.29,6.29,1025,84,2.38,82,9,0.0,Clear,clear sky,7
Egerfarmos,47.711667,20.5225,2026-03-05 07:18:43.776533,6.27,4.51,6.27,6.27,1025,83,2.37,82,9,0.0,Clear,clear sky,7
Piliscsaba,47.638056,18.829722,2026-03-05 07:18:45.006119,4.12,2.33,4.12,4.12,1025,83,2.01,327,0,0.0,Clear,clear sky,7
Pilisjászfalu,47.656111,18.797778,2026-03-05 07:18:46.235436,4.81,3.05,4.81,4.81,1025,83,2.1,325,0,0.0,Clear,clear sky,7
Leányvár,47.687594,18.772553,2026-03-05 07:18:47.469360,4.72,3.12,4.72,4.72,1026,84,1.93,321,0,0.0,Clear,clear sky,7
Dorog,47.723333,18.732778,2026-03-05 07:18:48.700443,4.93,3.87,4.93,4.93,1026,84,1.5,308,0,0.0,Clear,clear sky,7
Esztergom-Kertváros,47.743333,18.719167,2026-03-05 07:18:49.934293,4.96,4.96,4.96,4.96,1026,84,1.33,304,0,0.0,Clear,clear sky,7
Esztergom,47.7775,18.743611,2026-03-05 07:18:51.170592,4.66,4.66,4.66,4.66,1026,83,1.23,306,0,0.0,Clear,clear sky,7
Dunaalmás,47.733056,18.326389,2026-03-05 07:18:52.405914,4.5,3.46,4.5,4.5,1026,86,1.44,289,0,0.0,Clear,clear sky,7
Neszmély,47.734444,18.345278,2026-03-05 07:18:53.640677,4.5,3.46,4.5,4.5,1026,86,1.44,289,0,0.0,Clear,clear sky,7
Süttő,47.761111,18.455,2026-03-05 07:18:54.871768,4.61,4.61,4.61,4.61,1026,85,1.29,278,0,0.0,Clear,clear sky,7
Piszke,47.75307,18.478017,2026-03-05 07:18:56.105564,4.7,4.7,4.7,4.7,1026,85,1.28,278,0,0.0,Clear,clear sky,7
Lábatlan,47.751944,18.513333,2026-03-05 07:18:57.336913,4.74,4.74,4.74,4.74,1026,85,1.29,279,0,0.0,Clear,clear sky,7
Eternitgyár,47.755544,18.530014,2026-03-05 07:18:58.572403,4.74,4.74,4.74,4.74,1026,85,1.29,279,0,0.0,Clear,clear sky,7
Nyergesújfalu felső,47.762222,18.540556,2026-03-05 07:18:59.812610,4.74,4.74,4.74,4.74,1026,85,1.29,279,0,0.0,Clear,clear sky,7
Nyergesújfalu,47.761111,18.561667,2026-03-05 07:19:01.056466,4.74,4.74,4.74,4.74,1026,85,1.28,282,0,0.0,Clear,clear sky,7
Tokod,47.735,18.675,2026-03-05 07:19:02.298713,4.91,3.9,4.91,4.91,1026,84,1.46,304,0,0.0,Clear,clear sky,7
Környe,47.541667,18.330278,2026-03-05 07:19:03.537536,4.29,2.38,4.29,4.29,1026,87,2.16,298,0,0.0,Clear,clear sky,7
Kecskéd alsó,47.519722,18.316667,2026-03-05 07:19:04.775224,4.25,2.16,4.25,4.25,1026,87,2.34,301,0,0.0,Clear,clear sky,7
Oroszlány,47.486944,18.308611,2026-03-05 07:19:06.014182,4.17,1.96,4.17,4.17,1026,87,2.45,304,0,0.0,Clear,clear sky,7
Győrszabadhegy,47.663056,17.648056,2026-03-05 07:19:07.249336,3.79,2.27,3.79,3.79,1027,90,1.73,329,6,0.0,Clear,clear sky,7
Ménfőcsanak felső,47.638333,17.615,2026-03-05 07:19:08.492065,3.83,2.47,3.83,3.83,1027,90,1.61,330,6,0.0,Clear,clear sky,7
Gyömöre-Tét,47.501672,17.559596,2026-03-05 07:19:09.734745,3.56,3.56,3.56,3.56,1027,90,1.26,333,5,0.0,Clear,clear sky,7
Szerecseny,47.469167,17.5475,2026-03-05 07:19:10.972659,3.56,3.56,3.56,3.56,1027,90,1.21,333,5,0.0,Clear,clear sky,7
Gecse-Gyarmat,47.456111,17.515,2026-03-05 07:19:12.208550,3.44,3.44,3.44,3.44,1027,90,1.29,337,5,0.0,Clear,clear sky,7
Vaszar,47.4025,17.496389,2026-03-05 07:19:13.445725,3.33,3.33,3.33,3.33,1027,90,1.3,342,5,0.0,Clear,clear sky,7
Pápa,47.340556,17.458889,2026-03-05 07:19:14.675092,3.36,2.21,3.36,3.36,1027,90,1.41,345,5,0.0,Clear,clear sky,7
Mezőlak,47.324722,17.371389,2026-03-05 07:19:15.910805,3.52,1.97,3.52,3.52,1027,90,1.72,345,3,0.0,Clear,clear sky,7
Mihályháza,47.318889,17.331667,2026-03-05 07:19:17.146654,3.56,1.88,3.56,3.56,1027,90,1.83,344,2,0.0,Clear,clear sky,7
Vinár,47.306667,17.284722,2026-03-05 07:19:18.383126,3.62,1.83,3.62,3.62,1027,89,1.94,343,2,0.0,Clear,clear sky,7
Külsővat,47.279167,17.219722,2026-03-05 07:19:19.623665,3.65,1.56,3.65,3.65,1027,89,2.23,341,2,0.0,Clear,clear sky,7
Celldömölk,47.261389,17.151944,2026-03-05 07:19:20.858574,3.67,1.49,3.67,3.67,1027,89,2.32,340,2,0.0,Clear,clear sky,7
Kemenesmihályfa,47.278056,17.111111,2026-03-05 07:19:22.101134,3.27,0.94,3.27,3.27,1027,89,2.4,340,3,0.0,Clear,clear sky,7
Nagysimonyi,47.265556,17.058889,2026-03-05 07:19:23.339889,3.36,1.08,3.36,3.36,1027,88,2.37,340,4,0.0,Clear,clear sky,7
Ostffyasszonyfa,47.283889,17.023889,2026-03-05 07:19:24.572340,3.43,1.12,3.43,3.43,1027,88,2.41,340,4,0.0,Clear,clear sky,7
Sárvár,47.259167,16.928889,2026-03-05 07:19:25.806774,3.5,1.43,3.5,3.5,1027,86,2.18,342,3,0.0,Clear,clear sky,7
Porpác,47.238611,16.8325,2026-03-05 07:19:27.041045,3.43,1.58,3.43,3.43,1027,85,1.96,343,1,0.0,Clear,clear sky,7
Balatonföldvár,46.853889,17.881389,2026-03-05 07:19:28.275223,4.15,3.0,4.15,4.15,1026,84,1.48,291,0,0.0,Clear,clear sky,7
Balatonszárszó,46.832222,17.830278,2026-03-05 07:19:29.517262,4.18,3.09,4.18,4.18,1026,85,1.44,289,0,0.0,Clear,clear sky,7
Balatonszemes,46.811944,17.776389,2026-03-05 07:19:30.755194,4.19,3.11,4.19,4.19,1026,86,1.44,291,0,0.0,Clear,clear sky,7
Balatonlelle felső,46.793889,17.7175,2026-03-05 07:19:31.995794,4.16,2.94,4.16,4.16,1026,86,1.54,297,0,0.0,Clear,clear sky,7
Balatonlelle,46.7875,17.694167,2026-03-05 07:19:33.232966,4.18,2.84,4.18,4.18,1026,87,1.63,301,0,0.0,Clear,clear sky,7
Fonyódliget,46.759167,17.592222,2026-03-05 07:19:34.475000,4.16,2.54,4.16,4.16,1026,87,1.86,309,0,0.0,Clear,clear sky,7
Balatonboglár,46.776111,17.647222,2026-03-05 07:19:35.715852,4.16,2.68,4.16,4.16,1026,87,1.74,305,0,0.0,Clear,clear sky,7
Balatonfenyves alsó,46.708611,17.455278,2026-03-05 07:19:36.953648,4.09,1.87,4.09,4.09,1027,89,2.45,321,0,0.0,Clear,clear sky,7
Fonyód,46.750278,17.558889,2026-03-05 07:19:38.187864,4.14,2.24,4.14,4.14,1027,88,2.12,315,0,0.0,Clear,clear sky,7
Bélatelep,46.737778,17.535,2026-03-05 07:19:39.422750,4.13,2.1,4.13,4.13,1027,88,2.25,318,0,0.0,Clear,clear sky,7
Alsóbélatelep,46.724167,17.516389,2026-03-05 07:19:40.663350,4.13,2.1,4.13,4.13,1027,88,2.25,318,0,0.0,Clear,clear sky,7
Balatonfenyves,46.713611,17.482778,2026-03-05 07:19:41.901659,4.09,1.96,4.09,4.09,1027,88,2.35,319,0,0.0,Clear,clear sky,7
Máriahullámtelep,46.704722,17.435,2026-03-05 07:19:43.135276,4.09,1.87,4.09,4.09,1027,89,2.45,321,0,0.0,Clear,clear sky,7
Balatonmáriafürdő,46.704167,17.374722,2026-03-05 07:19:44.371861,4.04,1.67,4.04,4.04,1027,89,2.61,325,0,0.0,Clear,clear sky,7
