station_name,station_lat,station_lon,observation_time,temp,feels_like,temp_min,temp_max,pressure,humidity,wind_speed,wind_deg,clouds,precipitation_1h,weather_main,weather_description,collection_hour
Búcsúszentlászló,46.793056,16.932778,2026-03-08 09:37:52.700582,13.06,11.78,13.06,13.06,1028,52,2.51,108,4,0.0,Clear,clear sky,9
Angyalföld,47.549722,19.09,2026-03-08 09:37:53.902261,13.83,12.34,13.83,13.83,1028,41,1.69,98,0,0.0,Clear,clear sky,9
Felsőjánosfa,46.841389,16.544167,2026-03-08 09:37:55.105219,12.9,11.66,12.9,12.9,1028,54,1.65,109,11,0.0,Clouds,few clouds,9
Pankasz,46.835833,16.496111,2026-03-08 09:37:56.313274,12.59,11.34,12.59,12.59,1028,55,1.68,108,11,0.0,Clouds,few clouds,9
Nagyrákos,46.827222,16.455556,2026-03-08 09:37:57.515247,12.55,11.3,12.55,12.55,1028,55,1.7,107,12,0.0,Clouds,few clouds,9
Őriszentpéter,46.828889,16.415278,2026-03-08 09:37:58.719066,12.65,11.41,12.65,12.65,1028,55,1.71,107,12,0.0,Clouds,few clouds,9
Törökbálint,47.45,18.908611,2026-03-08 09:37:59.920025,13.74,12.24,13.74,13.74,1028,41,2.43,97,0,0.0,Clear,clear sky,9
Bicske alsó,47.486389,18.642778,2026-03-08 09:38:01.132963,13.85,12.44,13.85,13.85,1028,44,2.86,116,0,0.0,Clear,clear sky,9
Bajánsenye,46.818056,16.358056,2026-03-08 09:38:02.338769,12.75,11.52,12.75,12.75,1028,55,1.75,105,13,0.0,Clouds,few clouds,9
Aquincum,47.566218,19.048273,2026-03-08 09:38:03.537936,13.43,11.9,13.43,13.43,1028,41,1.71,102,0,0.0,Clear,clear sky,9
Piliscsév,47.673889,18.791389,2026-03-08 09:38:04.755817,13.37,11.91,13.37,13.37,1028,44,1.77,126,1,0.0,Clear,clear sky,9
Tát,47.741201,18.64783,2026-03-08 09:38:05.957609,13.76,12.37,13.76,13.76,1028,45,1.59,139,2,0.0,Clear,clear sky,9
Süttő felső,47.756667,18.437222,2026-03-08 09:38:07.158278,13.66,12.26,13.66,13.66,1028,45,1.73,140,1,0.0,Clear,clear sky,9
Budatétény,47.405,19.016389,2026-03-08 09:38:08.361352,13.72,12.19,13.72,13.72,1028,40,2.3,91,0,0.0,Clear,clear sky,9
Seregélyes-Szőlőhegy,47.119444,18.612222,2026-03-08 09:38:09.561863,14.09,12.65,14.09,14.09,1028,42,3.05,91,0,0.0,Clear,clear sky,9
Gödöllő-Állami telepek,47.564444,19.375556,2026-03-08 09:38:10.755986,13.21,11.74,13.21,13.21,1028,44,2.02,101,1,0.0,Clear,clear sky,9
Dunakeszi alsó,47.607778,19.128889,2026-03-08 09:38:11.951047,13.78,12.31,13.78,13.78,1028,42,1.61,105,1,0.0,Clear,clear sky,9
Vác-Alsóváros,47.773056,19.149722,2026-03-08 09:38:13.153100,13.55,12.16,13.55,13.55,1028,46,1.62,118,3,0.0,Clear,clear sky,9
Szob alsó,47.816667,18.8725,2026-03-08 09:38:14.360772,13.7,12.33,13.7,13.7,1028,46,1.5,125,1,0.0,Clear,clear sky,9
Zalaszentmihály-Pacsa,46.7225,16.951944,2026-03-08 09:38:15.561936,13.04,11.76,13.04,13.04,1028,52,2.56,102,3,0.0,Clear,clear sky,9
Pötréte,46.682778,16.9575,2026-03-08 09:38:16.758567,13.07,11.79,13.07,13.07,1028,52,2.56,96,3,0.0,Clear,clear sky,9
Felsőrajk,46.667222,16.982778,2026-03-08 09:38:17.958140,13.01,11.72,13.01,13.01,1028,52,2.63,95,2,0.0,Clear,clear sky,9
Gelse,46.600556,16.982778,2026-03-08 09:38:19.157149,13.06,11.78,13.06,13.06,1028,52,2.58,85,2,0.0,Clear,clear sky,9
Őrtilos,46.297778,16.887778,2026-03-08 09:38:20.359154,13.4,12.15,13.4,13.4,1027,52,2.03,68,1,0.0,Clear,clear sky,9
Zákány,46.251944,16.9425,2026-03-08 09:38:21.567498,13.23,11.91,13.23,13.23,1027,50,2.03,71,0,0.0,Clear,clear sky,9
Berzence,46.201389,17.143611,2026-03-08 09:38:22.764054,13.61,12.28,13.61,13.61,1027,48,1.85,81,0,0.0,Clear,clear sky,9
Somogyudvarhely,46.163333,17.179722,2026-03-08 09:38:23.965619,13.62,12.26,13.62,13.62,1027,47,1.8,83,0,0.0,Clear,clear sky,9
Bélavár,46.122778,17.207778,2026-03-08 09:38:25.161176,13.74,12.4,13.74,13.74,1027,47,1.74,85,0,0.0,Clear,clear sky,9
Vízvár,46.101389,17.239444,2026-03-08 09:38:26.365846,13.69,12.34,13.69,13.69,1027,47,1.73,86,0,0.0,Clear,clear sky,9
Babócsa,46.028359,17.342276,2026-03-08 09:38:27.567186,13.8,12.49,13.8,13.8,1027,48,1.79,89,0,0.0,Clear,clear sky,9
Péterhida-Komlósd,46.006667,17.358056,2026-03-08 09:38:28.765310,13.9,12.6,13.9,13.9,1027,48,1.85,89,0,0.0,Clear,clear sky,9
Barcs,45.951944,17.446944,2026-03-08 09:38:29.967580,13.94,12.7,13.94,13.94,1027,50,2.09,89,0,0.0,Clear,clear sky,9
Barcs felső,45.958333,17.486389,2026-03-08 09:38:31.164055,13.86,12.61,13.86,13.86,1027,50,2.11,91,0,0.0,Clear,clear sky,9
Középrigóc,45.970556,17.525,2026-03-08 09:38:32.360155,13.77,12.51,13.77,13.77,1027,50,2.13,93,0,0.0,Clear,clear sky,9
Darány,45.992222,17.598611,2026-03-08 09:38:33.557744,13.78,12.55,13.78,13.78,1027,51,2.18,101,0,0.0,Clear,clear sky,9
Kisdobsza,46.012222,17.668056,2026-03-08 09:38:34.756831,13.86,12.66,13.86,13.86,1027,52,2.22,105,0,0.0,Clear,clear sky,9
Nemeske,46.023333,17.705278,2026-03-08 09:38:35.965458,13.89,12.69,13.89,13.89,1027,52,2.27,106,0,0.0,Clear,clear sky,9
Molvány,46.035278,17.748611,2026-03-08 09:38:37.166561,13.9,12.7,13.9,13.9,1027,52,2.27,107,0,0.0,Clear,clear sky,9
Szigetvár,46.043333,17.801944,2026-03-08 09:38:38.363115,13.89,12.69,13.89,13.89,1027,52,2.3,107,0,0.0,Clear,clear sky,9
Nagypeterd,46.039444,17.871667,2026-03-08 09:38:39.565307,13.96,12.77,13.96,13.96,1027,52,2.33,108,0,0.0,Clear,clear sky,9
Szentdénes,46.036667,17.926944,2026-03-08 09:38:40.759834,13.94,12.75,13.94,13.94,1027,52,2.34,107,0,0.0,Clear,clear sky,9
Háros,47.412222,19.035,2026-03-08 09:38:41.959445,13.72,12.19,13.72,13.72,1028,40,2.3,91,0,0.0,Clear,clear sky,9
Nagytétény-Diósd,47.398333,18.974444,2026-03-08 09:38:43.157234,14.11,12.65,14.11,14.11,1028,41,2.46,92,0,0.0,Clear,clear sky,9
Érdliget,47.390278,18.937778,2026-03-08 09:38:44.353174,14.07,12.6,14.07,14.07,1028,41,2.53,93,0,0.0,Clear,clear sky,9
Érd felső,47.381111,18.922222,2026-03-08 09:38:45.557272,13.8,12.31,13.8,13.8,1028,41,2.61,94,0,0.0,Clear,clear sky,9
Érd,47.369722,18.900833,2026-03-08 09:38:46.760996,13.98,12.5,13.98,13.98,1028,41,2.68,93,0,0.0,Clear,clear sky,9
Százhalombatta,47.322222,18.899167,2026-03-08 09:38:47.959142,14.03,12.59,14.03,14.03,1028,42,2.82,92,0,0.0,Clear,clear sky,9
Dunai Finomító,47.294444,18.878889,2026-03-08 09:38:49.158998,13.93,12.48,13.93,13.93,1028,42,2.94,93,0,0.0,Clear,clear sky,9
Ercsi,47.247222,18.875278,2026-03-08 09:38:50.359985,14.07,12.63,14.07,14.07,1028,42,2.96,92,0,0.0,Clear,clear sky,9
Iváncsa,47.177778,18.811944,2026-03-08 09:38:51.558482,14.06,12.62,14.06,14.06,1028,42,3.03,91,0,0.0,Clear,clear sky,9
Pusztaszabolcs,47.139722,18.761667,2026-03-08 09:38:52.757195,14.13,12.67,14.13,14.13,1028,41,3.04,90,0,0.0,Clear,clear sky,9
Szabadegyháza,47.082778,18.704167,2026-03-08 09:38:53.965333,14.12,12.66,14.12,14.12,1028,41,3.05,90,0,0.0,Clear,clear sky,9
Sárosd,47.039722,18.660278,2026-03-08 09:38:55.161773,14.15,12.72,14.15,14.15,1028,42,3.05,90,0,0.0,Clear,clear sky,9
Nagylók,46.979444,18.635833,2026-03-08 09:38:56.378568,14.03,12.61,14.03,14.03,1028,43,3.03,91,0,0.0,Clear,clear sky,9
Sárbogárd,46.896944,18.611944,2026-03-08 09:38:57.585315,14.24,12.87,14.24,14.24,1028,44,3.01,92,0,0.0,Clear,clear sky,9
Rétszilas,46.814167,18.601389,2026-03-08 09:38:58.788215,14.3,12.99,14.3,14.3,1028,46,2.99,94,0,0.0,Clear,clear sky,9
Nagyatád,46.228611,17.354167,2026-03-08 09:38:59.991713,13.64,12.26,13.64,13.64,1027,46,1.83,86,1,0.0,Clear,clear sky,9
Budapest-Keleti,47.500278,19.084167,2026-03-08 09:39:01.186742,13.83,12.31,13.83,13.83,1028,40,1.92,94,0,0.0,Clear,clear sky,9
Ferencváros,47.468611,19.088056,2026-03-08 09:39:02.383209,13.94,12.43,13.94,13.94,1028,40,2.02,93,0,0.0,Clear,clear sky,9
Budapest-Nyugati,47.510833,19.0575,2026-03-08 09:39:03.577903,13.84,12.32,13.84,13.84,1028,40,1.82,96,0,0.0,Clear,clear sky,9
Kőbánya felső,47.491944,19.133889,2026-03-08 09:39:04.784702,13.85,12.34,13.85,13.85,1028,40,1.86,92,0,0.0,Clear,clear sky,9
Rákos,47.488889,19.174722,2026-03-08 09:39:05.997337,13.83,12.34,13.83,13.83,1028,41,1.88,92,0,0.0,Clear,clear sky,9
Rákosrendező,47.525556,19.089444,2026-03-08 09:39:07.196654,13.85,12.34,13.85,13.85,1028,40,1.77,95,0,0.0,Clear,clear sky,9
Zugló,47.511389,19.101389,2026-03-08 09:39:08.393654,13.85,12.34,13.85,13.85,1028,40,1.77,95,0,0.0,Clear,clear sky,9
Mezőtárkány,47.725,20.480278,2026-03-08 09:39:09.588125,12.11,10.32,12.11,12.11,1028,36,3.48,63,5,0.0,Clear,clear sky,9
Istvántelek,47.550278,19.106389,2026-03-08 09:39:10.799863,13.83,12.34,13.83,13.83,1028,41,1.69,98,0,0.0,Clear,clear sky,9
Rákospalota-Újpest,47.565833,19.111944,2026-03-08 09:39:12.003050,13.79,12.3,13.79,13.79,1028,41,1.63,101,0,0.0,Clear,clear sky,9
Kőbánya alsó,47.483056,19.127222,2026-03-08 09:39:13.200383,13.85,12.34,13.85,13.85,1028,40,1.86,92,0,0.0,Clear,clear sky,9
Kőbánya-Kispest,47.463889,19.149444,2026-03-08 09:39:14.403397,13.89,12.38,13.89,13.89,1028,40,1.97,91,0,0.0,Clear,clear sky,9
Pestszentlőrinc,47.454722,19.182778,2026-03-08 09:39:15.597612,13.9,12.39,13.9,13.9,1028,40,2.1,89,0,0.0,Clear,clear sky,9
Kispest,47.448135,19.157552,2026-03-08 09:39:16.799974,13.95,12.45,13.95,13.95,1028,40,2.08,89,0,0.0,Clear,clear sky,9
Újpest,47.558889,19.079722,2026-03-08 09:39:18.005011,13.85,12.36,13.85,13.85,1028,41,1.73,99,0,0.0,Clear,clear sky,9
Pestszentimre felső,47.413611,19.173333,2026-03-08 09:39:19.214561,13.93,12.42,13.93,13.93,1028,40,2.21,88,0,0.0,Clear,clear sky,9
Dunakeszi,47.626111,19.136111,2026-03-08 09:39:20.408480,13.69,12.21,13.69,13.69,1028,42,1.59,109,1,0.0,Clear,clear sky,9
Dunakeszi-Gyártelep,47.643611,19.135,2026-03-08 09:39:21.602808,13.72,12.27,13.72,13.72,1028,43,1.59,113,1,0.0,Clear,clear sky,9
Alsógöd,47.676944,19.134444,2026-03-08 09:39:22.796423,13.7,12.25,13.7,13.7,1028,43,1.6,116,1,0.0,Clear,clear sky,9
Göd,47.687778,19.1375,2026-03-08 09:39:23.997068,13.7,12.25,13.7,13.7,1028,43,1.6,116,1,0.0,Clear,clear sky,9
Felsőgöd,47.705556,19.143333,2026-03-08 09:39:25.198023,13.75,12.33,13.75,13.75,1028,44,1.61,118,2,0.0,Clear,clear sky,9
Sződ-Sződliget,47.728056,19.154722,2026-03-08 09:39:26.404780,13.74,12.34,13.74,13.74,1028,45,1.62,119,2,0.0,Clear,clear sky,9
Vác,47.782778,19.133056,2026-03-08 09:39:27.608210,13.55,12.16,13.55,13.55,1028,46,1.62,118,3,0.0,Clear,clear sky,9
Verőce,47.823889,19.029444,2026-03-08 09:39:28.803928,12.83,11.4,12.83,12.83,1028,47,1.59,114,1,0.0,Clear,clear sky,9
Kismaros,47.8275,19.010278,2026-03-08 09:39:30.008465,12.07,10.56,12.07,12.07,1028,47,1.57,115,1,0.0,Clear,clear sky,9
Nagymaros-Visegrád,47.791389,18.959167,2026-03-08 09:39:31.218116,12.55,11.06,12.55,12.55,1028,46,1.51,119,1,0.0,Clear,clear sky,9
Nagymaros,47.780278,18.952222,2026-03-08 09:39:32.420133,12.55,11.06,12.55,12.55,1028,46,1.51,119,1,0.0,Clear,clear sky,9
Zebegény,47.801389,18.908889,2026-03-08 09:39:33.620771,13.24,11.82,13.24,13.24,1028,46,1.51,120,1,0.0,Clear,clear sky,9
Szob,47.821111,18.861944,2026-03-08 09:39:34.825242,13.1,11.67,13.1,13.1,1028,46,1.51,124,1,0.0,Clear,clear sky,9
Alagimajor,47.601944,19.153889,2026-03-08 09:39:36.024049,13.78,12.31,13.78,13.78,1028,42,1.61,105,1,0.0,Clear,clear sky,9
Fót,47.611389,19.181667,2026-03-08 09:39:37.229917,13.52,12.02,13.52,13.52,1028,42,1.62,110,1,0.0,Clear,clear sky,9
Fótújfalu,47.615,19.192778,2026-03-08 09:39:38.424662,13.52,12.02,13.52,13.52,1028,42,1.62,110,1,0.0,Clear,clear sky,9
Csomád,47.635556,19.222778,2026-03-08 09:39:39.627411,12.76,11.21,12.76,12.76,1028,43,1.65,110,2,0.0,Clear,clear sky,9
Veresegyház,47.649167,19.288611,2026-03-08 09:39:40.822881,13.35,11.89,13.35,13.35,1028,44,1.77,115,3,0.0,Clear,clear sky,9
Erdőkertes,47.662222,19.295833,2026-03-08 09:39:42.022115,13.35,11.89,13.35,13.35,1028,44,1.77,115,3,0.0,Clear,clear sky,9
Őrbottyán,47.685833,19.283611,2026-03-08 09:39:43.217775,13.15,11.67,13.15,13.15,1028,44,1.76,118,3,0.0,Clear,clear sky,9
Váchartyán,47.725833,19.248889,2026-03-08 09:39:44.415031,13.18,11.73,13.18,13.18,1028,45,1.7,122,4,0.0,Clear,clear sky,9
Magyarkút-Verőce,47.826111,19.044444,2026-03-08 09:39:45.611006,12.83,11.4,12.83,12.83,1028,47,1.59,114,1,0.0,Clear,clear sky,9
Szokolya,47.871111,19.030556,2026-03-08 09:39:46.806754,12.07,10.59,12.07,12.07,1028,48,1.65,109,2,0.0,Clear,clear sky,9
Berkenye,47.885278,19.071944,2026-03-08 09:39:48.001413,12.78,11.37,12.78,12.78,1028,48,1.65,108,2,0.0,Clear,clear sky,9
Nógrád,47.901944,19.0475,2026-03-08 09:39:49.202964,12.39,10.96,12.39,12.39,1028,49,1.69,107,3,0.0,Clear,clear sky,9
Diósjenő,47.94,19.049444,2026-03-08 09:39:50.403492,11.98,10.51,11.98,11.98,1028,49,1.73,106,3,0.0,Clear,clear sky,9
Borsosberény,47.971389,19.093056,2026-03-08 09:39:51.600875,12.64,11.27,12.64,12.64,1028,50,1.64,99,4,0.0,Clear,clear sky,9
Nagyoroszi,47.993611,19.101111,2026-03-08 09:39:52.797982,12.45,11.06,12.45,12.45,1028,50,1.69,99,4,0.0,Clear,clear sky,9
Drégelyvár,48.001944,19.079444,2026-03-08 09:39:53.993857,12.67,11.3,12.67,12.67,1028,50,1.82,103,4,0.0,Clear,clear sky,9
Drégely,48.042222,19.056111,2026-03-08 09:39:55.194326,13.01,11.67,13.01,13.01,1028,50,1.87,104,4,0.0,Clear,clear sky,9
Drégelypalánk,48.055,19.046111,2026-03-08 09:39:56.411655,13.13,11.8,13.13,13.13,1028,50,1.91,108,4,0.0,Clear,clear sky,9
Ipolyvece,48.056944,19.106389,2026-03-08 09:39:57.611600,13.09,11.76,13.09,13.09,1028,50,1.83,102,5,0.0,Clear,clear sky,9
Dejtár,48.045556,19.196389,2026-03-08 09:39:58.811727,13.02,11.68,13.02,13.02,1028,50,1.65,96,5,0.0,Clear,clear sky,9
Ipolyszög,48.054444,19.221944,2026-03-08 09:40:00.006296,13.01,11.67,13.01,13.01,1028,50,1.65,96,5,0.0,Clear,clear sky,9
Iklad-Domony,47.658056,19.444444,2026-03-08 09:40:01.202971,13.56,12.15,13.56,13.56,1028,45,1.88,110,4,0.0,Clear,clear sky,9
Iklad-Domony felső,47.667778,19.428056,2026-03-08 09:40:02.408839,13.51,12.09,13.51,13.51,1028,45,1.79,115,4,0.0,Clear,clear sky,9
Galgamácsa,47.693889,19.3925,2026-03-08 09:40:03.611270,13.21,11.76,13.21,13.21,1028,45,1.73,120,4,0.0,Clear,clear sky,9
Vácrátót,47.732778,19.217778,2026-03-08 09:40:04.814421,13.44,12.01,13.44,13.44,1028,45,1.67,121,3,0.0,Clear,clear sky,9
Csörög,47.735833,19.196389,2026-03-08 09:40:06.011882,13.68,12.28,13.68,13.68,1028,45,1.65,120,3,0.0,Clear,clear sky,9
Galgagyörk,47.735278,19.372222,2026-03-08 09:40:07.208437,13.25,11.83,13.25,13.25,1028,46,1.68,122,5,0.0,Clear,clear sky,9
Püspökhatvan,47.768611,19.366944,2026-03-08 09:40:08.401605,13.2,11.78,13.2,13.2,1028,46,1.51,124,6,0.0,Clear,clear sky,9
Acsa-Erdőkürt,47.801111,19.386111,2026-03-08 09:40:09.600290,13.01,11.59,13.01,13.01,1028,47,1.39,124,6,0.0,Clear,clear sky,9
Galgaguta,47.848611,19.385556,2026-03-08 09:40:10.805366,12.65,11.2,12.65,12.65,1028,47,1.15,119,6,0.0,Clear,clear sky,9
Nógrádkövesd,47.879444,19.371111,2026-03-08 09:40:12.009130,12.78,11.37,12.78,12.78,1028,48,1.04,114,6,0.0,Clear,clear sky,9
Magyarnándor,47.970833,19.356667,2026-03-08 09:40:13.207807,12.55,11.14,12.55,12.55,1028,49,1.0,93,6,0.0,Clear,clear sky,9
Mohora,47.995556,19.347778,2026-03-08 09:40:14.406354,12.63,11.23,12.63,12.63,1028,49,1.05,89,6,0.0,Clear,clear sky,9
Szügy,48.036389,19.333056,2026-03-08 09:40:15.604412,12.79,11.43,12.79,12.79,1028,50,1.22,86,6,0.0,Clear,clear sky,9
Balassagyarmat,48.071111,19.293611,2026-03-08 09:40:16.803026,12.88,11.53,12.88,12.88,1028,50,1.41,90,6,0.0,Clear,clear sky,9
Őrhalom,48.078773,19.403936,2026-03-08 09:40:18.000716,12.54,11.13,12.54,12.54,1028,49,1.27,77,8,0.0,Clear,clear sky,9
Hugyag,48.083056,19.421111,2026-03-08 09:40:19.203947,12.54,11.13,12.54,12.54,1028,49,1.27,77,8,0.0,Clear,clear sky,9
Szécsény,48.093056,19.521111,2026-03-08 09:40:20.410679,12.69,11.29,12.69,12.69,1028,49,1.22,67,8,0.0,Clear,clear sky,9
Ludányhalászi,48.1325,19.529444,2026-03-08 09:40:21.622246,12.6,11.2,12.6,12.6,1028,49,1.48,70,9,0.0,Clear,clear sky,9
Nógrádszakál,48.178333,19.521667,2026-03-08 09:40:22.835202,12.52,11.11,12.52,12.52,1028,49,1.57,72,9,0.0,Clear,clear sky,9
Ráróspuszta,48.207222,19.541389,2026-03-08 09:40:24.036103,11.91,10.44,11.91,11.91,1028,49,1.71,78,10,0.0,Clear,clear sky,9
Litke,48.215833,19.598611,2026-03-08 09:40:25.233915,12.35,10.92,12.35,12.35,1028,49,1.64,73,11,0.0,Clouds,few clouds,9
Nyíregyháza külső,47.943056,21.740278,2026-03-08 09:40:26.433439,12.1,10.49,12.1,12.1,1029,43,3.18,47,2,0.0,Clear,clear sky,9
Oros,47.945833,21.806389,2026-03-08 09:40:27.632328,12.21,10.58,12.21,12.21,1029,42,3.1,48,2,0.0,Clear,clear sky,9
Napkor,47.948889,21.873056,2026-03-08 09:40:28.834661,12.26,10.64,12.26,12.26,1029,42,2.96,49,2,0.0,Clear,clear sky,9
Apagy,47.953775,21.939044,2026-03-08 09:40:30.031550,12.31,10.69,12.31,12.31,1029,42,2.93,50,2,0.0,Clear,clear sky,9
Levelek-Magy,47.948056,21.993611,2026-03-08 09:40:31.233139,12.36,10.75,12.36,12.36,1029,42,2.88,52,2,0.0,Clear,clear sky,9
Ófehértó,47.940556,22.041389,2026-03-08 09:40:32.437639,12.37,10.76,12.37,12.37,1029,42,2.89,53,2,0.0,Clear,clear sky,9
Ligettanya,47.951667,22.071389,2026-03-08 09:40:33.641832,12.33,10.74,12.33,12.33,1029,43,2.78,54,3,0.0,Clear,clear sky,9
Baktalórántháza,47.988611,22.083333,2026-03-08 09:40:34.844011,12.3,10.71,12.3,12.3,1029,43,2.73,54,3,0.0,Clear,clear sky,9
Vaja-Rohod,48.006389,22.164167,2026-03-08 09:40:36.043094,12.36,10.8,12.36,12.36,1029,44,2.59,55,3,0.0,Clear,clear sky,9
Rákóczitanya,48.022222,22.178333,2026-03-08 09:40:37.244417,12.38,10.85,12.38,12.38,1029,45,2.54,55,4,0.0,Clear,clear sky,9
Nyírmada,48.059167,22.203056,2026-03-08 09:40:38.444621,12.31,10.77,12.31,12.31,1029,45,2.43,53,4,0.0,Clear,clear sky,9
Tunyogmatolcs,47.960244,22.442247,2026-03-08 09:40:39.649935,12.98,11.53,12.98,12.98,1029,46,2.3,59,5,0.0,Clear,clear sky,9
Tunyogmatolcs alsó,47.966025,22.464713,2026-03-08 09:40:40.858607,13.01,11.57,13.01,13.01,1029,46,2.24,59,6,0.0,Clear,clear sky,9
Fehérgyarmat,47.979167,22.524444,2026-03-08 09:40:42.061547,13.07,11.63,13.07,13.07,1029,46,2.03,57,7,0.0,Clear,clear sky,9
Penyige,47.995278,22.566944,2026-03-08 09:40:43.273000,13.12,11.69,13.12,13.12,1029,46,1.97,57,7,0.0,Clear,clear sky,9
Nagyszekeres,47.976111,22.6125,2026-03-08 09:40:44.475138,13.16,11.73,13.16,13.16,1029,46,1.92,56,8,0.0,Clear,clear sky,9
Kisszekeres,47.965833,22.629444,2026-03-08 09:40:45.686848,13.18,11.75,13.18,13.18,1029,46,1.99,57,8,0.0,Clear,clear sky,9
Jánkmajtis,47.941944,22.657222,2026-03-08 09:40:46.887629,13.25,11.81,13.25,13.25,1029,45,2.02,57,8,0.0,Clear,clear sky,9
Gacsály,47.926111,22.745,2026-03-08 09:40:48.086045,13.33,11.89,13.33,13.33,1029,45,1.86,57,9,0.0,Clear,clear sky,9
Zajta,47.9025,22.796111,2026-03-08 09:40:49.282461,13.39,11.96,13.39,13.39,1029,45,1.91,58,9,0.0,Clear,clear sky,9
Eperjeske alsó,48.360556,22.19,2026-03-08 09:40:50.484026,11.92,10.39,11.92,11.92,1029,47,1.42,16,6,0.0,Clear,clear sky,9
Mándok,48.326944,22.196389,2026-03-08 09:40:51.680277,11.95,10.43,11.95,11.95,1029,47,1.57,26,5,0.0,Clear,clear sky,9
Tornyospálca,48.268333,22.201944,2026-03-08 09:40:52.881718,12.06,10.55,12.06,12.06,1029,47,1.76,35,5,0.0,Clear,clear sky,9
Aranyosapáti,48.211303,22.253534,2026-03-08 09:40:54.080212,12.3,10.79,12.3,12.3,1029,46,1.86,45,5,0.0,Clear,clear sky,9
Gyüre,48.171389,22.269167,2026-03-08 09:40:55.275589,12.37,10.86,12.37,12.37,1029,46,2.06,49,5,0.0,Clear,clear sky,9
Varsány,48.151722,22.290047,2026-03-08 09:40:56.470157,12.46,10.96,12.46,12.46,1029,46,2.11,52,5,0.0,Clear,clear sky,9
Vásárosnamény,48.126667,22.306111,2026-03-08 09:40:57.668828,12.52,11.03,12.52,12.52,1029,46,2.18,53,5,0.0,Clear,clear sky,9
Vitka,48.095556,22.308056,2026-03-08 09:40:58.866118,12.56,11.07,12.56,12.56,1029,46,2.24,54,5,0.0,Clear,clear sky,9
Nagydobos,48.054167,22.311111,2026-03-08 09:41:00.071260,12.53,11.04,12.53,12.53,1029,46,2.29,55,5,0.0,Clear,clear sky,9
Ópályi,47.997778,22.318333,2026-03-08 09:41:01.274571,12.67,11.19,12.67,12.67,1029,46,2.43,58,4,0.0,Clear,clear sky,9
Nyírcsaholy,47.908056,22.348333,2026-03-08 09:41:02.476084,12.91,11.46,12.91,12.91,1029,46,2.58,60,4,0.0,Clear,clear sky,9
Nagyecsed,47.864722,22.385556,2026-03-08 09:41:03.681862,13.06,11.62,13.06,13.06,1029,46,2.63,61,5,0.0,Clear,clear sky,9
Tiborszállás,47.815278,22.402778,2026-03-08 09:41:04.882998,13.12,11.66,13.12,13.12,1029,45,2.75,62,4,0.0,Clear,clear sky,9
Kiskunhalas,46.434444,19.493611,2026-03-08 09:41:06.093218,14.35,13.04,14.35,14.35,1028,46,1.71,88,0,0.0,Clear,clear sky,9
Kecskemét alsó,46.895833,19.692222,2026-03-08 09:41:07.290114,14.2,12.75,14.2,14.2,1028,41,2.98,79,0,0.0,Clear,clear sky,9
Putnok,48.286667,20.4375,2026-03-08 09:41:08.486699,11.15,9.29,11.15,11.15,1028,37,1.66,85,9,0.0,Clear,clear sky,9
Bánréve,48.299722,20.351944,2026-03-08 09:41:09.687086,11.34,9.52,11.34,11.34,1028,38,1.54,79,10,0.0,Clear,clear sky,9
Ipolytarnóc,48.236667,19.629167,2026-03-08 09:41:10.885628,12.24,10.77,12.24,12.24,1028,48,1.61,76,11,0.0,Clouds,few clouds,9
Rákosliget,47.486111,19.257778,2026-03-08 09:41:12.091633,13.56,12.07,13.56,13.56,1028,42,2.03,92,0,0.0,Clear,clear sky,9
Ikrény,47.657778,17.524167,2026-03-08 09:41:13.291172,13.43,12.03,13.43,13.43,1028,46,2.46,121,3,0.0,Clear,clear sky,9
Rábapatona,47.648889,17.461944,2026-03-08 09:41:14.487749,13.43,12.06,13.43,13.43,1028,47,2.32,121,4,0.0,Clear,clear sky,9
Enese,47.644167,17.425278,2026-03-08 09:41:15.688136,13.43,12.06,13.43,13.43,1028,47,2.2,120,5,0.0,Clear,clear sky,9
Kóny,47.632222,17.357222,2026-03-08 09:41:16.882889,13.41,12.03,13.41,13.41,1028,47,1.99,121,5,0.0,Clear,clear sky,9
Farád,47.595278,17.195833,2026-03-08 09:41:18.082444,13.4,12.02,13.4,13.4,1028,47,1.74,123,7,0.0,Clear,clear sky,9
Rábatamási,47.592778,17.161389,2026-03-08 09:41:19.279985,13.4,12.02,13.4,13.4,1028,47,1.74,123,7,0.0,Clear,clear sky,9
Szárföld,47.589167,17.123889,2026-03-08 09:41:20.475268,13.4,12.0,13.4,13.4,1028,46,1.75,124,7,0.0,Clear,clear sky,9
Veszkény,47.586944,17.101389,2026-03-08 09:41:21.689343,13.4,12.0,13.4,13.4,1028,46,1.77,125,8,0.0,Clear,clear sky,9
Kapuvár,47.581944,17.046944,2026-03-08 09:41:22.889886,13.37,11.96,13.37,13.37,1028,46,1.78,127,8,0.0,Clear,clear sky,9
Vitnyéd-Csermajor,47.5825,16.987222,2026-03-08 09:41:24.089798,13.36,11.98,13.36,13.36,1028,47,1.85,129,9,0.0,Clear,clear sky,9
Petőháza,47.595278,16.893056,2026-03-08 09:41:25.289093,13.36,11.98,13.36,13.36,1028,47,1.89,129,9,0.0,Clear,clear sky,9
Fertőszentmiklós,47.6,16.858889,2026-03-08 09:41:26.491950,13.33,11.95,13.33,13.33,1028,47,1.9,129,9,0.0,Clear,clear sky,9
Pinnye,47.600278,16.768611,2026-03-08 09:41:27.699580,13.16,11.78,13.16,13.16,1028,48,2.08,129,9,0.0,Clear,clear sky,9
Fertőboz,47.625,16.691667,2026-03-08 09:41:28.906477,13.07,11.69,13.07,13.07,1028,48,2.23,126,10,0.0,Clear,clear sky,9
Sopron,47.677778,16.587222,2026-03-08 09:41:30.102200,12.76,11.34,12.76,12.76,1027,48,2.66,124,10,0.0,Clear,clear sky,9
Fertőszéplak-Fertőd,47.618889,16.850833,2026-03-08 09:41:31.300301,13.38,12.03,13.38,13.38,1028,48,1.87,128,9,0.0,Clear,clear sky,9
Nyúl,47.587778,17.698056,2026-03-08 09:41:32.500401,13.45,12.03,13.45,13.45,1028,45,2.68,124,1,0.0,Clear,clear sky,9
Pannonhalma,47.547778,17.740833,2026-03-08 09:41:33.698380,13.31,11.87,13.31,13.31,1028,45,2.88,127,0,0.0,Clear,clear sky,9
Tarjánpuszta,47.504722,17.789167,2026-03-08 09:41:34.905126,13.29,11.85,13.29,13.29,1028,45,2.96,129,0,0.0,Clear,clear sky,9
Győrasszonyfa,47.4925,17.799167,2026-03-08 09:41:36.105381,13.29,11.85,13.29,13.29,1028,45,2.96,129,0,0.0,Clear,clear sky,9
Veszprémvarsány,47.443333,17.818333,2026-03-08 09:41:37.309392,13.24,11.82,13.24,13.24,1028,46,3.07,130,0,0.0,Clear,clear sky,9
Bakonyszentlászló,47.395556,17.8175,2026-03-08 09:41:38.504822,12.91,11.46,12.91,12.91,1028,46,3.06,129,0,0.0,Clear,clear sky,9
Porva-Csesznek,47.326944,17.841111,2026-03-08 09:41:39.707830,11.58,10.02,11.58,11.58,1028,47,3.02,127,0,0.0,Clear,clear sky,9
Zirc,47.266667,17.878056,2026-03-08 09:41:40.909031,11.66,10.11,11.66,11.66,1028,47,2.96,121,0,0.0,Clear,clear sky,9
Eplény,47.192778,17.921667,2026-03-08 09:41:42.111722,12.13,10.65,12.13,12.13,1028,48,2.83,111,0,0.0,Clear,clear sky,9
Marcaltő,47.4275,17.348889,2026-03-08 09:41:43.315173,13.48,12.08,13.48,13.48,1028,46,1.17,136,5,0.0,Clear,clear sky,9
Szany-Rábaszentandrás,47.460833,17.315278,2026-03-08 09:41:44.519837,13.45,12.05,13.45,13.45,1028,46,1.21,132,5,0.0,Clear,clear sky,9
Egyed-Rábacsanak,47.521944,17.316389,2026-03-08 09:41:45.723150,13.41,12.01,13.41,13.41,1028,46,1.37,127,6,0.0,Clear,clear sky,9
Rábapordány,47.557222,17.315,2026-03-08 09:41:46.920057,13.43,12.03,13.43,13.43,1028,46,1.49,124,6,0.0,Clear,clear sky,9
Albertfalva,47.440784,19.033965,2026-03-08 09:41:48.128121,13.77,12.25,13.77,13.77,1028,40,2.19,93,0,0.0,Clear,clear sky,9
Budafok,47.425833,19.041389,2026-03-08 09:41:49.328779,13.72,12.19,13.72,13.72,1028,40,2.3,91,0,0.0,Clear,clear sky,9
Tétényliget,47.384722,18.955278,2026-03-08 09:41:50.524986,14.07,12.6,14.07,14.07,1028,41,2.53,93,0,0.0,Clear,clear sky,9
Érd alsó,47.379722,18.923056,2026-03-08 09:41:51.714664,13.8,12.31,13.8,13.8,1028,41,2.61,94,0,0.0,Clear,clear sky,9
Tárnok,47.365556,18.873889,2026-03-08 09:41:52.917104,14.17,12.74,14.17,14.17,1028,42,2.83,96,0,0.0,Clear,clear sky,9
Martonvásár,47.321389,18.781667,2026-03-08 09:41:54.119009,14.14,12.71,14.14,14.14,1028,42,2.98,96,0,0.0,Clear,clear sky,9
Baracska,47.297222,18.753333,2026-03-08 09:41:55.320983,14.2,12.77,14.2,14.2,1028,42,3.02,95,0,0.0,Clear,clear sky,9
Pettend,47.26,18.708889,2026-03-08 09:41:56.522610,14.05,12.61,14.05,14.05,1028,42,3.04,95,0,0.0,Clear,clear sky,9
Kápolnásnyék,47.245556,18.692222,2026-03-08 09:41:57.722940,14.1,12.66,14.1,14.1,1028,42,3.04,94,0,0.0,Clear,clear sky,9
Velence,47.226944,18.663889,2026-03-08 09:41:58.925862,14.16,12.73,14.16,14.16,1028,42,3.04,95,0,0.0,Clear,clear sky,9
Velencefürdő,47.218611,18.648056,2026-03-08 09:42:00.123469,14.16,12.73,14.16,14.16,1028,42,3.03,93,0,0.0,Clear,clear sky,9
Gárdony,47.205833,18.624722,2026-03-08 09:42:01.323450,14.17,12.74,14.17,14.17,1028,42,3.03,94,0,0.0,Clear,clear sky,9
Agárd,47.197666,18.604907,2026-03-08 09:42:02.519681,14.17,12.74,14.17,14.17,1028,42,3.03,94,0,0.0,Clear,clear sky,9
Dinnyés,47.179722,18.560833,2026-03-08 09:42:03.724740,14.14,12.71,14.14,14.14,1028,42,3.01,93,0,0.0,Clear,clear sky,9
Székesfehérvár,47.183611,18.424722,2026-03-08 09:42:04.921173,14.02,12.6,14.02,14.02,1028,43,2.89,94,0,0.0,Clear,clear sky,9
Szabadbattyán,47.105278,18.388333,2026-03-08 09:42:06.122378,13.97,12.55,13.97,13.97,1028,43,2.95,90,0,0.0,Clear,clear sky,9
Kiscséripuszta,47.048056,18.355,2026-03-08 09:42:07.319583,13.76,12.31,13.76,13.76,1028,43,2.99,88,0,0.0,Clear,clear sky,9
Lepsény,46.9875,18.248056,2026-03-08 09:42:08.515601,13.95,12.55,13.95,13.95,1028,44,3.0,87,0,0.0,Clear,clear sky,9
Balatonaliga,46.984444,18.171389,2026-03-08 09:42:09.720994,13.63,12.22,13.63,13.63,1028,45,2.95,86,0,0.0,Clear,clear sky,9
Balatonvilágos,46.964167,18.157222,2026-03-08 09:42:10.915563,13.93,12.58,13.93,13.93,1028,46,2.95,85,0,0.0,Clear,clear sky,9
Szabadifürdő,46.926111,18.103333,2026-03-08 09:42:12.116935,13.87,12.54,13.87,13.87,1028,47,2.97,84,0,0.0,Clear,clear sky,9
Ózd alsó,48.227778,20.306111,2026-03-08 09:42:13.315358,11.22,9.36,11.22,11.22,1028,37,1.62,65,11,0.0,Clouds,few clouds,9
Ózd,48.2225,20.294722,2026-03-08 09:42:14.517074,11.22,9.36,11.22,11.22,1028,37,1.62,65,11,0.0,Clouds,few clouds,9
Alsóboldva,48.212778,20.792222,2026-03-08 09:42:15.722206,10.82,8.95,10.82,10.82,1028,38,3.09,39,8,0.0,Clear,clear sky,9
Boldva,48.223333,20.790278,2026-03-08 09:42:16.921280,10.82,8.95,10.82,10.82,1028,38,3.09,39,8,0.0,Clear,clear sky,9
Borsodszirák,48.259167,20.770556,2026-03-08 09:42:18.123863,10.89,9.0,10.89,10.89,1028,37,2.74,47,8,0.0,Clear,clear sky,9
Edelény alsó,48.279167,20.760833,2026-03-08 09:42:19.319017,10.89,9.0,10.89,10.89,1028,37,2.74,47,8,0.0,Clear,clear sky,9
Edelény,48.299722,20.749444,2026-03-08 09:42:20.519330,10.9,9.01,10.9,10.9,1028,37,2.58,52,9,0.0,Clear,clear sky,9
Szendrőlád,48.334444,20.731944,2026-03-08 09:42:21.716151,9.94,8.99,9.94,9.94,1028,37,2.17,67,9,0.0,Clear,clear sky,9
Szendrő,48.400725,20.721346,2026-03-08 09:42:22.922326,10.96,9.08,10.96,10.96,1028,37,1.97,82,10,0.0,Clear,clear sky,9
Szendrő felső,48.409907,20.720148,2026-03-08 09:42:24.125613,10.96,9.08,10.96,10.96,1028,37,1.97,82,10,0.0,Clear,clear sky,9
Szalonna,48.449444,20.722222,2026-03-08 09:42:25.326895,11.1,9.23,11.1,11.1,1028,37,1.86,94,10,0.0,Clear,clear sky,9
Perkupa,48.471389,20.691111,2026-03-08 09:42:26.526853,10.47,8.54,10.47,10.47,1028,37,1.66,106,10,0.0,Clear,clear sky,9
Szemeretelep,47.443056,19.214167,2026-03-08 09:42:27.731619,13.89,12.41,13.89,13.89,1028,41,2.13,89,0,0.0,Clear,clear sky,9
Jósvafő-Aggtelek,48.489722,20.693889,2026-03-08 09:42:28.930199,10.81,8.91,10.81,10.81,1028,37,1.59,107,10,0.0,Clear,clear sky,9
Bódvaszilas,48.5375,20.738056,2026-03-08 09:42:30.126212,10.42,8.48,10.42,10.42,1028,37,1.7,99,10,0.0,Clear,clear sky,9
Komjáti,48.5475,20.759722,2026-03-08 09:42:31.320481,9.99,9.44,9.99,9.99,1028,36,1.7,91,10,0.0,Clear,clear sky,9
Tornanádaska,48.558333,20.787222,2026-03-08 09:42:32.521054,11.15,9.26,11.15,11.15,1028,36,1.81,85,10,0.0,Clear,clear sky,9
Onga,48.121111,20.906667,2026-03-08 09:42:33.716607,10.89,9.05,10.89,10.89,1028,39,2.66,42,7,0.0,Clear,clear sky,9
Szikszó-Vásártér,48.193056,20.934722,2026-03-08 09:42:34.917679,10.87,9.0,10.87,10.87,1028,38,2.92,40,7,0.0,Clear,clear sky,9
Szikszó,48.201667,20.941667,2026-03-08 09:42:36.115048,10.95,9.09,10.95,10.95,1028,38,2.78,42,7,0.0,Clear,clear sky,9
Aszaló,48.219867,20.961466,2026-03-08 09:42:37.311599,10.82,8.95,10.82,10.82,1028,38,2.87,42,7,0.0,Clear,clear sky,9
Halmaj,48.246667,20.991667,2026-03-08 09:42:38.512012,11.01,9.16,11.01,11.01,1028,38,2.81,43,7,0.0,Clear,clear sky,9
Csobád,48.277222,21.033889,2026-03-08 09:42:39.712033,11.09,9.25,11.09,11.09,1028,38,2.74,45,7,0.0,Clear,clear sky,9
Ináncs,48.291111,21.057778,2026-03-08 09:42:40.911387,11.1,9.23,11.1,11.1,1028,37,2.44,50,7,0.0,Clear,clear sky,9
Forró-Encs,48.3275,21.117778,2026-03-08 09:42:42.106594,11.11,9.24,11.11,11.11,1028,37,2.35,52,7,0.0,Clear,clear sky,9
Méra,48.363056,21.140278,2026-03-08 09:42:43.310141,10.98,9.1,10.98,10.98,1028,37,2.42,53,8,0.0,Clear,clear sky,9
Novajidrány,48.404444,21.170556,2026-03-08 09:42:44.507114,11.24,9.39,11.24,11.24,1028,37,2.4,53,8,0.0,Clear,clear sky,9
Hernádszurdok,48.487222,21.213889,2026-03-08 09:42:45.705315,11.28,9.46,11.28,11.28,1028,38,2.53,47,8,0.0,Clear,clear sky,9
Hidasnémeti,48.508333,21.229722,2026-03-08 09:42:46.904493,11.16,9.32,11.16,11.16,1028,38,2.63,44,8,0.0,Clear,clear sky,9
Mád,48.19,21.268889,2026-03-08 09:42:48.109078,10.94,9.08,10.94,10.94,1028,38,1.73,73,6,0.0,Clear,clear sky,9
Rátka,48.215,21.230278,2026-03-08 09:42:49.313042,11.26,9.43,11.26,11.26,1028,38,1.61,74,6,0.0,Clear,clear sky,9
Tállya,48.226944,21.225278,2026-03-08 09:42:50.509642,11.26,9.43,11.26,11.26,1028,38,1.61,74,6,0.0,Clear,clear sky,9
Golop,48.242778,21.204167,2026-03-08 09:42:51.711932,11.26,9.43,11.26,11.26,1028,38,1.7,66,6,0.0,Clear,clear sky,9
Abaújszántó,48.286944,21.181667,2026-03-08 09:42:52.914093,11.0,9.12,11.0,11.0,1028,37,1.82,62,7,0.0,Clear,clear sky,9
Abaújszántói fürdő,48.268333,21.179722,2026-03-08 09:42:54.117828,11.24,9.41,11.24,11.24,1028,38,1.74,64,7,0.0,Clear,clear sky,9
Abaújkér,48.309444,21.198333,2026-03-08 09:42:55.319750,11.02,9.14,11.02,11.02,1028,37,1.94,60,7,0.0,Clear,clear sky,9
Boldogkőváralja,48.345,21.208889,2026-03-08 09:42:56.525241,11.03,9.18,11.03,11.03,1028,38,1.78,64,7,0.0,Clear,clear sky,9
Korlát-Vizsoly,48.365,21.219167,2026-03-08 09:42:57.728310,11.17,9.33,11.17,11.17,1028,38,1.93,61,7,0.0,Clear,clear sky,9
Fony,48.411389,21.242778,2026-03-08 09:42:58.924013,11.27,9.44,11.27,11.27,1028,38,2.24,53,8,0.0,Clear,clear sky,9
Hejce-Vilmány,48.419444,21.245556,2026-03-08 09:43:00.123124,11.27,9.44,11.27,11.27,1028,38,2.24,53,8,0.0,Clear,clear sky,9
Göncruszka,48.445,21.246944,2026-03-08 09:43:01.322545,11.27,9.44,11.27,11.27,1028,38,2.4,50,8,0.0,Clear,clear sky,9
Gönc,48.470556,21.261389,2026-03-08 09:43:02.518157,11.28,9.46,11.28,11.28,1028,38,2.38,47,8,0.0,Clear,clear sky,9
Zsujta,48.4925,21.265,2026-03-08 09:43:03.723009,11.3,9.48,11.3,11.3,1028,38,2.48,44,8,0.0,Clear,clear sky,9
Bodrogkeresztúr,48.175556,21.354167,2026-03-08 09:43:04.938853,10.65,8.79,10.65,10.65,1029,39,2.08,67,5,0.0,Clear,clear sky,9
Szegi,48.201944,21.387778,2026-03-08 09:43:06.137179,11.18,9.4,11.18,11.18,1029,40,2.25,62,5,0.0,Clear,clear sky,9
Erdőbénye,48.218056,21.401944,2026-03-08 09:43:07.333924,11.56,9.82,11.56,11.56,1029,40,2.28,60,5,0.0,Clear,clear sky,9
Olaszliszka-Tolcsva,48.258333,21.448056,2026-03-08 09:43:08.534350,11.54,9.79,11.54,11.54,1029,40,2.21,57,6,0.0,Clear,clear sky,9
Bodrogolaszi,48.286944,21.512778,2026-03-08 09:43:09.731079,10.22,8.37,10.22,10.22,1029,41,2.25,53,6,0.0,Clear,clear sky,9
Sárospatak,48.325833,21.566111,2026-03-08 09:43:10.926194,11.49,9.79,11.49,11.49,1029,42,2.46,44,6,0.0,Clear,clear sky,9
Sátoraljaújhely,48.385833,21.657778,2026-03-08 09:43:12.128011,10.84,9.1,10.84,10.84,1029,43,2.21,34,7,0.0,Clear,clear sky,9
Vecsés,47.40855,19.25652,2026-03-08 09:43:13.327313,13.96,12.48,13.96,13.96,1028,41,2.34,88,0,0.0,Clear,clear sky,9
Vecsés-Kertekalja,47.403333,19.271389,2026-03-08 09:43:14.527410,13.96,12.48,13.96,13.96,1028,41,2.34,88,0,0.0,Clear,clear sky,9
Üllő,47.390833,19.348889,2026-03-08 09:43:15.731928,13.97,12.52,13.97,13.97,1028,42,2.56,87,0,0.0,Clear,clear sky,9
Monor,47.34545,19.43701,2026-03-08 09:43:16.937704,13.84,12.4,13.84,13.84,1028,43,2.87,83,0,0.0,Clear,clear sky,9
Pilis,47.279722,19.536389,2026-03-08 09:43:18.135585,13.76,12.31,13.76,13.76,1028,43,2.92,80,0,0.0,Clear,clear sky,9
Albertirsa,47.240278,19.606389,2026-03-08 09:43:19.340667,13.84,12.38,13.84,13.84,1028,42,2.93,77,0,0.0,Clear,clear sky,9
Ceglédbercel-Cserő,47.210278,19.686944,2026-03-08 09:43:20.540481,13.91,12.45,13.91,13.91,1028,42,2.93,74,0,0.0,Clear,clear sky,9
Cegléd,47.182778,19.806111,2026-03-08 09:43:21.736968,13.94,12.46,13.94,13.94,1028,41,2.93,70,0,0.0,Clear,clear sky,9
Abony,47.173056,20.016389,2026-03-08 09:43:22.942668,13.7,12.17,13.7,13.7,1028,40,2.93,65,0,0.0,Clear,clear sky,9
Szolnok,47.179167,20.175833,2026-03-08 09:43:24.141939,13.43,11.87,13.43,13.43,1028,40,3.11,62,0,0.0,Clear,clear sky,9
Szajol,47.170556,20.295278,2026-03-08 09:43:25.346960,13.4,11.81,13.4,13.4,1028,39,3.31,59,0,0.0,Clear,clear sky,9
Törökszentmiklós,47.170278,20.413611,2026-03-08 09:43:26.545894,13.45,11.87,13.45,13.45,1028,39,3.46,55,0,0.0,Clear,clear sky,9
Rákoscsaba-Újtelep,47.4875,19.271944,2026-03-08 09:43:27.743774,13.56,12.07,13.56,13.56,1028,42,2.03,92,0,0.0,Clear,clear sky,9
Rákoscsaba,47.492222,19.284722,2026-03-08 09:43:28.942620,13.64,12.16,13.64,13.64,1028,42,2.1,92,0,0.0,Clear,clear sky,9
Pécel,47.493889,19.338889,2026-03-08 09:43:30.140158,13.52,12.05,13.52,13.52,1028,43,2.19,92,0,0.0,Clear,clear sky,9
Isaszeg,47.537719,19.388955,2026-03-08 09:43:31.340705,13.26,11.79,13.26,13.26,1028,44,2.09,97,1,0.0,Clear,clear sky,9
Gödöllő,47.592222,19.358611,2026-03-08 09:43:32.540504,13.05,11.56,13.05,13.05,1028,44,1.95,105,2,0.0,Clear,clear sky,9
Máriabesnyő,47.595556,19.389722,2026-03-08 09:43:33.741165,13.05,11.56,13.05,13.05,1028,44,1.95,105,2,0.0,Clear,clear sky,9
Bag,47.641111,19.471667,2026-03-08 09:43:34.942238,13.56,12.15,13.56,13.56,1028,45,1.88,110,4,0.0,Clear,clear sky,9
Aszód,47.647467,19.492882,2026-03-08 09:43:36.141691,13.41,12.01,13.41,13.41,1028,46,1.88,109,4,0.0,Clear,clear sky,9
Hévízgyörk,47.638611,19.526667,2026-03-08 09:43:37.343074,13.38,11.97,13.38,13.38,1028,46,1.86,109,4,0.0,Clear,clear sky,9
Galgahévíz,47.6325,19.558333,2026-03-08 09:43:38.535805,13.59,12.21,13.59,13.59,1028,46,1.93,102,3,0.0,Clear,clear sky,9
Tura,47.626389,19.5975,2026-03-08 09:43:39.729672,13.49,12.1,13.49,13.49,1028,46,1.9,101,3,0.0,Clear,clear sky,9
Hatvan,47.663611,19.671389,2026-03-08 09:43:40.933167,13.41,12.01,13.41,13.41,1028,46,1.51,112,4,0.0,Clear,clear sky,9
Vámosgyörk,47.686111,19.927778,2026-03-08 09:43:42.130915,13.12,11.61,13.12,13.12,1028,43,1.68,94,5,0.0,Clear,clear sky,9
Adács,47.696389,19.975278,2026-03-08 09:43:43.332936,12.98,11.46,12.98,12.98,1028,43,1.71,94,5,0.0,Clear,clear sky,9
Karácsond,47.718056,20.048611,2026-03-08 09:43:44.531940,12.74,11.19,12.74,12.74,1028,43,1.68,95,6,0.0,Clear,clear sky,9
Ludas,47.723889,20.095556,2026-03-08 09:43:45.741861,12.79,11.2,12.79,12.79,1028,41,1.97,88,6,0.0,Clear,clear sky,9
Nagyút,47.72666666666667,20.161388888888887,2026-03-08 09:43:46.944981,12.68,11.05,12.68,12.68,1028,40,2.08,85,6,0.0,Clear,clear sky,9
Kál-Kápolna,47.734167,20.254167,2026-03-08 09:43:48.152091,12.46,10.73,12.46,12.46,1028,37,2.59,76,6,0.0,Clear,clear sky,9
Füzesabony,47.751389,20.415278,2026-03-08 09:43:49.352841,12.09,10.27,12.09,12.09,1028,35,3.31,66,6,0.0,Clear,clear sky,9
Szihalom,47.766944,20.491944,2026-03-08 09:43:50.556536,11.8,9.95,11.8,11.8,1028,35,3.4,62,6,0.0,Clear,clear sky,9
Mezőkövesd,47.797222,20.5675,2026-03-08 09:43:51.753923,11.63,9.79,11.63,11.63,1028,36,3.28,57,5,0.0,Clear,clear sky,9
Mezőkövesd felső,47.807222,20.591389,2026-03-08 09:43:52.957544,11.63,9.79,11.63,11.63,1028,36,3.28,57,5,0.0,Clear,clear sky,9
Mezőkeresztes-Mezőnyárád,47.845556,20.670278,2026-03-08 09:43:54.153225,11.33,9.46,11.33,11.33,1028,36,3.06,48,6,0.0,Clear,clear sky,9
Csincse,47.890833,20.764167,2026-03-08 09:43:55.355901,11.28,9.46,11.28,11.28,1028,38,2.91,42,6,0.0,Clear,clear sky,9
Emőd,47.930556,20.822778,2026-03-08 09:43:56.549763,10.92,9.06,10.92,10.92,1028,38,2.94,39,6,0.0,Clear,clear sky,9
Nyékládháza,47.9925,20.840556,2026-03-08 09:43:57.748461,11.04,9.19,11.04,11.04,1028,38,2.91,38,7,0.0,Clear,clear sky,9
Miskolc-Tiszai,48.098611,20.811389,2026-03-08 09:43:58.951036,10.67,8.81,10.67,10.67,1028,39,3.27,34,7,0.0,Clear,clear sky,9
Felsőzsolca,48.083611,20.866111,2026-03-08 09:44:00.161262,10.82,8.98,10.82,10.82,1028,39,2.97,37,7,0.0,Clear,clear sky,9
Hernádnémeti-Bőcs,48.051389,20.985,2026-03-08 09:44:01.362478,11.0,9.17,11.0,11.0,1028,39,2.19,53,6,0.0,Clear,clear sky,9
Tiszalúc,48.039722,21.0575,2026-03-08 09:44:02.558869,11.13,9.32,11.13,11.13,1028,39,2.13,62,5,0.0,Clear,clear sky,9
Taktaharkány,48.091667,21.128611,2026-03-08 09:44:03.757644,11.2,9.39,11.2,11.2,1028,39,2.02,64,6,0.0,Clear,clear sky,9
Taktaszada,48.1125,21.149444,2026-03-08 09:44:04.957223,11.22,9.42,11.22,11.22,1028,39,1.95,65,6,0.0,Clear,clear sky,9
Szerencs,48.155556,21.214444,2026-03-08 09:44:06.153682,11.38,9.57,11.38,11.38,1028,38,1.8,71,6,0.0,Clear,clear sky,9
Mezőzombor,48.156944,21.267778,2026-03-08 09:44:07.354627,11.34,9.55,11.34,11.34,1028,39,1.86,70,6,0.0,Clear,clear sky,9
Tarcal,48.125,21.34,2026-03-08 09:44:08.548916,11.55,9.81,11.55,11.55,1029,40,2.46,61,5,0.0,Clear,clear sky,9
Tokaj,48.112778,21.406667,2026-03-08 09:44:09.749927,11.07,9.3,11.07,11.07,1029,41,2.91,55,3,0.0,Clear,clear sky,9
Rakamaz,48.12,21.475,2026-03-08 09:44:10.955712,11.63,9.92,11.63,11.63,1029,41,3.03,53,3,0.0,Clear,clear sky,9
Görögszállás,48.04,21.555,2026-03-08 09:44:12.151441,11.75,10.08,11.75,11.75,1029,42,3.46,48,2,0.0,Clear,clear sky,9
Nyírtelek,48.005,21.615556,2026-03-08 09:44:13.353082,11.85,10.21,11.85,11.85,1029,43,3.41,46,2,0.0,Clear,clear sky,9
Rákoshegy,47.468611,19.245556,2026-03-08 09:44:14.549628,13.75,12.25,13.75,13.75,1028,41,2.13,90,0,0.0,Clear,clear sky,9
Ecser,47.439444,19.318056,2026-03-08 09:44:15.746078,13.9,12.44,13.9,13.9,1028,42,2.3,89,0,0.0,Clear,clear sky,9
Maglód,47.438889,19.340833,2026-03-08 09:44:16.950138,13.67,12.19,13.67,13.67,1028,42,2.37,88,0,0.0,Clear,clear sky,9
Maglódi nyaraló,47.434167,19.363611,2026-03-08 09:44:18.147691,13.41,11.93,13.41,13.41,1028,43,2.46,88,0,0.0,Clear,clear sky,9
Gyömrő,47.429722,19.393333,2026-03-08 09:44:19.341970,13.41,11.93,13.41,13.41,1028,43,2.46,88,0,0.0,Clear,clear sky,9
Mende,47.426944,19.439722,2026-03-08 09:44:20.538930,13.35,11.89,13.35,13.35,1028,44,2.76,84,0,0.0,Clear,clear sky,9
Szőlősnyaraló,47.450278,19.561111,2026-03-08 09:44:21.742902,13.66,12.26,13.66,13.66,1028,45,2.86,80,0,0.0,Clear,clear sky,9
Sülysáp,47.451944,19.5275,2026-03-08 09:44:22.946185,13.57,12.16,13.57,13.57,1028,45,2.8,83,0,0.0,Clear,clear sky,9
Tápiószecső,47.443056,19.614722,2026-03-08 09:44:24.142434,13.7,12.3,13.7,13.7,1028,45,2.88,79,0,0.0,Clear,clear sky,9
Szentmártonkáta,47.431944,19.680556,2026-03-08 09:44:25.338730,13.63,12.2,13.63,13.63,1028,44,2.9,75,0,0.0,Clear,clear sky,9
Nagykáta,47.409722,19.737778,2026-03-08 09:44:26.531804,13.68,12.23,13.68,13.68,1028,43,2.95,73,0,0.0,Clear,clear sky,9
Farmos,47.355278,19.8375,2026-03-08 09:44:27.732012,13.76,12.26,13.76,13.76,1028,41,3.05,67,1,0.0,Clear,clear sky,9
Tápiószele,47.346313,19.873504,2026-03-08 09:44:28.930995,13.74,12.24,13.74,13.74,1028,41,3.04,67,1,0.0,Clear,clear sky,9
Tápiógyörgye,47.325,19.95,2026-03-08 09:44:30.126843,13.7,12.17,13.7,13.7,1028,40,3.1,65,1,0.0,Clear,clear sky,9
Újszász,47.285833,20.066944,2026-03-08 09:44:31.327742,13.65,12.12,13.65,13.65,1028,40,3.07,65,0,0.0,Clear,clear sky,9
Szurdokpüspöki,47.851944,19.690278,2026-03-08 09:44:32.530919,13.0,11.56,13.0,13.0,1028,46,0.83,129,7,0.0,Clear,clear sky,9
Lőrinci,47.739444,19.673611,2026-03-08 09:44:33.727223,13.27,11.85,13.27,13.27,1028,46,1.3,125,5,0.0,Clear,clear sky,9
Selyp,47.759167,19.670833,2026-03-08 09:44:34.924368,13.21,11.79,13.21,13.21,1028,46,1.21,130,6,0.0,Clear,clear sky,9
Apc-Zagyvaszántó,47.791328,19.66822,2026-03-08 09:44:36.127056,13.19,11.77,13.19,13.19,1028,46,1.12,133,6,0.0,Clear,clear sky,9
Pásztó,47.918889,19.688889,2026-03-08 09:44:37.324465,12.79,11.35,12.79,12.79,1028,47,0.71,109,8,0.0,Clear,clear sky,9
Mátraszőlős-Hasznos,47.938506,19.706122,2026-03-08 09:44:38.522711,12.71,11.26,12.71,12.71,1028,47,0.76,92,9,0.0,Clear,clear sky,9
Tar,47.956111,19.746389,2026-03-08 09:44:39.722501,12.21,10.71,12.21,12.21,1028,47,0.99,76,9,0.0,Clear,clear sky,9
Mátraverebély,47.968333,19.778611,2026-03-08 09:44:40.919953,12.21,10.71,12.21,12.21,1028,47,0.99,76,9,0.0,Clear,clear sky,9
Nagybátony,47.981111,19.82,2026-03-08 09:44:42.124891,12.28,10.79,12.28,12.28,1028,47,1.2,67,9,0.0,Clear,clear sky,9
Kisterenye,48.009444,19.831944,2026-03-08 09:44:43.323274,12.28,10.79,12.28,12.28,1028,47,1.4,61,10,0.0,Clear,clear sky,9
Kisterenye-Bányatelep,48.021389,19.831944,2026-03-08 09:44:44.527951,12.28,10.79,12.28,12.28,1028,47,1.4,61,10,0.0,Clear,clear sky,9
Salgótarján külső,48.089444,19.790833,2026-03-08 09:44:45.724157,11.69,10.14,11.69,11.69,1028,47,1.57,59,10,0.0,Clear,clear sky,9
Balatonfenyves GV,46.7125,17.479167,2026-03-08 09:44:46.927827,13.31,12.03,13.31,13.31,1028,51,3.34,74,0,0.0,Clear,clear sky,9
Várhegyalja,47.737778,18.366667,2026-03-08 09:44:48.124427,13.57,12.13,13.57,13.57,1028,44,1.97,138,1,0.0,Clear,clear sky,9
Imremajor,46.680556,17.499722,2026-03-08 09:44:49.327200,13.36,12.08,13.36,13.36,1028,51,3.29,74,0,0.0,Clear,clear sky,9
Rákospalota-Kertváros,47.578333,19.122778,2026-03-08 09:44:50.521632,13.79,12.3,13.79,13.79,1028,41,1.63,101,0,0.0,Clear,clear sky,9
Vicziántelep,47.675833,19.286111,2026-03-08 09:44:51.727309,13.15,11.67,13.15,13.15,1028,44,1.76,118,3,0.0,Clear,clear sky,9
Pálmajor,46.662831,17.457526,2026-03-08 09:44:52.928748,13.35,12.05,13.35,13.35,1028,50,3.17,75,0,0.0,Clear,clear sky,9
Somogyszentpál felső,46.649758,17.471404,2026-03-08 09:44:54.125600,13.37,12.09,13.37,13.37,1028,51,3.22,75,0,0.0,Clear,clear sky,9
Somogyszentpál,46.638611,17.478611,2026-03-08 09:44:55.327361,13.34,12.04,13.34,13.34,1028,50,3.13,77,0,0.0,Clear,clear sky,9
Rudnaykert,47.7175,19.257778,2026-03-08 09:44:56.527310,13.18,11.73,13.18,13.18,1028,45,1.7,122,4,0.0,Clear,clear sky,9
Maroshegy,47.158333,18.406667,2026-03-08 09:44:57.739123,14.01,12.59,14.01,14.01,1028,43,2.91,92,0,0.0,Clear,clear sky,9
Bánhida,47.573703,18.371737,2026-03-08 09:44:58.941624,13.47,12.02,13.47,13.47,1028,44,2.68,129,0,0.0,Clear,clear sky,9
Magyarkút,47.850278,19.045,2026-03-08 09:45:00.143366,12.78,11.37,12.78,12.78,1028,48,1.62,111,2,0.0,Clear,clear sky,9
Becske alsó,47.897222,19.364722,2026-03-08 09:45:01.349631,12.22,10.75,12.22,12.22,1028,48,0.96,108,6,0.0,Clear,clear sky,9
Hosszúberek-Péteri,47.370556,19.389722,2026-03-08 09:45:02.550974,13.94,12.49,13.94,13.94,1028,42,2.7,86,0,0.0,Clear,clear sky,9
Monorierdő,47.308889,19.499167,2026-03-08 09:45:03.748652,13.79,12.35,13.79,13.79,1028,43,2.91,82,0,0.0,Clear,clear sky,9
Ceglédbercel,47.215833,19.658611,2026-03-08 09:45:04.945044,13.87,12.41,13.87,13.87,1028,42,2.93,75,0,0.0,Clear,clear sky,9
Budai út,47.208333,19.731389,2026-03-08 09:45:06.150254,13.8,12.31,13.8,13.8,1028,41,2.93,73,0,0.0,Clear,clear sky,9
Büdöskútpuszta,48.373056,20.726111,2026-03-08 09:45:07.361131,11.05,9.18,11.05,11.05,1028,37,2.05,74,9,0.0,Clear,clear sky,9
Bánrévei Vízmű,48.282778,20.368333,2026-03-08 09:45:08.570785,11.25,9.4,11.25,11.25,1028,37,1.58,82,10,0.0,Clear,clear sky,9
Rákoskert,47.456389,19.296111,2026-03-08 09:45:09.771893,13.66,12.18,13.66,13.66,1028,42,2.2,90,0,0.0,Clear,clear sky,9
Szirmabesenyő,48.146944,20.783056,2026-03-08 09:45:10.968314,10.1,8.18,10.1,10.1,1028,39,3.28,35,8,0.0,Clear,clear sky,9
Kitérőgyár,47.766944,19.935278,2026-03-08 09:45:12.168905,12.67,11.17,12.67,12.67,1028,45,1.23,108,6,0.0,Clear,clear sky,9
Tápiószentmárton,47.373333,19.797778,2026-03-08 09:45:13.364701,13.7,12.22,13.7,13.7,1028,42,3.03,68,1,0.0,Clear,clear sky,9
Zagyvarékas,47.244229,20.097435,2026-03-08 09:45:14.570479,13.61,12.07,13.61,13.61,1028,40,3.04,64,0,0.0,Clear,clear sky,9
Abonyi út,47.206401,20.125204,2026-03-08 09:45:15.763892,13.6,12.06,13.6,13.6,1028,40,3.02,64,0,0.0,Clear,clear sky,9
Jászkisér felső,47.438056,20.202222,2026-03-08 09:45:16.964939,13.36,11.77,13.36,13.36,1028,39,3.24,61,1,0.0,Clear,clear sky,9
Szellőhát,47.425556,20.188889,2026-03-08 09:45:18.164111,13.4,11.81,13.4,13.4,1028,39,3.26,61,1,0.0,Clear,clear sky,9
Szilvásvárad-Szalajkavölgy,48.0956,20.38272,2026-03-08 09:45:19.363226,9.78,9.41,9.78,9.78,1028,32,1.49,59,9,0.0,Clear,clear sky,9
Vásárosnamény külső,48.084444,22.255556,2026-03-08 09:45:20.559896,12.41,10.91,12.41,12.41,1029,46,2.28,54,4,0.0,Clear,clear sky,9
Újváros,46.660556,20.536111,2026-03-08 09:45:21.762093,14.05,12.58,14.05,14.05,1028,41,2.54,44,0,0.0,Clear,clear sky,9
Városi park,46.697778,19.864722,2026-03-08 09:45:22.966956,14.93,13.63,14.93,14.93,1028,44,2.62,68,0,0.0,Clear,clear sky,9
Belsőkamaráspuszta,46.341944,20.848889,2026-03-08 09:45:24.169878,13.77,12.38,13.77,13.77,1028,45,2.28,39,0,0.0,Clear,clear sky,9
Sajószöged,47.945278,20.981667,2026-03-08 09:45:25.372962,11.33,9.54,11.33,11.33,1028,39,2.42,53,5,0.0,Clear,clear sky,9
Kazincbarcika alsó,48.255278,20.649167,2026-03-08 09:45:26.575991,10.66,8.75,10.66,10.66,1028,37,2.36,56,8,0.0,Clear,clear sky,9
Nyárjas,46.857778,19.923611,2026-03-08 09:45:27.776424,14.29,12.85,14.29,14.29,1028,41,2.86,64,0,0.0,Clear,clear sky,9
Pogonyipuszta,48.296389,20.381667,2026-03-08 09:45:28.977210,11.25,9.4,11.25,11.25,1028,37,1.58,82,10,0.0,Clear,clear sky,9
Sióvölgy,46.911103,18.076964,2026-03-08 09:45:30.177817,13.85,12.54,13.85,13.85,1028,48,2.95,83,0,0.0,Clear,clear sky,9
Répáspuszta,46.430278,17.847222,2026-03-08 09:45:31.382005,13.5,12.21,13.5,13.5,1027,50,2.74,89,0,0.0,Clear,clear sky,9
Virányos,48.066667,21.527222,2026-03-08 09:45:32.584502,11.73,10.06,11.73,11.73,1029,42,3.4,49,2,0.0,Clear,clear sky,9
Füzesbokor,47.988611,21.6475,2026-03-08 09:45:33.788910,11.95,10.32,11.95,11.95,1029,43,3.35,46,2,0.0,Clear,clear sky,9
Kunfehértó,46.355833,19.417222,2026-03-08 09:45:34.985746,14.26,12.94,14.26,14.26,1028,46,1.91,103,0,0.0,Clear,clear sky,9
Erdőszél,46.329444,19.395,2026-03-08 09:45:36.188941,14.14,12.81,14.14,14.14,1028,46,2.13,111,0,0.0,Clear,clear sky,9
Jánoshalma,46.293056,19.330278,2026-03-08 09:45:37.395959,14.25,12.96,14.25,14.25,1028,47,2.41,113,0,0.0,Clear,clear sky,9
Mélykút,46.213056,19.370556,2026-03-08 09:45:38.595044,14.27,12.98,14.27,14.27,1028,47,2.66,110,0,0.0,Clear,clear sky,9
Bácsalmás,46.118056,19.346389,2026-03-08 09:45:39.801642,14.33,13.05,14.33,14.33,1028,47,2.93,110,0,0.0,Clear,clear sky,9
Almás,46.116216,19.328803,2026-03-08 09:45:41.003255,14.33,13.05,14.33,14.33,1028,47,2.93,110,0,0.0,Clear,clear sky,9
Bácsbokod-Bácsborsód,46.115833,19.16,2026-03-08 09:45:42.201297,14.37,13.12,14.37,14.37,1028,48,2.88,116,0,0.0,Clear,clear sky,9
Baja,46.187014,18.957602,2026-03-08 09:45:43.402991,14.54,13.28,14.54,14.54,1028,47,2.71,124,0,0.0,Clear,clear sky,9
Harkakötöny,46.458333,19.601944,2026-03-08 09:45:44.600272,14.44,13.14,14.44,14.44,1028,46,1.89,71,0,0.0,Clear,clear sky,9
Tajó,46.473056,19.650556,2026-03-08 09:45:45.803993,14.48,13.16,14.48,14.48,1028,45,1.93,68,0,0.0,Clear,clear sky,9
Kiskunmajsa,46.501667,19.728056,2026-03-08 09:45:46.998240,14.56,13.25,14.56,14.56,1028,45,2.11,66,0,0.0,Clear,clear sky,9
Jászszentlászló,46.565833,19.753611,2026-03-08 09:45:48.196062,14.7,13.4,14.7,14.7,1028,45,2.38,68,0,0.0,Clear,clear sky,9
Galambos,46.625,19.801111,2026-03-08 09:45:49.394045,14.79,13.47,14.79,14.79,1028,44,2.5,69,0,0.0,Clear,clear sky,9
Pestszentimre,47.402222,19.188611,2026-03-08 09:45:50.597405,14.02,12.55,14.02,14.02,1028,41,2.34,88,0,0.0,Clear,clear sky,9
Gyál felső,47.390278,19.204722,2026-03-08 09:45:51.798278,14.0,12.53,14.0,14.0,1028,41,2.36,88,0,0.0,Clear,clear sky,9
Gyál,47.376667,19.219444,2026-03-08 09:45:52.992502,14.0,12.53,14.0,14.0,1028,41,2.36,88,0,0.0,Clear,clear sky,9
Ócsa,47.301389,19.232222,2026-03-08 09:45:54.194741,14.09,12.63,14.09,14.09,1028,41,2.7,88,0,0.0,Clear,clear sky,9
Inárcs-Kakucs,47.247222,19.317778,2026-03-08 09:45:55.394992,14.13,12.7,14.13,14.13,1028,42,2.87,87,0,0.0,Clear,clear sky,9
Dabas,47.194722,19.328889,2026-03-08 09:45:56.596147,14.08,12.61,14.08,14.08,1028,41,2.94,87,0,0.0,Clear,clear sky,9
Gyón,47.178333,19.355556,2026-03-08 09:45:57.800272,14.12,12.66,14.12,14.12,1028,41,2.96,87,0,0.0,Clear,clear sky,9
Hernád,47.161389,19.4025,2026-03-08 09:45:58.997046,14.02,12.55,14.02,14.02,1028,41,2.97,84,0,0.0,Clear,clear sky,9
Bakonygyirót,47.416389,17.811944,2026-03-08 09:46:00.196672,13.28,11.86,13.28,13.28,1028,46,2.95,129,0,0.0,Clear,clear sky,9
Vinye,47.360317,17.819635,2026-03-08 09:46:01.392061,12.84,11.41,12.84,12.84,1028,47,3.04,128,0,0.0,Clear,clear sky,9
Nemesgörzsöny,47.402924,17.376385,2026-03-08 09:46:02.587845,13.5,12.11,13.5,13.5,1028,46,1.19,137,4,0.0,Clear,clear sky,9
Rábahíd,47.438618,17.337525,2026-03-08 09:46:03.795195,13.47,12.07,13.47,13.47,1028,46,1.19,134,5,0.0,Clear,clear sky,9
Öskü,47.162222,18.076389,2026-03-08 09:46:04.996843,13.36,11.98,13.36,13.36,1028,47,2.75,102,0,0.0,Clear,clear sky,9
Márkó,47.1275,17.813889,2026-03-08 09:46:06.201803,12.39,10.94,12.39,12.39,1028,48,2.76,107,0,0.0,Clear,clear sky,9
Nemeskocs,47.203333,17.188889,2026-03-08 09:46:07.397958,13.36,12.0,13.36,13.36,1028,48,1.85,137,5,0.0,Clear,clear sky,9
Zalagyömörő,47.011111,17.220833,2026-03-08 09:46:08.595938,13.29,11.9,13.29,13.29,1028,47,2.31,131,5,0.0,Clear,clear sky,9
Rigács,47.061667,17.199167,2026-03-08 09:46:09.791558,13.25,11.86,13.25,13.25,1028,47,2.27,134,5,0.0,Clear,clear sky,9
Kemenespálfa,47.139722,17.183056,2026-03-08 09:46:10.992292,13.33,11.95,13.33,13.33,1028,47,2.07,137,5,0.0,Clear,clear sky,9
Lentiszombathely,46.611389,16.5725,2026-03-08 09:46:12.195820,13.17,11.95,13.17,13.17,1028,54,1.59,99,9,0.0,Clear,clear sky,9
Ortaháza,46.626667,16.685833,2026-03-08 09:46:13.401098,12.96,11.72,12.96,12.96,1028,54,1.66,100,8,0.0,Clear,clear sky,9
Rádiháza,46.654722,16.765833,2026-03-08 09:46:14.597719,12.89,11.62,12.89,12.89,1028,53,1.78,100,8,0.0,Clear,clear sky,9
Baktüttös,46.690833,16.826389,2026-03-08 09:46:15.810902,12.94,11.67,12.94,12.94,1028,53,2.08,101,6,0.0,Clear,clear sky,9
Budafa,46.851667,16.624722,2026-03-08 09:46:17.012498,12.96,11.72,12.96,12.96,1028,54,1.66,109,11,0.0,Clouds,few clouds,9
Zalapatakalja,46.845556,16.603889,2026-03-08 09:46:18.207263,12.95,11.71,12.95,12.95,1028,54,1.65,109,11,0.0,Clouds,few clouds,9
Tormásliget,47.430556,16.781667,2026-03-08 09:46:19.404221,13.04,11.65,13.04,13.04,1028,48,2.19,136,9,0.0,Clear,clear sky,9
Belecska,46.64,18.411389,2026-03-08 09:46:20.606167,14.17,12.92,14.17,14.17,1028,49,2.9,93,0,0.0,Clear,clear sky,9
Almár,47.956111,20.356944,2026-03-08 09:46:21.805978,10.67,8.63,10.67,10.67,1028,32,1.56,61,8,0.0,Clear,clear sky,9
Vasútmúzeum,47.543889,19.099444,2026-03-08 09:46:23.002958,13.83,12.34,13.83,13.83,1028,41,1.69,98,0,0.0,Clear,clear sky,9
Abda,47.690833,17.540556,2026-03-08 09:46:24.209640,13.42,12.04,13.42,13.42,1028,47,2.73,120,3,0.0,Clear,clear sky,9
Vadaspark,47.526111,18.949167,2026-03-08 09:46:25.407205,12.32,10.68,12.32,12.32,1028,41,2.03,100,0,0.0,Clear,clear sky,9
Barosstelep,47.398889,18.989167,2026-03-08 09:46:26.602197,14.11,12.65,14.11,14.11,1028,41,2.46,92,0,0.0,Clear,clear sky,9
Fegyvernek-Örményes,47.194444,20.5575,2026-03-08 09:46:27.803614,13.36,11.8,13.36,13.36,1028,40,3.49,52,0,0.0,Clear,clear sky,9
Zagyvapálfalva,48.068889,19.785,2026-03-08 09:46:29.006672,11.95,10.43,11.95,11.95,1028,47,1.52,59,10,0.0,Clear,clear sky,9
Salgótarján,48.105556,19.807222,2026-03-08 09:46:30.202774,11.21,9.61,11.21,11.21,1028,47,1.61,59,10,0.0,Clear,clear sky,9
Szabadisóstó,46.933889,18.118056,2026-03-08 09:46:31.407607,13.9,12.57,13.9,13.9,1028,47,2.96,84,0,0.0,Clear,clear sky,9
Siófok,46.907778,18.053889,2026-03-08 09:46:32.611107,13.85,12.54,13.85,13.85,1028,48,2.95,83,0,0.0,Clear,clear sky,9
Balatonszéplak felső,46.898056,18.018056,2026-03-08 09:46:33.813073,13.74,12.42,13.74,13.74,1028,48,2.99,82,0,0.0,Clear,clear sky,9
Balatonszéplak alsó,46.891944,17.993333,2026-03-08 09:46:35.011383,13.79,12.48,13.79,13.79,1028,48,3.01,81,0,0.0,Clear,clear sky,9
Zamárdi felső,46.886111,17.969444,2026-03-08 09:46:36.219232,13.76,12.47,13.76,13.76,1028,49,3.04,80,0,0.0,Clear,clear sky,9
Zamárdi,46.88,17.944722,2026-03-08 09:46:37.424958,13.76,12.47,13.76,13.76,1028,49,3.04,80,0,0.0,Clear,clear sky,9
Szántód,46.861944,17.899167,2026-03-08 09:46:38.621580,13.72,12.43,13.72,13.72,1028,49,3.14,79,0,0.0,Clear,clear sky,9
Szőny-Déli,47.735278,18.141944,2026-03-08 09:46:39.816681,13.56,12.12,13.56,13.56,1028,44,2.35,134,1,0.0,Clear,clear sky,9
Várpalota,47.194444,18.149167,2026-03-08 09:46:41.017131,13.17,11.74,13.17,13.17,1028,46,2.75,105,0,0.0,Clear,clear sky,9
Pétfürdő,47.1675,18.121389,2026-03-08 09:46:42.214889,13.57,12.18,13.57,13.57,1028,46,2.75,103,0,0.0,Clear,clear sky,9
Hajmáskér,47.141111,18.009444,2026-03-08 09:46:43.424946,13.09,11.68,13.09,13.09,1028,47,2.77,104,0,0.0,Clear,clear sky,9
Veszprém,47.118889,17.91,2026-03-08 09:46:44.622332,12.95,11.55,12.95,12.95,1028,48,2.78,103,0,0.0,Clear,clear sky,9
Herend,47.136944,17.760278,2026-03-08 09:46:45.825017,12.3,10.81,12.3,12.3,1028,47,2.76,109,0,0.0,Clear,clear sky,9
Városlőd,47.144167,17.652778,2026-03-08 09:46:47.022972,12.1,10.59,12.1,12.1,1028,47,2.62,120,0,0.0,Clear,clear sky,9
Városlőd-Kislőd,47.133889,17.631111,2026-03-08 09:46:48.219303,12.54,11.08,12.54,12.54,1028,47,2.68,118,0,0.0,Clear,clear sky,9
Ajka,47.105902,17.572938,2026-03-08 09:46:49.418764,12.94,11.49,12.94,12.94,1028,46,2.69,124,0,0.0,Clear,clear sky,9
Ajka-Gyártelep,47.096806,17.555219,2026-03-08 09:46:50.618419,12.94,11.49,12.94,12.94,1028,46,2.69,124,0,0.0,Clear,clear sky,9
Devecser,47.1125,17.435278,2026-03-08 09:46:51.812748,13.25,11.83,13.25,13.25,1028,46,2.61,131,0,0.0,Clear,clear sky,9
Somlóvásárhely,47.124444,17.369167,2026-03-08 09:46:53.008423,13.27,11.88,13.27,13.27,1028,47,2.36,138,1,0.0,Clear,clear sky,9
Tüskevár,47.128611,17.331389,2026-03-08 09:46:54.214074,13.34,11.96,13.34,13.34,1028,47,2.3,138,2,0.0,Clear,clear sky,9
Karakószörcsök,47.133611,17.287778,2026-03-08 09:46:55.420009,13.36,11.98,13.36,13.36,1028,47,2.25,139,3,0.0,Clear,clear sky,9
Kerta,47.151944,17.237222,2026-03-08 09:46:56.619383,13.39,12.01,13.39,13.39,1028,47,2.03,138,4,0.0,Clear,clear sky,9
Boba,47.183333,17.191389,2026-03-08 09:46:57.821898,13.33,11.97,13.33,13.33,1028,48,1.93,138,5,0.0,Clear,clear sky,9
Börgönd,47.140278,18.515,2026-03-08 09:46:59.026762,13.99,12.54,13.99,13.99,1028,42,3.03,91,0,0.0,Clear,clear sky,9
Belsőbáránd,47.102778,18.499722,2026-03-08 09:47:00.229078,13.94,12.49,13.94,13.94,1028,42,3.03,90,0,0.0,Clear,clear sky,9
Zichyújfalu,47.124444,18.6725,2026-03-08 09:47:01.442799,14.05,12.61,14.05,14.05,1028,42,3.06,90,0,0.0,Clear,clear sky,9
Seregélyes,47.121111,18.580556,2026-03-08 09:47:02.641271,14.15,12.72,14.15,14.15,1028,42,3.04,91,0,0.0,Clear,clear sky,9
Polgárdi-Ipartelepek,47.079167,18.314444,2026-03-08 09:47:03.849175,13.58,12.12,13.58,13.58,1028,43,2.94,89,0,0.0,Clear,clear sky,9
Polgárdi,47.07,18.284167,2026-03-08 09:47:05.057871,13.58,12.12,13.58,13.58,1028,43,2.94,89,0,0.0,Clear,clear sky,9
Füle,47.05,18.255278,2026-03-08 09:47:06.256276,13.53,12.09,13.53,13.53,1028,44,2.96,88,0,0.0,Clear,clear sky,9
Zánka-Erzsébettábor,46.8775,17.709167,2026-03-08 09:47:07.450002,13.57,12.29,13.57,13.57,1028,50,3.34,81,0,0.0,Clear,clear sky,9
Csajág,47.033889,18.186389,2026-03-08 09:47:08.650882,13.59,12.18,13.59,13.59,1028,45,2.93,86,0,0.0,Clear,clear sky,9
Balatonakarattya,47.017222,18.167778,2026-03-08 09:47:09.849288,13.59,12.18,13.59,13.59,1028,45,2.93,86,0,0.0,Clear,clear sky,9
Csittényhegy,47.025278,18.1375,2026-03-08 09:47:11.053684,13.8,12.44,13.8,13.8,1028,46,2.91,86,0,0.0,Clear,clear sky,9
Balatonkenese,47.0325,18.105556,2026-03-08 09:47:12.262989,13.88,12.52,13.88,13.88,1028,46,2.89,87,0,0.0,Clear,clear sky,9
Balatonfűzfő,47.060278,18.0425,2026-03-08 09:47:13.463142,13.55,12.21,13.55,13.55,1028,48,2.82,90,0,0.0,Clear,clear sky,9
Balatonalmádi,47.028333,18.015,2026-03-08 09:47:14.659475,13.74,12.42,13.74,13.74,1028,48,2.85,87,0,0.0,Clear,clear sky,9
Káptalanfüred,47.008889,18.003889,2026-03-08 09:47:15.862186,12.84,11.43,12.84,12.84,1028,48,2.89,85,0,0.0,Clear,clear sky,9
Alsóörs,46.985278,17.974722,2026-03-08 09:47:17.062126,12.84,11.43,12.84,12.84,1028,48,2.89,85,0,0.0,Clear,clear sky,9
Csopak,46.974722,17.931111,2026-03-08 09:47:18.264013,13.17,11.8,13.17,13.17,1028,48,2.97,84,0,0.0,Clear,clear sky,9
Balatonarács,46.9625,17.8975,2026-03-08 09:47:19.467974,13.17,11.8,13.17,13.17,1028,48,2.97,84,0,0.0,Clear,clear sky,9
Balatonfüred,46.955833,17.883056,2026-03-08 09:47:20.665803,13.54,12.23,13.54,13.54,1028,49,3.04,82,0,0.0,Clear,clear sky,9
Aszófő,46.925556,17.8325,2026-03-08 09:47:21.865691,13.48,12.16,13.48,13.48,1028,49,3.12,81,0,0.0,Clear,clear sky,9
Örvényes,46.9125,17.818056,2026-03-08 09:47:23.068185,13.48,12.16,13.48,13.48,1028,49,3.12,81,0,0.0,Clear,clear sky,9
Balatonudvari,46.904722,17.808056,2026-03-08 09:47:24.264465,12.94,11.57,12.94,12.94,1028,49,3.14,82,0,0.0,Clear,clear sky,9
Fövenyes,46.893611,17.789444,2026-03-08 09:47:25.466446,13.57,12.26,13.57,13.57,1028,49,3.2,80,0,0.0,Clear,clear sky,9
Balatonakali-Dörgicse,46.88,17.747778,2026-03-08 09:47:26.664078,13.19,11.84,13.19,13.19,1028,49,3.22,81,0,0.0,Clear,clear sky,9
Zánka-Köveskál,46.872778,17.687778,2026-03-08 09:47:27.869241,13.15,11.83,13.15,13.15,1028,50,3.35,82,0,0.0,Clear,clear sky,9
Balatonszepezd,46.851111,17.663056,2026-03-08 09:47:29.068969,13.51,12.25,13.51,13.51,1028,51,3.41,79,0,0.0,Clear,clear sky,9
Szepezdfürdő,46.839722,17.649444,2026-03-08 09:47:30.264177,12.46,11.09,12.46,12.46,1028,51,3.42,80,0,0.0,Clear,clear sky,9
Révfülöp,46.829167,17.632222,2026-03-08 09:47:31.464328,12.46,11.09,12.46,12.46,1028,51,3.42,80,0,0.0,Clear,clear sky,9
Balatonrendes,46.824722,17.582778,2026-03-08 09:47:32.659061,13.03,11.75,13.03,13.03,1028,52,3.4,80,0,0.0,Clear,clear sky,9
Ábrahámhegy,46.815,17.572222,2026-03-08 09:47:33.854219,13.03,11.75,13.03,13.03,1028,52,3.4,80,0,0.0,Clear,clear sky,9
Badacsonyörs,46.805556,17.531667,2026-03-08 09:47:35.055493,13.27,12.01,13.27,13.27,1028,52,3.35,81,0,0.0,Clear,clear sky,9
Kisújszállás,47.223889,20.751111,2026-03-08 09:47:36.250142,13.28,11.71,13.28,13.28,1028,40,3.3,47,0,0.0,Clear,clear sky,9
Karcag,47.303333,20.928056,2026-03-08 09:47:37.453910,13.09,11.5,13.09,13.09,1028,40,3.46,43,0,0.0,Clear,clear sky,9
Püspökladány,47.3275,21.128889,2026-03-08 09:47:38.650280,13.1,11.54,13.1,13.1,1028,41,3.29,41,0,0.0,Clear,clear sky,9
Kaba,47.368889,21.259444,2026-03-08 09:47:39.851075,13.12,11.56,13.12,13.12,1028,41,3.17,41,0,0.0,Clear,clear sky,9
Hajdúszoboszló,47.429444,21.406944,2026-03-08 09:47:41.051804,13.02,11.47,13.02,13.02,1028,42,3.18,43,0,0.0,Clear,clear sky,9
Ebes,47.462778,21.488889,2026-03-08 09:47:42.254283,12.98,11.43,12.98,12.98,1028,42,3.22,44,0,0.0,Clear,clear sky,9
Debrecen,47.520278,21.628611,2026-03-08 09:47:43.452365,12.86,11.32,12.86,12.86,1028,43,3.25,48,0,0.0,Clear,clear sky,9
Debrecen-Csapókert,47.540556,21.648056,2026-03-08 09:47:44.659046,12.72,11.17,12.72,12.72,1028,43,3.24,49,0,0.0,Clear,clear sky,9
Apafa,47.584045,21.655858,2026-03-08 09:47:45.860971,12.64,11.08,12.64,12.64,1028,43,3.24,49,1,0.0,Clear,clear sky,9
Bocskaikert,47.6425,21.666389,2026-03-08 09:47:47.059091,12.32,10.73,12.32,12.32,1028,43,3.22,48,1,0.0,Clear,clear sky,9
Hajdúhadház,47.686944,21.679167,2026-03-08 09:47:48.257367,12.38,10.8,12.38,12.38,1028,43,3.23,49,1,0.0,Clear,clear sky,9
Téglás,47.714722,21.684722,2026-03-08 09:47:49.455531,12.36,10.77,12.36,12.36,1028,43,3.23,49,1,0.0,Clear,clear sky,9
Újfehértó,47.814444,21.706389,2026-03-08 09:47:50.661052,12.27,10.68,12.27,12.27,1029,43,3.26,47,2,0.0,Clear,clear sky,9
Nyíregyháza,47.946667,21.705556,2026-03-08 09:47:51.863539,12.05,10.43,12.05,12.05,1029,43,3.29,46,2,0.0,Clear,clear sky,9
Sóstó,47.998051,21.729047,2026-03-08 09:47:53.061301,11.99,10.37,11.99,11.99,1029,43,3.15,46,3,0.0,Clear,clear sky,9
Sóstóhegy,48.012222,21.742778,2026-03-08 09:47:54.265027,12.03,10.41,12.03,12.03,1029,43,3.15,46,3,0.0,Clear,clear sky,9
Kemecse,48.065556,21.801667,2026-03-08 09:47:55.463091,12.05,10.46,12.05,12.05,1029,44,2.99,45,4,0.0,Clear,clear sky,9
Nyírbogdány,48.082222,21.855278,2026-03-08 09:47:56.657039,12.02,10.43,12.02,12.02,1029,44,2.9,44,4,0.0,Clear,clear sky,9
Kék,48.093333,21.883889,2026-03-08 09:47:57.858952,12.1,10.51,12.1,12.1,1029,44,2.79,44,4,0.0,Clear,clear sky,9
Demecser,48.111667,21.926667,2026-03-08 09:47:59.055255,12.11,10.53,12.11,12.11,1029,44,2.69,43,4,0.0,Clear,clear sky,9
Gégény,48.128333,21.951944,2026-03-08 09:48:00.257411,12.09,10.53,12.09,12.09,1029,45,2.56,42,4,0.0,Clear,clear sky,9
Pátroha,48.158611,21.996667,2026-03-08 09:48:01.452960,12.11,10.55,12.11,12.11,1029,45,2.42,41,4,0.0,Clear,clear sky,9
Ajak,48.1865,22.048972,2026-03-08 09:48:02.658119,12.1,10.57,12.1,12.1,1029,46,2.29,40,4,0.0,Clear,clear sky,9
Kisvárda,48.208333,22.078333,2026-03-08 09:48:03.853267,12.11,10.58,12.11,12.11,1029,46,2.08,39,4,0.0,Clear,clear sky,9
Kisvárda-Hármasút,48.228333,22.091944,2026-03-08 09:48:05.068604,12.11,10.58,12.11,12.11,1029,46,2.08,39,4,0.0,Clear,clear sky,9
Fényeslitke,48.267222,22.107222,2026-03-08 09:48:06.262764,12.01,10.49,12.01,12.01,1029,47,1.88,33,5,0.0,Clear,clear sky,9
Komoró,48.305278,22.118056,2026-03-08 09:48:07.462829,11.99,10.47,11.99,11.99,1029,47,1.8,29,5,0.0,Clear,clear sky,9
Tuzsér,48.342222,22.131667,2026-03-08 09:48:08.657879,11.87,10.34,11.87,11.87,1029,47,1.69,20,6,0.0,Clear,clear sky,9
Tiszabezdéd,48.371389,22.145,2026-03-08 09:48:09.853487,11.89,10.36,11.89,11.89,1029,47,1.53,16,6,0.0,Clear,clear sky,9
Záhony,48.402222,22.183611,2026-03-08 09:48:11.051896,11.89,10.36,11.89,11.89,1029,47,1.34,11,6,0.0,Clear,clear sky,9
Karcag-Vásártér,47.3225,20.9075,2026-03-08 09:48:12.253487,13.09,11.5,13.09,13.09,1028,40,3.46,43,0,0.0,Clear,clear sky,9
Berekfürdő,47.374722,20.827222,2026-03-08 09:48:13.459566,12.97,11.37,12.97,12.97,1028,40,3.8,45,0,0.0,Clear,clear sky,9
Kunmadaras,47.415278,20.793056,2026-03-08 09:48:14.659434,12.84,11.22,12.84,12.84,1028,40,4.01,46,0,0.0,Clear,clear sky,9
Tiszaszentimre,47.490833,20.733056,2026-03-08 09:48:15.860368,12.69,11.06,12.69,12.69,1028,40,3.99,49,1,0.0,Clear,clear sky,9
Tiszaszőlős,47.555556,20.728056,2026-03-08 09:48:17.063192,12.52,10.87,12.52,12.52,1028,40,3.87,50,2,0.0,Clear,clear sky,9
Hosszúhát,47.235556,21.101944,2026-03-08 09:48:18.261099,13.3,11.76,13.3,13.3,1028,41,3.12,42,0,0.0,Clear,clear sky,9
Szerep,47.234444,21.145833,2026-03-08 09:48:19.463453,13.32,11.78,13.32,13.32,1028,41,3.11,42,0,0.0,Clear,clear sky,9
Sárrétudvari,47.231667,21.180833,2026-03-08 09:48:20.668257,13.33,11.79,13.33,13.33,1028,41,3.11,42,0,0.0,Clear,clear sky,9
Biharnagybajom,47.208889,21.221944,2026-03-08 09:48:21.868381,13.37,11.83,13.37,13.37,1028,41,3.07,42,0,0.0,Clear,clear sky,9
Füzesgyarmat,47.113056,21.194444,2026-03-08 09:48:23.069995,13.5,11.98,13.5,13.5,1028,41,2.9,42,0,0.0,Clear,clear sky,9
Füzesgyarmatfürdő,47.093787,21.201582,2026-03-08 09:48:24.270023,13.5,11.98,13.5,13.5,1028,41,2.9,42,0,0.0,Clear,clear sky,9
Báránd,47.299722,21.235278,2026-03-08 09:48:25.470674,13.22,11.67,13.22,13.22,1028,41,3.16,41,0,0.0,Clear,clear sky,9
Sáp,47.259722,21.360556,2026-03-08 09:48:26.668169,13.36,11.82,13.36,13.36,1028,41,3.1,42,0,0.0,Clear,clear sky,9
Berettyóújfalu,47.211944,21.535556,2026-03-08 09:48:27.864531,13.5,12.0,13.5,13.5,1028,42,3.07,41,0,0.0,Clear,clear sky,9
Mezőpeterd,47.176111,21.625278,2026-03-08 09:48:29.058405,13.55,12.11,13.55,13.55,1028,44,3.03,40,0,0.0,Clear,clear sky,9
Biharkeresztes,47.135556,21.721389,2026-03-08 09:48:30.256956,14.0,12.66,14.0,14.0,1028,46,2.87,36,0,0.0,Clear,clear sky,9
Tócóvölgy,47.529444,21.588889,2026-03-08 09:48:31.452337,13.21,11.63,13.21,13.21,1028,40,3.25,47,0,0.0,Clear,clear sky,9
Sáregres,46.7825,18.588889,2026-03-08 09:48:32.651967,14.62,13.31,14.62,14.62,1028,45,2.97,95,0,0.0,Clear,clear sky,9
Simontornya,46.756582,18.540674,2026-03-08 09:48:33.847322,14.5,13.21,14.5,14.5,1028,46,2.95,94,0,0.0,Clear,clear sky,9
Tolnanémedi,46.727778,18.475833,2026-03-08 09:48:35.045141,14.55,13.26,14.55,14.55,1028,46,2.93,95,0,0.0,Clear,clear sky,9
Pincehely,46.681389,18.43,2026-03-08 09:48:36.240970,14.37,13.09,14.37,14.37,1028,47,2.92,94,0,0.0,Clear,clear sky,9
Keszőhidegkút-Gyönk,46.597778,18.426111,2026-03-08 09:48:37.438772,14.42,13.17,14.42,14.42,1028,48,2.89,93,0,0.0,Clear,clear sky,9
Szárazd,46.575556,18.420833,2026-03-08 09:48:38.636335,14.46,13.21,14.46,14.46,1028,48,2.88,92,0,0.0,Clear,clear sky,9
Regöly,46.568889,18.396111,2026-03-08 09:48:39.829800,14.46,13.21,14.46,14.46,1028,48,2.88,92,0,0.0,Clear,clear sky,9
Szakály-Hőgyész,46.523611,18.389444,2026-03-08 09:48:41.027887,14.35,13.09,14.35,14.35,1028,48,2.87,91,0,0.0,Clear,clear sky,9
Dúzs,46.493889,18.377222,2026-03-08 09:48:42.223465,14.41,13.16,14.41,14.41,1028,48,2.84,91,0,0.0,Clear,clear sky,9
Csibrák,46.466667,18.336389,2026-03-08 09:48:43.420677,14.47,13.23,14.47,14.47,1028,48,2.81,90,0,0.0,Clear,clear sky,9
Kurd,46.449167,18.319167,2026-03-08 09:48:44.631603,14.14,12.86,14.14,14.14,1028,48,2.78,90,0,0.0,Clear,clear sky,9
Döbrököz,46.418889,18.255,2026-03-08 09:48:45.827634,14.44,13.19,14.44,14.44,1028,48,2.7,89,0,0.0,Clear,clear sky,9
Dombóvár,46.37,18.149722,2026-03-08 09:48:47.032381,14.48,13.24,14.48,14.48,1027,48,2.48,85,0,0.0,Clear,clear sky,9
Dombóvár alsó,46.363889,18.134167,2026-03-08 09:48:48.231029,14.48,13.24,14.48,14.48,1027,48,2.48,85,0,0.0,Clear,clear sky,9
Somoskőújfalu,48.154722,19.815556,2026-03-08 09:48:49.434214,10.31,8.6,10.31,10.31,1028,46,1.61,63,10,0.0,Clear,clear sky,9
Jászfényszaru,47.593056,19.754444,2026-03-08 09:48:50.644423,13.76,12.31,13.76,13.76,1028,43,1.99,87,3,0.0,Clear,clear sky,9
Pusztamonostor,47.564444,19.794167,2026-03-08 09:48:51.840916,13.76,12.29,13.76,13.76,1029,42,2.24,80,2,0.0,Clear,clear sky,9
Jászberény,47.494444,19.893333,2026-03-08 09:48:53.040803,13.87,12.36,13.87,13.87,1028,40,2.91,68,2,0.0,Clear,clear sky,9
Meggyespele,47.441944,19.938889,2026-03-08 09:48:54.241987,13.9,12.34,13.9,13.9,1028,38,3.23,64,2,0.0,Clear,clear sky,9
Portelek,47.418056,19.958889,2026-03-08 09:48:55.441388,13.94,12.38,13.94,13.94,1029,38,3.23,64,2,0.0,Clear,clear sky,9
Jászboldogháza-Jánoshida,47.366944,20.001389,2026-03-08 09:48:56.636563,13.94,12.38,13.94,13.94,1028,38,3.18,64,1,0.0,Clear,clear sky,9
Jászárokszállás,47.635556,19.971111,2026-03-08 09:48:57.833025,13.57,12.03,13.57,13.57,1028,40,2.17,80,4,0.0,Clear,clear sky,9
Jászdózsa,47.563056,20.028056,2026-03-08 09:48:59.033013,13.6,12.03,13.6,13.6,1028,39,2.72,70,4,0.0,Clear,clear sky,9
Jászapáti,47.513611,20.155,2026-03-08 09:49:00.235503,13.52,11.89,13.52,13.52,1028,37,3.09,64,3,0.0,Clear,clear sky,9
Jászkisér,47.456111,20.203333,2026-03-08 09:49:01.437057,13.58,11.99,13.58,13.58,1028,38,3.2,61,2,0.0,Clear,clear sky,9
Jászladány,47.373333,20.159167,2026-03-08 09:49:02.633125,13.79,12.22,13.79,13.79,1028,38,3.24,63,1,0.0,Clear,clear sky,9
Szászberek,47.320556,20.090833,2026-03-08 09:49:03.832968,13.87,12.3,13.87,13.87,1028,38,3.15,64,0,0.0,Clear,clear sky,9
Gyöngyöshalász,47.743056,19.932222,2026-03-08 09:49:05.029677,13.17,11.67,13.17,13.17,1028,43,1.32,108,6,0.0,Clear,clear sky,9
Gyöngyös,47.783056,19.937222,2026-03-08 09:49:06.227458,12.7,11.15,12.7,12.7,1028,43,1.31,104,6,0.0,Clear,clear sky,9
Erdőtelek,47.683333,20.3025,2026-03-08 09:49:07.426986,12.78,11.05,12.78,12.78,1028,36,2.87,72,5,0.0,Clear,clear sky,9
Heves,47.609444,20.306111,2026-03-08 09:49:08.633047,13.07,11.4,13.07,13.07,1028,37,2.95,67,3,0.0,Clear,clear sky,9
Hevesvezekény,47.562222,20.365833,2026-03-08 09:49:09.837305,13.07,11.42,13.07,13.07,1028,38,3.04,64,3,0.0,Clear,clear sky,9
Tarnaszentmiklós,47.546944,20.390833,2026-03-08 09:49:11.041570,13.14,11.5,13.14,13.14,1028,38,3.01,62,2,0.0,Clear,clear sky,9
Kisköre,47.495556,20.481667,2026-03-08 09:49:12.253704,13.16,11.55,13.16,13.16,1028,39,3.14,58,1,0.0,Clear,clear sky,9
Abádszalók,47.455278,20.553056,2026-03-08 09:49:13.455850,13.16,11.58,13.16,13.16,1028,40,3.23,56,1,0.0,Clear,clear sky,9
Kunhegyes,47.376667,20.641111,2026-03-08 09:49:14.659706,13.26,11.66,13.26,13.26,1028,39,3.69,50,1,0.0,Clear,clear sky,9
Kenderes,47.254444,20.686111,2026-03-08 09:49:15.862800,13.54,11.97,13.54,13.54,1028,39,3.49,49,0,0.0,Clear,clear sky,9
Maklár,47.808056,20.404722,2026-03-08 09:49:17.064236,12.09,10.22,12.09,12.09,1028,33,3.11,65,6,0.0,Clear,clear sky,9
Andornaktálya,47.852203,20.402295,2026-03-08 09:49:18.262414,11.74,9.78,11.74,11.74,1028,31,2.78,63,7,0.0,Clear,clear sky,9
Eger,47.891667,20.381667,2026-03-08 09:49:19.462320,11.66,9.69,11.66,11.66,1028,31,2.22,66,8,0.0,Clear,clear sky,9
Egervár,47.908056,20.380556,2026-03-08 09:49:20.664770,11.7,9.74,11.7,11.7,1028,31,2.03,64,8,0.0,Clear,clear sky,9
Eger-Felnémet,47.936667,20.370556,2026-03-08 09:49:21.865624,11.55,9.54,11.55,11.55,1028,30,1.86,62,8,0.0,Clear,clear sky,9
Szarvaskő,47.988611,20.3325,2026-03-08 09:49:23.073387,10.96,8.92,10.96,10.96,1028,31,1.46,59,9,0.0,Clear,clear sky,9
Mónosbél,48.031944,20.33,2026-03-08 09:49:24.276020,10.94,8.9,10.94,10.94,1028,31,1.38,56,9,0.0,Clear,clear sky,9
Bélapátfalva,48.055556,20.340556,2026-03-08 09:49:25.471393,10.65,8.58,10.65,10.65,1028,31,1.38,56,9,0.0,Clear,clear sky,9
Bélapátfalvi Cementgyár,48.058056,20.355,2026-03-08 09:49:26.674846,10.65,8.58,10.65,10.65,1028,31,1.38,56,9,0.0,Clear,clear sky,9
Szilvásvárad,48.11345,20.37919,2026-03-08 09:49:27.885092,10.06,7.96,10.06,10.06,1028,32,1.53,61,9,0.0,Clear,clear sky,9
Hejőkeresztúr,47.960278,20.869444,2026-03-08 09:49:29.085269,11.37,9.53,11.37,11.37,1028,37,2.71,42,6,0.0,Clear,clear sky,9
Tiszaújváros,47.926111,21.030556,2026-03-08 09:49:30.292029,11.61,9.82,11.61,11.61,1028,38,2.44,55,5,0.0,Clear,clear sky,9
Miskolc-Gömöri,48.106667,20.800278,2026-03-08 09:49:31.493856,10.91,9.05,10.91,10.91,1028,38,3.27,34,7,0.0,Clear,clear sky,9
Sajókeresztúr,48.168008,20.774014,2026-03-08 09:49:32.691706,10.88,8.99,10.88,10.88,1028,37,3.21,37,8,0.0,Clear,clear sky,9
Sajóecseg,48.186111,20.766667,2026-03-08 09:49:33.888333,11.0,9.12,11.0,11.0,1028,37,3.13,38,8,0.0,Clear,clear sky,9
Sajószentpéter,48.222222,20.708056,2026-03-08 09:49:35.085023,11.02,9.12,11.02,11.02,1028,36,2.92,42,8,0.0,Clear,clear sky,9
Kazincbarcika,48.264444,20.6275,2026-03-08 09:49:36.284144,11.18,9.27,11.18,11.18,1028,35,2.12,66,8,0.0,Clear,clear sky,9
Sajókaza,48.272778,20.581944,2026-03-08 09:49:37.483028,11.22,9.31,11.22,11.22,1028,35,2.03,70,8,0.0,Clear,clear sky,9
Vadna,48.276389,20.555278,2026-03-08 09:49:38.683443,11.22,9.31,11.22,11.22,1028,35,2.03,70,8,0.0,Clear,clear sky,9
Dubicsány,48.280833,20.504722,2026-03-08 09:49:39.889611,11.32,9.42,11.32,11.32,1028,35,1.83,80,8,0.0,Clear,clear sky,9
Raposka,46.851389,17.412778,2026-03-08 09:49:41.090402,13.72,12.43,13.72,13.72,1028,49,2.94,90,1,0.0,Clear,clear sky,9
Ivacs,47.641944,19.273889,2026-03-08 09:49:42.299610,13.46,11.96,13.46,13.46,1028,42,1.74,115,3,0.0,Clear,clear sky,9
Kisköre-Tiszahíd,47.480835,20.507698,2026-03-08 09:49:43.497817,13.22,11.64,13.22,13.22,1028,40,3.15,57,1,0.0,Clear,clear sky,9
Rozsály,47.912778,22.7825,2026-03-08 09:49:44.695464,13.78,12.34,13.78,13.78,1029,43,1.94,58,9,0.0,Clear,clear sky,9
Pusztakettős,47.453611,20.749722,2026-03-08 09:49:45.902979,13.07,11.45,13.07,13.07,1028,39,4.05,47,1,0.0,Clear,clear sky,9
Kisvác,47.795278,19.113611,2026-03-08 09:49:47.105126,13.76,12.37,13.76,13.76,1028,45,1.61,115,2,0.0,Clear,clear sky,9
Tiszafüred-Gyártelep,47.6075,20.736111,2026-03-08 09:49:48.304306,12.59,10.92,12.59,12.59,1028,39,3.65,52,2,0.0,Clear,clear sky,9
Újkenéz,48.251111,22.221667,2026-03-08 09:49:49.502915,12.48,10.98,12.48,12.48,1029,46,1.77,41,5,0.0,Clear,clear sky,9
Püspökladány-Vásártér,47.319167,21.096111,2026-03-08 09:49:50.704851,13.47,11.89,13.47,13.47,1028,39,3.25,41,0,0.0,Clear,clear sky,9
Végegyháza alsó,46.3675,20.866944,2026-03-08 09:49:51.904488,14.13,12.72,14.13,14.13,1028,43,2.29,40,0,0.0,Clear,clear sky,9
Orosháza felső,46.553611,20.655278,2026-03-08 09:49:53.105735,14.33,12.89,14.33,14.33,1028,41,2.45,44,0,0.0,Clear,clear sky,9
Ambrózfalva,46.353056,20.740556,2026-03-08 09:49:54.302435,14.26,12.84,14.26,14.26,1028,42,2.34,41,0,0.0,Clear,clear sky,9
Alsónyék,46.199444,18.738056,2026-03-08 09:49:55.504473,14.72,13.5,14.72,14.72,1028,48,2.6,113,0,0.0,Clear,clear sky,9
Tompapuszta,46.321389,20.966389,2026-03-08 09:49:56.706266,14.05,12.66,14.05,14.05,1028,44,2.15,37,0,0.0,Clear,clear sky,9
Halászlak,46.911879,20.56228,2026-03-08 09:49:57.901686,14.1,12.56,14.1,14.1,1028,38,2.8,47,0,0.0,Clear,clear sky,9
Sirató,46.840556,20.61,2026-03-08 09:49:59.104323,14.19,12.68,14.19,14.19,1028,39,2.67,44,0,0.0,Clear,clear sky,9
Csabacsűd felső,46.829167,20.649167,2026-03-08 09:50:00.306492,14.16,12.65,14.16,14.16,1028,39,2.67,44,0,0.0,Clear,clear sky,9
Orosháza-Üveggyár,46.579979,20.683644,2026-03-08 09:50:01.502636,14.27,12.82,14.27,14.27,1028,41,2.45,43,0,0.0,Clear,clear sky,9
Gyulai városerdő,46.69482,21.32281,2026-03-08 09:50:02.697980,14.04,12.6,14.04,14.04,1028,42,2.25,37,0,0.0,Clear,clear sky,9
Kórógyszentgyörgy,46.564377,20.224998,2026-03-08 09:50:03.894932,14.77,13.37,14.77,14.77,1028,41,2.52,52,0,0.0,Clear,clear sky,9
Kunszállás,46.784444,19.767222,2026-03-08 09:50:05.098503,14.9,13.52,14.9,14.9,1028,41,2.75,74,0,0.0,Clear,clear sky,9
Selymes,46.655321,19.8534,2026-03-08 09:50:06.294970,15.23,13.93,15.23,15.23,1028,43,2.56,69,0,0.0,Clear,clear sky,9
Petőfiszállási tanyák,46.587805,19.874509,2026-03-08 09:50:07.489234,15.13,13.82,15.13,15.13,1028,43,2.5,66,0,0.0,Clear,clear sky,9
Kisteleki szőlők,46.514199,19.92868,2026-03-08 09:50:08.686575,14.97,13.65,14.97,14.97,1028,43,2.43,59,0,0.0,Clear,clear sky,9
Kapitányság,46.435336,19.987564,2026-03-08 09:50:09.882942,14.9,13.57,14.9,14.9,1028,43,2.35,50,0,0.0,Clear,clear sky,9
Őszeszék,46.39025,20.016017,2026-03-08 09:50:11.081018,14.85,13.51,14.85,14.85,1028,43,2.33,44,0,0.0,Clear,clear sky,9
Vilmaszállás,46.366389,20.030833,2026-03-08 09:50:12.287886,14.84,13.5,14.84,14.84,1028,43,2.32,41,0,0.0,Clear,clear sky,9
Jánosszállás,46.334359,20.051199,2026-03-08 09:50:13.486309,14.83,13.49,14.83,14.83,1028,43,2.33,38,0,0.0,Clear,clear sky,9
Felsőpakony,47.343056,19.230556,2026-03-08 09:50:14.679983,14.39,12.9,14.39,14.39,1028,39,2.6,88,0,0.0,Clear,clear sky,9
Felsőméntelek,46.987074,19.557745,2026-03-08 09:50:15.882426,14.33,12.84,14.33,14.33,1028,39,3.04,81,0,0.0,Clear,clear sky,9
Alsóméntelek,46.961558,19.579121,2026-03-08 09:50:17.086852,14.36,12.9,14.36,14.36,1028,40,3.04,82,0,0.0,Clear,clear sky,9
Nagynyír,46.943319,19.585447,2026-03-08 09:50:18.286977,14.39,12.93,14.39,14.39,1028,40,3.04,83,0,0.0,Clear,clear sky,9
Úrihegy,46.917778,19.621389,2026-03-08 09:50:19.481192,14.47,13.02,14.47,14.47,1028,40,3.02,82,0,0.0,Clear,clear sky,9
Miklóstelep,46.913412,19.630913,2026-03-08 09:50:20.684135,14.48,13.03,14.48,14.48,1028,40,3.02,80,0,0.0,Clear,clear sky,9
Tiszajenő alsó,47.016944,20.134444,2026-03-08 09:50:21.888814,14.11,12.57,14.11,14.11,1028,38,3.06,56,0,0.0,Clear,clear sky,9
Óbög,46.987222,20.111111,2026-03-08 09:50:23.086099,14.24,12.74,14.24,14.24,1028,39,3.03,57,0,0.0,Clear,clear sky,9
Árpádszállás,46.866456,19.989163,2026-03-08 09:50:24.287184,14.64,13.2,14.64,14.64,1028,40,2.85,60,0,0.0,Clear,clear sky,9
Tőserdő,46.851111,19.980278,2026-03-08 09:50:25.498070,14.75,13.32,14.75,14.75,1028,40,2.81,60,0,0.0,Clear,clear sky,9
Tiszaalpár felső,46.836256,19.976753,2026-03-08 09:50:26.691006,14.75,13.32,14.75,14.75,1028,40,2.81,60,0,0.0,Clear,clear sky,9
Borsihalom,46.773056,19.92,2026-03-08 09:50:27.891918,14.99,13.62,14.99,14.99,1028,41,2.72,64,0,0.0,Clear,clear sky,9
Petőfiváros,46.725556,19.848611,2026-03-08 09:50:29.085120,15.26,13.94,15.26,15.26,1028,42,2.66,69,0,0.0,Clear,clear sky,9
Csorna,47.601944,17.248889,2026-03-08 09:50:30.281921,13.8,12.41,13.8,13.8,1028,45,1.73,122,6,0.0,Clear,clear sky,9
Szorgalmatos,47.986667,21.366389,2026-03-08 09:50:31.481680,11.93,10.22,11.93,11.93,1029,40,3.48,49,3,0.0,Clear,clear sky,9
Fótfürdő,47.6225,19.200556,2026-03-08 09:50:32.676900,13.84,12.32,13.84,13.84,1028,40,1.62,110,1,0.0,Clear,clear sky,9
Fenyveshegy,47.818333,19.068056,2026-03-08 09:50:33.873987,13.97,12.6,13.97,13.97,1028,45,1.6,115,1,0.0,Clear,clear sky,9
Hűvösvölgy,47.541202,18.96351,2026-03-08 09:50:35.078254,12.93,11.3,12.93,12.93,1028,39,1.93,103,0,0.0,Clear,clear sky,9
Hárshegy,47.535318,18.961433,2026-03-08 09:50:36.267994,12.93,11.3,12.93,12.93,1028,39,1.93,103,0,0.0,Clear,clear sky,9
Szépjuhászné,47.528277,18.955246,2026-03-08 09:50:37.467380,12.64,10.98,12.64,12.64,1028,39,2.03,100,0,0.0,Clear,clear sky,9
Jánoshegy,47.51433,18.95047,2026-03-08 09:50:38.668931,12.64,10.98,12.64,12.64,1028,39,2.03,100,0,0.0,Clear,clear sky,9
Virágvölgy,47.505965,18.95876,2026-03-08 09:50:39.867039,12.87,11.23,12.87,12.87,1028,39,2.13,98,0,0.0,Clear,clear sky,9
Csillebérc,47.498196,18.961694,2026-03-08 09:50:41.062390,12.87,11.23,12.87,12.87,1028,39,2.13,98,0,0.0,Clear,clear sky,9
Normafa,47.5,18.970558,2026-03-08 09:50:42.264872,12.87,11.23,12.87,12.87,1028,39,2.13,98,0,0.0,Clear,clear sky,9
Széchenyihegy,47.49413,18.977049,2026-03-08 09:50:43.470140,11.99,10.26,11.99,11.99,1028,39,2.04,97,0,0.0,Clear,clear sky,9
Balatonfőkajár felső,47.031389,18.215278,2026-03-08 09:50:44.669314,14.12,12.71,14.12,14.12,1028,43,2.95,87,0,0.0,Clear,clear sky,9
Piroska,47.148333,20.129722,2026-03-08 09:50:45.878930,13.77,12.22,13.77,13.77,1028,39,3.07,61,0,0.0,Clear,clear sky,9
Somodor,46.4725,17.836667,2026-03-08 09:50:47.079949,13.93,12.66,13.93,13.93,1028,49,2.85,89,0,0.0,Clear,clear sky,9
Középmező,45.995833,18.668889,2026-03-08 09:50:48.285897,14.78,13.62,14.78,14.78,1028,50,3.03,106,0,0.0,Clear,clear sky,9
Jobbágyi,47.828889,19.6875,2026-03-08 09:50:49.482842,13.31,11.87,13.31,13.31,1028,45,0.93,133,7,0.0,Clear,clear sky,9
Ferihegy,47.437222,19.223889,2026-03-08 09:50:50.686105,14.21,12.7,14.21,14.21,1028,39,2.13,89,0,0.0,Clear,clear sky,9
Máriapócs,47.852778,22.019167,2026-03-08 09:50:51.883759,12.81,11.22,12.81,12.81,1029,41,3.0,55,2,0.0,Clear,clear sky,9
Máriaudvar,47.751944,19.165,2026-03-08 09:50:53.076570,14.04,12.62,14.04,14.04,1028,43,1.63,119,2,0.0,Clear,clear sky,9
Nagyberki,46.353333,18.004167,2026-03-08 09:50:54.280174,14.24,12.97,14.24,14.24,1027,48,2.4,83,0,0.0,Clear,clear sky,9
Badacsonytomaj,46.804722,17.518056,2026-03-08 09:50:55.479867,13.66,12.41,13.66,13.66,1028,51,3.35,81,0,0.0,Clear,clear sky,9
Badacsony,46.788611,17.506389,2026-03-08 09:50:56.676107,13.67,12.42,13.67,13.67,1028,51,3.33,79,0,0.0,Clear,clear sky,9
Badacsonylábdihegy,46.793889,17.470833,2026-03-08 09:50:57.876622,13.67,12.42,13.67,13.67,1028,51,3.33,79,0,0.0,Clear,clear sky,9
Badacsonytördemic-Szigliget,46.809722,17.469167,2026-03-08 09:50:59.071838,13.69,12.45,13.69,13.69,1028,51,3.28,82,0,0.0,Clear,clear sky,9
Nemesgulács-Kisapáti,46.836944,17.476389,2026-03-08 09:51:00.276474,13.74,12.48,13.74,13.74,1028,50,3.22,86,0,0.0,Clear,clear sky,9
Tapolca,46.877778,17.428611,2026-03-08 09:51:01.485238,13.71,12.42,13.71,13.71,1028,49,2.89,96,1,0.0,Clear,clear sky,9
Uzsabánya alsó,46.898333,17.345278,2026-03-08 09:51:02.701701,12.66,11.23,12.66,12.66,1028,48,2.65,105,2,0.0,Clear,clear sky,9
Uzsa,46.920278,17.331667,2026-03-08 09:51:03.910620,13.48,12.11,13.48,13.48,1028,47,2.64,111,2,0.0,Clear,clear sky,9
Sümegi Bazaltbánya,46.9525,17.2925,2026-03-08 09:51:05.106075,13.51,12.14,13.51,13.51,1028,47,2.55,118,3,0.0,Clear,clear sky,9
Sümeg,46.981111,17.270833,2026-03-08 09:51:06.303916,13.69,12.32,13.69,13.69,1028,46,2.42,124,4,0.0,Clear,clear sky,9
Gógánfa,47.021111,17.207778,2026-03-08 09:51:07.501545,13.71,12.34,13.71,13.71,1028,46,2.31,131,5,0.0,Clear,clear sky,9
Ukk,47.041944,17.195833,2026-03-08 09:51:08.708083,13.74,12.37,13.74,13.74,1028,46,2.22,134,6,0.0,Clear,clear sky,9
Nemeskeresztúr,47.093611,17.183611,2026-03-08 09:51:09.906175,13.68,12.3,13.68,13.68,1028,46,2.12,137,5,0.0,Clear,clear sky,9
Jánosháza,47.115833,17.171667,2026-03-08 09:51:11.109386,13.75,12.38,13.75,13.75,1028,46,2.07,137,5,0.0,Clear,clear sky,9
Keszthely,46.758333,17.248056,2026-03-08 09:51:12.323176,13.52,12.23,13.52,13.52,1028,50,2.69,87,3,0.0,Clear,clear sky,9
Alsógyenes,46.765844,17.276435,2026-03-08 09:51:13.518824,13.59,12.31,13.59,13.59,1028,50,2.81,83,2,0.0,Clear,clear sky,9
Gyenesdiás,46.763333,17.292778,2026-03-08 09:51:14.721171,13.59,12.31,13.59,13.59,1028,50,2.81,83,2,0.0,Clear,clear sky,9
Vonyarcvashegy,46.755278,17.318333,2026-03-08 09:51:15.917848,13.04,11.71,13.04,13.04,1028,50,2.9,81,2,0.0,Clear,clear sky,9
Balatongyörök,46.751944,17.354444,2026-03-08 09:51:17.114606,13.63,12.35,13.63,13.63,1028,50,2.99,80,2,0.0,Clear,clear sky,9
Becehegy,46.776111,17.372778,2026-03-08 09:51:18.318937,12.5,11.11,12.5,12.5,1028,50,2.94,83,2,0.0,Clear,clear sky,9
Balatonederics,46.8025,17.385,2026-03-08 09:51:19.518115,12.47,11.08,12.47,12.47,1028,50,2.88,87,2,0.0,Clear,clear sky,9
Dabronc,47.025766,17.167006,2026-03-08 09:51:20.721709,13.73,12.36,13.73,13.73,1028,46,2.26,131,6,0.0,Clear,clear sky,9
Türje,46.994444,17.093611,2026-03-08 09:51:21.918450,13.66,12.31,13.66,13.66,1028,47,2.22,128,7,0.0,Clear,clear sky,9
Zalabér-Batyk,46.983056,17.040833,2026-03-08 09:51:23.119608,13.72,12.4,13.72,13.72,1028,48,2.16,124,8,0.0,Clear,clear sky,9
Pakod,46.959167,16.996667,2026-03-08 09:51:24.330246,13.62,12.29,13.62,13.62,1028,48,2.12,123,8,0.0,Clear,clear sky,9
Pókaszepetk,46.924444,16.972222,2026-03-08 09:51:25.536741,13.7,12.41,13.7,13.7,1028,49,2.26,119,7,0.0,Clear,clear sky,9
Kemendollár,46.905833,16.946667,2026-03-08 09:51:26.735022,13.41,12.09,13.41,13.41,1028,49,2.2,119,8,0.0,Clear,clear sky,9
Zalaegerszeg,46.833056,16.848333,2026-03-08 09:51:27.935983,13.47,12.2,13.47,13.47,1028,51,2.02,112,8,0.0,Clear,clear sky,9
Bocfölde,46.780278,16.853611,2026-03-08 09:51:29.131633,13.53,12.27,13.53,13.53,1028,51,2.2,109,7,0.0,Clear,clear sky,9
Sárhida,46.755833,16.851389,2026-03-08 09:51:30.342991,12.75,11.44,12.75,12.75,1028,52,2.11,107,8,0.0,Clear,clear sky,9
Bak,46.7325,16.849167,2026-03-08 09:51:31.553180,13.17,11.9,13.17,13.17,1028,52,2.11,105,7,0.0,Clear,clear sky,9
Tófej,46.670833,16.801944,2026-03-08 09:51:32.750457,13.04,11.76,13.04,13.04,1028,52,1.98,101,7,0.0,Clear,clear sky,9
Gutorfölde,46.646944,16.739722,2026-03-08 09:51:33.951221,13.33,12.08,13.33,13.33,1028,52,1.78,100,8,0.0,Clear,clear sky,9
Csömödér-Páka,46.608056,16.641111,2026-03-08 09:51:35.164046,13.58,12.35,13.58,13.58,1028,52,1.6,99,8,0.0,Clear,clear sky,9
Iklódbördőce,46.603056,16.604722,2026-03-08 09:51:36.367122,13.41,12.16,13.41,13.41,1028,52,1.58,99,9,0.0,Clear,clear sky,9
Lenti,46.621389,16.528611,2026-03-08 09:51:37.580817,13.59,12.36,13.59,13.59,1028,52,1.62,100,10,0.0,Clear,clear sky,9
Rédics,46.618056,16.471111,2026-03-08 09:51:38.787330,13.59,12.36,13.59,13.59,1028,52,1.63,99,10,0.0,Clear,clear sky,9
Zalalövő,46.845556,16.576389,2026-03-08 09:51:39.990356,13.34,12.09,13.34,13.34,1028,52,1.65,109,11,0.0,Clouds,few clouds,9
Zalaegerszeg-Ola,46.849167,16.844722,2026-03-08 09:51:41.192921,13.47,12.2,13.47,13.47,1028,51,2.02,112,8,0.0,Clear,clear sky,9
Andráshida,46.863116,16.7792,2026-03-08 09:51:42.391287,13.44,12.17,13.44,13.44,1028,51,1.89,113,9,0.0,Clear,clear sky,9
Bagod,46.875,16.746111,2026-03-08 09:51:43.599833,13.54,12.28,13.54,13.54,1028,51,1.75,112,10,0.0,Clear,clear sky,9
Zalaszentgyörgy,46.872222,16.7125,2026-03-08 09:51:44.796828,13.49,12.23,13.49,13.49,1028,51,1.7,111,10,0.0,Clear,clear sky,9
Zalacséb-Salomvár,46.858056,16.662222,2026-03-08 09:51:45.995620,13.26,12.0,13.26,13.26,1028,52,1.66,111,10,0.0,Clear,clear sky,9
Kópháza,47.631389,16.6375,2026-03-08 09:51:47.196689,13.26,11.87,13.26,13.26,1028,47,2.34,126,10,0.0,Clear,clear sky,9
Nagycenk,47.601111,16.690278,2026-03-08 09:51:48.396366,13.44,12.07,13.44,13.44,1028,47,2.25,128,10,0.0,Clear,clear sky,9
Sopronkövesd,47.548333,16.748056,2026-03-08 09:51:49.600318,13.28,11.86,13.28,13.28,1028,46,2.19,132,9,0.0,Clear,clear sky,9
Lövő,47.509444,16.7775,2026-03-08 09:51:50.819055,13.25,11.83,13.25,13.25,1028,46,2.15,134,9,0.0,Clear,clear sky,9
Újkér,47.457778,16.786667,2026-03-08 09:51:52.032733,13.35,11.94,13.35,13.35,1028,46,2.2,136,10,0.0,Clear,clear sky,9
Bük,47.388611,16.752222,2026-03-08 09:51:53.229234,13.43,12.03,13.43,13.43,1028,46,2.12,137,9,0.0,Clear,clear sky,9
Acsád,47.308333,16.734722,2026-03-08 09:51:54.424673,13.15,11.75,13.15,13.15,1028,47,1.9,136,9,0.0,Clear,clear sky,9
Salköveskút-Vassurány,47.291389,16.704167,2026-03-08 09:51:55.628295,13.2,11.8,13.2,13.2,1028,47,1.84,135,9,0.0,Clear,clear sky,9
Zalaszentiván,46.8875,16.909444,2026-03-08 09:51:56.824442,13.56,12.28,13.56,13.56,1028,50,2.11,117,8,0.0,Clear,clear sky,9
Alsónemesapáti,46.854167,16.936389,2026-03-08 09:51:58.025979,13.63,12.35,13.63,13.63,1028,50,2.34,115,6,0.0,Clear,clear sky,9
Józsa,47.600833,21.584444,2026-03-08 09:51:59.226343,12.83,11.21,12.83,12.83,1028,40,3.23,47,1,0.0,Clear,clear sky,9
Hajdúszentgyörgy,47.608056,21.578333,2026-03-08 09:52:00.431177,12.83,11.21,12.83,12.83,1028,40,3.23,47,1,0.0,Clear,clear sky,9
Zelemér,47.627778,21.578333,2026-03-08 09:52:01.634319,12.74,11.11,12.74,12.74,1028,40,3.22,47,1,0.0,Clear,clear sky,9
Hajdúböszörmény,47.668056,21.524167,2026-03-08 09:52:02.832151,12.64,11.03,12.64,12.64,1028,41,3.23,46,2,0.0,Clear,clear sky,9
Hajdúvid,47.749444,21.508056,2026-03-08 09:52:04.040425,12.51,10.89,12.51,12.51,1029,41,3.32,45,2,0.0,Clear,clear sky,9
Hajdúdorog,47.805556,21.493056,2026-03-08 09:52:05.241051,12.38,10.74,12.38,12.38,1029,41,3.41,46,2,0.0,Clear,clear sky,9
Hajdúnánás,47.831944,21.426667,2026-03-08 09:52:06.450270,12.3,10.66,12.3,12.3,1029,41,3.56,45,2,0.0,Clear,clear sky,9
Hajdúnánás-Vásártér,47.843056,21.407222,2026-03-08 09:52:07.649660,12.3,10.66,12.3,12.3,1029,41,3.56,45,2,0.0,Clear,clear sky,9
Tedej,47.903611,21.404444,2026-03-08 09:52:08.847479,12.12,10.46,12.12,12.12,1029,41,3.62,47,2,0.0,Clear,clear sky,9
Tiszavasvári,47.945278,21.374722,2026-03-08 09:52:10.042578,12.01,10.31,12.01,12.01,1029,40,3.62,47,2,0.0,Clear,clear sky,9
Egyházerdő,47.9725,21.365,2026-03-08 09:52:11.242760,11.99,10.29,11.99,11.99,1029,40,3.56,48,2,0.0,Clear,clear sky,9
Tiszalök,48.013056,21.369167,2026-03-08 09:52:12.441564,11.88,10.17,11.88,11.88,1029,40,3.38,51,3,0.0,Clear,clear sky,9
Hajnalos,47.998889,21.414167,2026-03-08 09:52:13.639184,11.99,10.29,11.99,11.99,1029,40,3.52,49,2,0.0,Clear,clear sky,9
Kisfástanya,47.989167,21.47,2026-03-08 09:52:14.837436,12.01,10.34,12.01,12.01,1029,41,3.53,48,2,0.0,Clear,clear sky,9
Tiszaeszlár,48.010556,21.491944,2026-03-08 09:52:16.039786,12.04,10.37,12.04,12.04,1029,41,3.49,48,2,0.0,Clear,clear sky,9
Bashalom,48.026111,21.514722,2026-03-08 09:52:17.249847,12.04,10.37,12.04,12.04,1029,41,3.43,49,2,0.0,Clear,clear sky,9
Sáránd,47.415556,21.625,2026-03-08 09:52:18.452619,13.54,11.99,13.54,13.54,1028,40,3.23,46,0,0.0,Clear,clear sky,9
Derecske,47.365,21.584167,2026-03-08 09:52:19.648419,13.62,12.08,13.62,13.62,1028,40,3.17,45,0,0.0,Clear,clear sky,9
Derecske-Vásártér,47.352222,21.58,2026-03-08 09:52:20.848099,13.62,12.08,13.62,13.62,1028,40,3.17,45,0,0.0,Clear,clear sky,9
Konyár,47.323611,21.666111,2026-03-08 09:52:22.053157,13.75,12.28,13.75,13.75,1028,42,3.13,44,0,0.0,Clear,clear sky,9
Konyári Sóstófürdő,47.324167,21.744444,2026-03-08 09:52:23.255861,13.78,12.34,13.78,13.78,1028,43,3.16,44,0,0.0,Clear,clear sky,9
Pocsaj-Esztár,47.288333,21.793056,2026-03-08 09:52:24.451400,13.83,12.42,13.83,13.83,1028,44,3.16,43,0,0.0,Clear,clear sky,9
Kismarja,47.243889,21.813889,2026-03-08 09:52:25.652162,13.91,12.53,13.91,13.91,1028,45,3.09,40,0,0.0,Clear,clear sky,9
Nagykereki,47.191667,21.8,2026-03-08 09:52:26.851942,13.95,12.6,13.95,13.95,1028,46,2.98,37,0,0.0,Clear,clear sky,9
Debrecen-Szabadságtelep,47.527778,21.658611,2026-03-08 09:52:28.045694,13.19,11.61,13.19,13.19,1028,40,3.24,48,0,0.0,Clear,clear sky,9
Kondoroskert,47.525556,21.713889,2026-03-08 09:52:29.241332,13.25,11.7,13.25,13.25,1028,41,3.27,50,0,0.0,Clear,clear sky,9
Nagycsere,47.523889,21.763056,2026-03-08 09:52:30.452260,13.27,11.72,13.27,13.27,1028,41,3.28,51,0,0.0,Clear,clear sky,9
Haláp,47.521667,21.818333,2026-03-08 09:52:31.653427,13.26,11.71,13.26,13.26,1028,41,3.29,51,0,0.0,Clear,clear sky,9
Vámospércs,47.518056,21.893889,2026-03-08 09:52:32.855225,13.27,11.75,13.27,13.27,1028,42,3.3,53,0,0.0,Clear,clear sky,9
Szentannapuszta,47.52,21.965833,2026-03-08 09:52:34.054395,13.34,11.83,13.34,13.34,1028,42,3.31,54,0,0.0,Clear,clear sky,9
Nyírábrány,47.523889,22.016944,2026-03-08 09:52:35.250448,13.36,11.87,13.36,13.36,1028,43,3.3,54,0,0.0,Clear,clear sky,9
Dombostanya,47.602778,21.706389,2026-03-08 09:52:36.458081,12.97,11.37,12.97,12.97,1028,40,3.24,49,1,0.0,Clear,clear sky,9
Hajdúsámson,47.608056,21.755278,2026-03-08 09:52:37.657959,13.05,11.48,13.05,13.05,1028,41,3.27,51,0,0.0,Clear,clear sky,9
Tamásipuszta,47.632778,21.796111,2026-03-08 09:52:38.861373,12.97,11.39,12.97,12.97,1028,41,3.27,51,0,0.0,Clear,clear sky,9
Aradványpuszta,47.662778,21.8425,2026-03-08 09:52:40.064315,12.96,11.38,12.96,12.96,1028,41,3.27,52,1,0.0,Clear,clear sky,9
Nyíradony,47.699444,21.903333,2026-03-08 09:52:41.259678,12.89,11.33,12.89,12.89,1029,42,3.2,54,1,0.0,Clear,clear sky,9
Nyírmihálydi,47.7375,21.958889,2026-03-08 09:52:42.463161,12.88,11.32,12.88,12.88,1029,42,3.16,54,1,0.0,Clear,clear sky,9
Nyírgelse,47.750833,21.987778,2026-03-08 09:52:43.662294,12.83,11.27,12.83,12.83,1029,42,3.11,55,2,0.0,Clear,clear sky,9
Nyírbogát,47.793056,22.066389,2026-03-08 09:52:44.862969,12.92,11.36,12.92,12.92,1029,42,3.01,56,2,0.0,Clear,clear sky,9
Nagykálló,47.871111,21.825833,2026-03-08 09:52:46.067382,12.62,11.01,12.62,12.62,1029,41,3.11,49,2,0.0,Clear,clear sky,9
Kállósemjén,47.854722,21.935,2026-03-08 09:52:47.271981,12.73,11.13,12.73,12.73,1029,41,3.06,52,2,0.0,Clear,clear sky,9
Nyírbátor,47.8425,22.131111,2026-03-08 09:52:48.469216,12.89,11.33,12.89,12.89,1029,42,2.96,57,2,0.0,Clear,clear sky,9
Nyírcsászári,47.865556,22.179167,2026-03-08 09:52:49.673961,13.0,11.48,13.0,13.0,1029,43,2.86,58,2,0.0,Clear,clear sky,9
Hodász,47.896111,22.213611,2026-03-08 09:52:50.873071,12.98,11.48,12.98,12.98,1029,44,2.74,59,3,0.0,Clear,clear sky,9
Nyírmeggyes,47.9225,22.256667,2026-03-08 09:52:52.075737,13.0,11.5,13.0,13.0,1029,44,2.59,59,4,0.0,Clear,clear sky,9
Mátészalka,47.951389,22.313333,2026-03-08 09:52:53.275489,13.06,11.57,13.06,13.06,1029,44,2.5,59,4,0.0,Clear,clear sky,9
Kocsord,47.941944,22.375833,2026-03-08 09:52:54.472008,13.34,11.9,13.34,13.34,1029,45,2.42,60,5,0.0,Clear,clear sky,9
Kocsord alsó,47.946389,22.400556,2026-03-08 09:52:55.686579,13.34,11.9,13.34,13.34,1029,45,2.42,60,5,0.0,Clear,clear sky,9
Győrtelek,47.936667,22.424722,2026-03-08 09:52:56.883203,13.4,11.97,13.4,13.4,1029,45,2.37,60,5,0.0,Clear,clear sky,9
Győrtelek alsó,47.921111,22.443333,2026-03-08 09:52:58.076887,13.49,12.04,13.49,13.49,1029,44,2.39,60,6,0.0,Clear,clear sky,9
Ököritófülpös,47.911389,22.495,2026-03-08 09:52:59.274118,13.54,12.1,13.54,13.54,1029,44,2.35,60,6,0.0,Clear,clear sky,9
Porcsalma-Tyukod,47.868056,22.568333,2026-03-08 09:53:00.479430,13.71,12.29,13.71,13.71,1029,44,2.39,61,7,0.0,Clear,clear sky,9
Csenger,47.826111,22.666389,2026-03-08 09:53:01.673242,13.79,12.35,13.79,13.79,1029,43,2.38,62,8,0.0,Clear,clear sky,9
Kisfái,46.888303,19.807366,2026-03-08 09:53:02.893695,14.59,13.15,14.59,14.59,1028,40,2.93,72,0,0.0,Clear,clear sky,9
Nyárlőrinci szőlők,46.8775,19.828333,2026-03-08 09:53:04.097870,14.68,13.25,14.68,14.68,1028,40,2.88,70,0,0.0,Clear,clear sky,9
Nyárlőrinc alsó,46.863889,19.878889,2026-03-08 09:53:05.300114,14.66,13.23,14.66,14.66,1028,40,2.87,68,0,0.0,Clear,clear sky,9
Tiszaug-Tiszahídfő,46.866106,20.052098,2026-03-08 09:53:06.498483,14.71,13.25,14.71,14.71,1028,39,2.85,59,0,0.0,Clear,clear sky,9
Csongrádi úti tanyák,46.690278,19.921667,2026-03-08 09:53:07.700723,15.23,13.91,15.23,15.23,1028,42,2.6,64,0,0.0,Clear,clear sky,9
Kettőshalom,46.689167,20.0225,2026-03-08 09:53:08.903008,15.04,13.67,15.04,15.04,1028,41,2.6,60,0,0.0,Clear,clear sky,9
Csongrád alsó,46.711389,20.126389,2026-03-08 09:53:10.114646,14.9,13.52,14.9,14.9,1028,41,2.62,56,0,0.0,Clear,clear sky,9
Dónát,46.66988,20.368168,2026-03-08 09:53:11.310635,14.55,13.11,14.55,14.55,1028,40,2.58,47,0,0.0,Clear,clear sky,9
Pusztatemplom,46.676667,20.407222,2026-03-08 09:53:12.507137,14.51,13.06,14.51,14.51,1028,40,2.57,45,0,0.0,Clear,clear sky,9
Előhát,47.364722,20.653611,2026-03-08 09:53:13.705916,13.31,11.71,13.31,13.31,1028,39,3.67,50,0,0.0,Clear,clear sky,9
Polgárdi-Tekerespuszta,47.017778,18.297778,2026-03-08 09:53:14.901340,14.2,12.77,14.2,14.2,1028,42,2.99,88,0,0.0,Clear,clear sky,9
Szatina-Kishajmás,46.202778,18.083611,2026-03-08 09:53:16.110534,14.11,12.83,14.11,14.11,1027,48,2.15,85,0,0.0,Clear,clear sky,9
Márok,45.886944,18.499167,2026-03-08 09:53:17.308833,14.41,13.29,14.41,14.41,1028,53,2.96,89,0,0.0,Clear,clear sky,9
Nagynyárád,45.953333,18.564722,2026-03-08 09:53:18.508199,14.47,13.33,14.47,14.47,1028,52,3.0,95,0,0.0,Clear,clear sky,9
Szászvár,46.2875,18.369722222222222,2026-03-08 09:53:19.704016,14.08,12.8,14.08,14.08,1027,48,2.7,91,0,0.0,Clear,clear sky,9
Cikó,46.263514,18.557605,2026-03-08 09:53:20.901589,14.38,13.13,14.38,14.38,1028,48,2.69,98,0,0.0,Clear,clear sky,9
Gyöngyfa-Magyarmecske,45.983889,17.958889,2026-03-08 09:53:22.097724,14.4,13.23,14.4,14.4,1027,51,2.55,106,0,0.0,Clear,clear sky,9
Nagyhát,47.581389,21.445,2026-03-08 09:53:23.299366,12.9,11.29,12.9,12.9,1028,40,3.25,44,1,0.0,Clear,clear sky,9
Balmazújváros,47.613889,21.348056,2026-03-08 09:53:24.503033,12.79,11.17,12.79,12.79,1028,40,3.42,41,1,0.0,Clear,clear sky,9
Kónya,47.600833,21.2375,2026-03-08 09:53:25.709948,12.75,11.12,12.75,12.75,1028,40,3.56,40,0,0.0,Clear,clear sky,9
Hortobágy,47.586111,21.154722,2026-03-08 09:53:26.911204,12.7,11.04,12.7,12.7,1028,39,3.75,39,0,0.0,Clear,clear sky,9
Hortobágyi Halastó,47.604167,21.074167,2026-03-08 09:53:28.111593,12.63,10.97,12.63,12.63,1028,39,3.86,40,1,0.0,Clear,clear sky,9
Ohat-Pusztakócs,47.623333,20.951111,2026-03-08 09:53:29.308715,12.48,10.78,12.48,12.48,1028,38,3.89,43,2,0.0,Clear,clear sky,9
Egyek,47.616944,20.883611,2026-03-08 09:53:30.506136,12.48,10.78,12.48,12.48,1028,38,3.73,47,2,0.0,Clear,clear sky,9
Tiszafüred,47.627778,20.756111,2026-03-08 09:53:31.701027,12.48,10.78,12.48,12.48,1028,38,3.56,51,3,0.0,Clear,clear sky,9
Poroszló,47.657778,20.654444,2026-03-08 09:53:32.900237,12.51,10.81,12.51,12.51,1028,38,3.4,57,3,0.0,Clear,clear sky,9
Kétútköz,47.694167,20.565,2026-03-08 09:53:34.097385,12.36,10.59,12.36,12.36,1028,36,3.42,60,4,0.0,Clear,clear sky,9
Egerfarmos,47.711667,20.5225,2026-03-08 09:53:35.301991,12.41,10.65,12.41,12.41,1028,36,3.49,62,4,0.0,Clear,clear sky,9
Piliscsaba,47.638056,18.829722,2026-03-08 09:53:36.502167,13.08,11.51,13.08,13.08,1028,41,1.84,121,0,0.0,Clear,clear sky,9
Pilisjászfalu,47.656111,18.797778,2026-03-08 09:53:37.697680,13.82,12.35,13.82,13.82,1028,42,1.89,123,0,0.0,Clear,clear sky,9
Leányvár,47.687594,18.772553,2026-03-08 09:53:38.900000,13.78,12.31,13.78,13.78,1028,42,1.81,127,1,0.0,Clear,clear sky,9
Dorog,47.723333,18.732778,2026-03-08 09:53:40.100337,14.05,12.63,14.05,14.05,1028,43,1.65,135,1,0.0,Clear,clear sky,9
Esztergom-Kertváros,47.743333,18.719167,2026-03-08 09:53:41.296071,14.1,12.69,14.1,14.1,1028,43,1.57,137,1,0.0,Clear,clear sky,9
Esztergom,47.7775,18.743611,2026-03-08 09:53:42.493974,13.77,12.33,13.77,13.77,1028,43,1.51,134,1,0.0,Clear,clear sky,9
Dunaalmás,47.733056,18.326389,2026-03-08 09:53:43.691247,14.02,12.57,14.02,14.02,1028,42,2.03,137,1,0.0,Clear,clear sky,9
Neszmély,47.734444,18.345278,2026-03-08 09:53:44.894788,14.02,12.57,14.02,14.02,1028,42,2.03,137,1,0.0,Clear,clear sky,9
Süttő,47.761111,18.455,2026-03-08 09:53:46.089867,14.02,12.6,14.02,14.02,1028,43,1.73,140,1,0.0,Clear,clear sky,9
Piszke,47.75307,18.478017,2026-03-08 09:53:47.292382,14.08,12.67,14.08,14.08,1028,43,1.69,140,1,0.0,Clear,clear sky,9
Lábatlan,47.751944,18.513333,2026-03-08 09:53:48.493662,14.08,12.67,14.08,14.08,1028,43,1.66,140,1,0.0,Clear,clear sky,9
Eternitgyár,47.755544,18.530014,2026-03-08 09:53:49.701361,14.08,12.67,14.08,14.08,1028,43,1.66,140,1,0.0,Clear,clear sky,9
Nyergesújfalu felső,47.762222,18.540556,2026-03-08 09:53:50.905813,14.08,12.67,14.08,14.08,1028,43,1.66,140,1,0.0,Clear,clear sky,9
Nyergesújfalu,47.761111,18.561667,2026-03-08 09:53:52.108317,14.04,12.62,14.04,14.04,1028,43,1.65,140,1,0.0,Clear,clear sky,9
Tokod,47.735,18.675,2026-03-08 09:53:53.306734,14.08,12.67,14.08,14.08,1028,43,1.66,136,1,0.0,Clear,clear sky,9
Környe,47.541667,18.330278,2026-03-08 09:53:54.504566,13.86,12.4,13.86,13.86,1028,42,2.82,128,0,0.0,Clear,clear sky,9
Kecskéd alsó,47.519722,18.316667,2026-03-08 09:53:55.702118,13.86,12.4,13.86,13.86,1028,42,2.95,126,0,0.0,Clear,clear sky,9
Oroszlány,47.486944,18.308611,2026-03-08 09:53:56.895437,13.78,12.31,13.78,13.78,1028,42,2.99,125,0,0.0,Clear,clear sky,9
Győrszabadhegy,47.663056,17.648056,2026-03-08 09:53:58.095472,13.8,12.38,13.8,13.8,1028,44,2.86,122,1,0.0,Clear,clear sky,9
Ménfőcsanak felső,47.638333,17.615,2026-03-08 09:53:59.298119,13.86,12.45,13.86,13.86,1028,44,2.7,122,2,0.0,Clear,clear sky,9
Gyömöre-Tét,47.501672,17.559596,2026-03-08 09:54:00.511202,13.76,12.34,13.76,13.76,1028,44,1.81,129,3,0.0,Clear,clear sky,9
Szerecseny,47.469167,17.5475,2026-03-08 09:54:01.708181,13.82,12.41,13.82,13.82,1028,44,1.75,131,3,0.0,Clear,clear sky,9
Gecse-Gyarmat,47.456111,17.515,2026-03-08 09:54:02.912643,13.71,12.29,13.71,13.71,1028,44,1.62,132,3,0.0,Clear,clear sky,9
Vaszar,47.4025,17.496389,2026-03-08 09:54:04.157568,13.92,12.54,13.92,13.92,1028,45,1.47,137,3,0.0,Clear,clear sky,9
Pápa,47.340556,17.458889,2026-03-08 09:54:05.361776,13.93,12.55,13.93,13.93,1028,45,1.49,138,2,0.0,Clear,clear sky,9
Mezőlak,47.324722,17.371389,2026-03-08 09:54:06.566666,13.91,12.53,13.91,13.91,1028,45,1.34,140,3,0.0,Clear,clear sky,9
Mihályháza,47.318889,17.331667,2026-03-08 09:54:07.768849,13.88,12.5,13.88,13.88,1028,45,1.42,140,3,0.0,Clear,clear sky,9
Vinár,47.306667,17.284722,2026-03-08 09:54:08.966821,13.9,12.52,13.9,13.9,1028,45,1.43,139,3,0.0,Clear,clear sky,9
Külsővat,47.279167,17.219722,2026-03-08 09:54:10.164850,13.84,12.45,13.84,13.84,1028,45,1.58,137,4,0.0,Clear,clear sky,9
Celldömölk,47.261389,17.151944,2026-03-08 09:54:11.360853,13.81,12.45,13.81,13.81,1028,46,1.72,135,5,0.0,Clear,clear sky,9
Kemenesmihályfa,47.278056,17.111111,2026-03-08 09:54:12.557954,13.4,12.0,13.4,13.4,1028,46,1.69,134,5,0.0,Clear,clear sky,9
Nagysimonyi,47.265556,17.058889,2026-03-08 09:54:13.754126,13.47,12.07,13.47,13.47,1028,46,1.8,133,6,0.0,Clear,clear sky,9
Ostffyasszonyfa,47.283889,17.023889,2026-03-08 09:54:14.950005,13.53,12.14,13.53,13.53,1028,46,1.81,132,6,0.0,Clear,clear sky,9
Sárvár,47.259167,16.928889,2026-03-08 09:54:16.148491,13.58,12.19,13.58,13.58,1028,46,1.86,132,8,0.0,Clear,clear sky,9
Porpác,47.238611,16.8325,2026-03-08 09:54:17.353073,13.5,12.13,13.5,13.5,1028,47,1.79,133,9,0.0,Clear,clear sky,9
Balatonföldvár,46.853889,17.881389,2026-03-08 09:54:18.561996,14.06,12.77,14.06,14.06,1028,48,3.18,79,0,0.0,Clear,clear sky,9
