station_name,station_lat,station_lon,observation_time,temp,feels_like,temp_min,temp_max,pressure,humidity,wind_speed,wind_deg,clouds,precipitation_1h,weather_main,weather_description,collection_hour
Búcsúszentlászló,46.793056,16.932778,2026-03-06 02:33:46.085191,2.47,0.41,2.47,2.47,1025,86,2.01,157,0,0.0,Clear,clear sky,2
Angyalföld,47.549722,19.09,2026-03-06 02:33:47.355859,4.82,4.82,4.82,4.82,1026,74,1.11,94,98,0.0,Clouds,overcast clouds,2
Felsőjánosfa,46.841389,16.544167,2026-03-06 02:33:48.624931,1.89,0.17,1.89,1.89,1025,88,1.66,182,0,0.0,Clear,clear sky,2
Pankasz,46.835833,16.496111,2026-03-06 02:33:49.893851,1.55,-0.15,1.55,1.55,1025,88,1.61,187,0,0.0,Clear,clear sky,2
Nagyrákos,46.827222,16.455556,2026-03-06 02:33:51.170962,1.49,-0.16,1.49,1.49,1025,88,1.57,190,0,0.0,Clear,clear sky,2
Őriszentpéter,46.828889,16.415278,2026-03-06 02:33:52.436763,1.57,0.13,1.57,1.57,1025,88,1.44,195,0,0.0,Clear,clear sky,2
Törökbálint,47.45,18.908611,2026-03-06 02:33:53.707180,4.42,3.35,4.42,4.42,1026,75,1.45,104,75,0.0,Clouds,broken clouds,2
Bicske alsó,47.486389,18.642778,2026-03-06 02:33:54.975637,3.83,2.71,3.83,3.83,1026,80,1.43,104,29,0.0,Clouds,scattered clouds,2
Bajánsenye,46.818056,16.358056,2026-03-06 02:33:56.249703,1.64,0.33,1.64,1.64,1025,88,1.36,195,0,0.0,Clear,clear sky,2
Aquincum,47.566218,19.048273,2026-03-06 02:33:57.522601,4.45,4.45,4.45,4.45,1026,75,1.08,95,95,0.0,Clouds,overcast clouds,2
Piliscsév,47.673889,18.791389,2026-03-06 02:33:58.796283,3.68,2.43,3.68,3.68,1026,79,1.51,120,81,0.0,Clouds,broken clouds,2
Tát,47.741201,18.64783,2026-03-06 02:34:00.062990,3.65,2.07,3.65,3.65,1026,80,1.76,134,70,0.0,Clouds,broken clouds,2
Süttő felső,47.756667,18.437222,2026-03-06 02:34:01.337883,3.23,1.54,3.23,3.23,1026,78,1.8,137,39,0.0,Clouds,scattered clouds,2
Budatétény,47.405,19.016389,2026-03-06 02:34:02.611298,4.52,3.26,4.52,4.52,1026,74,1.61,110,90,0.0,Clouds,overcast clouds,2
Seregélyes-Szőlőhegy,47.119444,18.612222,2026-03-06 02:34:03.890823,3.87,3.87,3.87,3.87,1026,71,1.0,47,9,0.0,Clear,clear sky,2
Gödöllő-Állami telepek,47.564444,19.375556,2026-03-06 02:34:05.163737,3.68,3.68,3.68,3.68,1026,76,1.19,93,97,0.0,Clouds,overcast clouds,2
Dunakeszi alsó,47.607778,19.128889,2026-03-06 02:34:06.437213,4.62,4.62,4.62,4.62,1026,75,1.05,86,99,0.0,Clouds,overcast clouds,2
Vác-Alsóváros,47.773056,19.149722,2026-03-06 02:34:07.704251,3.96,3.96,3.96,3.96,1026,79,1.17,99,100,0.0,Clouds,overcast clouds,2
Szob alsó,47.816667,18.8725,2026-03-06 02:34:08.974190,3.87,2.62,3.87,3.87,1026,81,1.53,118,96,0.0,Clouds,overcast clouds,2
Zalaszentmihály-Pacsa,46.7225,16.951944,2026-03-06 02:34:10.251011,2.49,0.5,2.49,2.49,1025,86,1.95,157,0,0.0,Clear,clear sky,2
Pötréte,46.682778,16.9575,2026-03-06 02:34:11.524469,2.51,0.62,2.51,2.51,1025,86,1.87,158,0,0.0,Clear,clear sky,2
Felsőrajk,46.667222,16.982778,2026-03-06 02:34:12.788884,2.54,0.62,2.54,2.54,1025,86,1.9,158,0,0.0,Clear,clear sky,2
Gelse,46.600556,16.982778,2026-03-06 02:34:14.062046,2.48,0.65,2.48,2.48,1025,86,1.82,161,0,0.0,Clear,clear sky,2
Őrtilos,46.297778,16.887778,2026-03-06 02:34:15.332759,2.23,0.38,2.23,2.23,1025,85,1.8,162,0,0.0,Clear,clear sky,2
Zákány,46.251944,16.9425,2026-03-06 02:34:16.598189,2.19,0.34,2.19,2.19,1025,85,1.8,161,0,0.0,Clear,clear sky,2
Berzence,46.201389,17.143611,2026-03-06 02:34:17.873213,2.91,1.34,2.91,2.91,1025,84,1.66,160,0,0.0,Clear,clear sky,2
Somogyudvarhely,46.163333,17.179722,2026-03-06 02:34:19.146355,3.0,1.57,3.0,3.0,1025,84,1.57,161,0,0.0,Clear,clear sky,2
Bélavár,46.122778,17.207778,2026-03-06 02:34:20.413505,3.22,2.09,3.22,3.22,1025,84,1.38,161,0,0.0,Clear,clear sky,2
Vízvár,46.101389,17.239444,2026-03-06 02:34:21.686253,3.26,3.26,3.26,3.26,1025,84,1.28,161,0,0.0,Clear,clear sky,2
Babócsa,46.028359,17.342276,2026-03-06 02:34:22.955073,3.56,3.56,3.56,3.56,1025,84,1.07,155,0,0.0,Clear,clear sky,2
Péterhida-Komlósd,46.006667,17.358056,2026-03-06 02:34:24.230849,3.77,3.77,3.77,3.77,1025,84,0.99,152,0,0.0,Clear,clear sky,2
Barcs,45.951944,17.446944,2026-03-06 02:34:25.501202,4.1,4.1,4.1,4.1,1025,83,0.93,146,0,0.0,Clear,clear sky,2
Barcs felső,45.958333,17.486389,2026-03-06 02:34:26.777206,4.12,4.12,4.12,4.12,1025,83,0.99,142,0,0.0,Clear,clear sky,2
Középrigóc,45.970556,17.525,2026-03-06 02:34:28.053749,4.16,4.16,4.16,4.16,1025,83,1.06,139,0,0.0,Clear,clear sky,2
Darány,45.992222,17.598611,2026-03-06 02:34:29.323263,4.36,4.36,4.36,4.36,1025,83,1.32,127,0,0.0,Clear,clear sky,2
Kisdobsza,46.012222,17.668056,2026-03-06 02:34:30.598010,4.6,3.57,4.6,4.6,1025,83,1.44,121,0,0.0,Clear,clear sky,2
Nemeske,46.023333,17.705278,2026-03-06 02:34:31.871362,4.74,3.69,4.74,4.74,1025,82,1.47,119,0,0.0,Clear,clear sky,2
Molvány,46.035278,17.748611,2026-03-06 02:34:33.139420,4.79,3.75,4.79,4.79,1025,82,1.47,116,0,0.0,Clear,clear sky,2
Szigetvár,46.043333,17.801944,2026-03-06 02:34:34.418519,4.88,3.85,4.88,4.88,1025,82,1.47,114,0,0.0,Clear,clear sky,2
Nagypeterd,46.039444,17.871667,2026-03-06 02:34:35.689033,5.08,4.1,5.08,5.08,1025,81,1.45,111,0,0.0,Clear,clear sky,2
Szentdénes,46.036667,17.926944,2026-03-06 02:34:36.968423,5.11,4.17,5.11,5.11,1025,81,1.43,109,0,0.0,Clear,clear sky,2
Háros,47.412222,19.035,2026-03-06 02:34:38.233276,4.52,3.26,4.52,4.52,1026,74,1.61,110,90,0.0,Clouds,overcast clouds,2
Nagytétény-Diósd,47.398333,18.974444,2026-03-06 02:34:39.506779,4.79,3.46,4.79,4.79,1026,75,1.7,109,85,0.0,Clouds,overcast clouds,2
Érdliget,47.390278,18.937778,2026-03-06 02:34:40.779894,4.7,3.41,4.7,4.7,1026,75,1.65,107,78,0.0,Clouds,broken clouds,2
Érd felső,47.381111,18.922222,2026-03-06 02:34:42.047224,4.34,3.05,4.34,4.34,1026,76,1.61,104,71,0.0,Clouds,broken clouds,2
Érd,47.369722,18.900833,2026-03-06 02:34:43.323708,4.45,3.09,4.45,4.45,1026,77,1.68,104,69,0.0,Clouds,broken clouds,2
Százhalombatta,47.322222,18.899167,2026-03-06 02:34:44.591391,4.36,2.88,4.36,4.36,1026,78,1.77,104,63,0.0,Clouds,broken clouds,2
Dunai Finomító,47.294444,18.878889,2026-03-06 02:34:45.877364,4.16,2.88,4.16,4.16,1026,80,1.58,92,42,0.0,Clouds,scattered clouds,2
Ercsi,47.247222,18.875278,2026-03-06 02:34:47.153147,4.24,3.01,4.24,4.24,1026,80,1.55,91,39,0.0,Clouds,scattered clouds,2
Iváncsa,47.177778,18.811944,2026-03-06 02:34:48.436842,4.03,4.03,4.03,4.03,1026,78,1.23,72,18,0.0,Clouds,few clouds,2
Pusztaszabolcs,47.139722,18.761667,2026-03-06 02:34:49.699956,4.02,4.02,4.02,4.02,1026,75,1.01,63,12,0.0,Clouds,few clouds,2
Szabadegyháza,47.082778,18.704167,2026-03-06 02:34:50.971294,3.94,3.94,3.94,3.94,1026,71,0.83,53,10,0.0,Clear,clear sky,2
Sárosd,47.039722,18.660278,2026-03-06 02:34:52.246659,3.92,3.92,3.92,3.92,1026,69,0.78,52,11,0.0,Clouds,few clouds,2
Nagylók,46.979444,18.635833,2026-03-06 02:34:53.518057,3.8,3.8,3.8,3.8,1026,66,0.56,60,13,0.0,Clouds,few clouds,2
Sárbogárd,46.896944,18.611944,2026-03-06 02:34:54.798823,4.01,4.01,4.01,4.01,1026,65,0.5,68,13,0.0,Clouds,few clouds,2
Rétszilas,46.814167,18.601389,2026-03-06 02:34:56.070545,4.13,4.13,4.13,4.13,1026,65,0.45,74,11,0.0,Clouds,few clouds,2
Nagyatád,46.228611,17.354167,2026-03-06 02:34:57.351385,3.34,1.88,3.34,3.34,1025,83,1.63,157,0,0.0,Clear,clear sky,2
Budapest-Keleti,47.500278,19.084167,2026-03-06 02:34:58.617184,4.89,4.89,4.89,4.89,1026,73,1.27,102,95,0.0,Clouds,overcast clouds,2
Ferencváros,47.468611,19.088056,2026-03-06 02:34:59.884375,4.93,4.03,4.93,4.93,1026,73,1.38,106,95,0.0,Clouds,overcast clouds,2
Budapest-Nyugati,47.510833,19.0575,2026-03-06 02:35:01.159446,4.93,4.93,4.93,4.93,1026,73,1.17,99,96,0.0,Clouds,overcast clouds,2
Kőbánya felső,47.491944,19.133889,2026-03-06 02:35:02.430329,4.74,4.74,4.74,4.74,1026,73,1.29,102,98,0.0,Clouds,overcast clouds,2
Rákos,47.488889,19.174722,2026-03-06 02:35:03.696128,4.63,4.63,4.63,4.63,1026,73,1.31,102,97,0.0,Clouds,overcast clouds,2
Rákosrendező,47.525556,19.089444,2026-03-06 02:35:04.972078,4.85,4.85,4.85,4.85,1026,73,1.18,98,98,0.0,Clouds,overcast clouds,2
Zugló,47.511389,19.101389,2026-03-06 02:35:06.243659,4.85,4.85,4.85,4.85,1026,73,1.18,98,98,0.0,Clouds,overcast clouds,2
Mezőtárkány,47.725,20.480278,2026-03-06 02:35:07.512123,3.71,3.71,3.71,3.71,1026,65,0.78,301,46,0.0,Clouds,scattered clouds,2
Istvántelek,47.550278,19.106389,2026-03-06 02:35:08.781903,4.82,4.82,4.82,4.82,1026,74,1.11,94,98,0.0,Clouds,overcast clouds,2
Rákospalota-Újpest,47.565833,19.111944,2026-03-06 02:35:10.056819,4.74,4.74,4.74,4.74,1026,74,1.07,90,99,0.0,Clouds,overcast clouds,2
Kőbánya alsó,47.483056,19.127222,2026-03-06 02:35:11.325056,4.74,4.74,4.74,4.74,1026,73,1.29,102,98,0.0,Clouds,overcast clouds,2
Kőbánya-Kispest,47.463889,19.149444,2026-03-06 02:35:12.595854,4.73,3.76,4.73,4.73,1026,73,1.41,106,98,0.0,Clouds,overcast clouds,2
Pestszentlőrinc,47.454722,19.182778,2026-03-06 02:35:13.867815,4.6,3.41,4.6,4.6,1026,72,1.56,109,96,0.0,Clouds,overcast clouds,2
Kispest,47.448135,19.157552,2026-03-06 02:35:15.136653,4.74,3.59,4.74,4.74,1026,73,1.55,109,97,0.0,Clouds,overcast clouds,2
Újpest,47.558889,19.079722,2026-03-06 02:35:16.402453,4.91,4.91,4.91,4.91,1026,74,1.12,96,96,0.0,Clouds,overcast clouds,2
Pestszentimre felső,47.413611,19.173333,2026-03-06 02:35:17.674465,4.56,3.18,4.56,4.56,1026,73,1.71,112,96,0.0,Clouds,overcast clouds,2
Dunakeszi,47.626111,19.136111,2026-03-06 02:35:18.937888,4.48,4.48,4.48,4.48,1026,75,1.05,84,100,0.0,Clouds,overcast clouds,2
Dunakeszi-Gyártelep,47.643611,19.135,2026-03-06 02:35:20.208887,4.44,4.44,4.44,4.44,1026,76,1.05,83,100,0.0,Clouds,overcast clouds,2
Alsógöd,47.676944,19.134444,2026-03-06 02:35:21.473766,4.37,4.37,4.37,4.37,1026,77,1.06,83,100,0.0,Clouds,overcast clouds,2
Göd,47.687778,19.1375,2026-03-06 02:35:22.742804,4.37,4.37,4.37,4.37,1026,77,1.06,83,100,0.0,Clouds,overcast clouds,2
Felsőgöd,47.705556,19.143333,2026-03-06 02:35:24.014027,4.34,4.34,4.34,4.34,1026,77,1.07,86,100,0.0,Clouds,overcast clouds,2
Sződ-Sződliget,47.728056,19.154722,2026-03-06 02:35:25.283826,4.27,4.27,4.27,4.27,1026,78,1.1,89,100,0.0,Clouds,overcast clouds,2
Vác,47.782778,19.133056,2026-03-06 02:35:26.550535,3.96,3.96,3.96,3.96,1026,79,1.17,99,100,0.0,Clouds,overcast clouds,2
Verőce,47.823889,19.029444,2026-03-06 02:35:27.825659,3.08,1.86,3.08,3.08,1026,81,1.43,112,99,0.0,Clouds,overcast clouds,2
Kismaros,47.8275,19.010278,2026-03-06 02:35:29.102711,2.3,0.94,2.3,2.3,1026,81,1.45,113,99,0.0,Clouds,overcast clouds,2
Nagymaros-Visegrád,47.791389,18.959167,2026-03-06 02:35:30.365810,2.87,1.73,2.87,2.87,1026,81,1.36,108,99,0.0,Clouds,overcast clouds,2
Nagymaros,47.780278,18.952222,2026-03-06 02:35:31.638262,2.87,1.73,2.87,2.87,1026,81,1.36,108,99,0.0,Clouds,overcast clouds,2
Zebegény,47.801389,18.908889,2026-03-06 02:35:32.904308,3.45,2.24,3.45,3.45,1026,81,1.46,113,99,0.0,Clouds,overcast clouds,2
Szob,47.821111,18.861944,2026-03-06 02:35:34.172498,3.22,1.82,3.22,3.22,1026,81,1.57,119,97,0.0,Clouds,overcast clouds,2
Alagimajor,47.601944,19.153889,2026-03-06 02:35:35.444661,4.62,4.62,4.62,4.62,1026,75,1.05,86,99,0.0,Clouds,overcast clouds,2
Fót,47.611389,19.181667,2026-03-06 02:35:36.714618,4.26,4.26,4.26,4.26,1026,75,1.06,84,99,0.0,Clouds,overcast clouds,2
Fótújfalu,47.615,19.192778,2026-03-06 02:35:37.982220,4.26,4.26,4.26,4.26,1026,75,1.06,84,99,0.0,Clouds,overcast clouds,2
Csomád,47.635556,19.222778,2026-03-06 02:35:39.255777,3.45,3.45,3.45,3.45,1026,75,1.06,85,99,0.0,Clouds,overcast clouds,2
Veresegyház,47.649167,19.288611,2026-03-06 02:35:40.531305,3.91,3.91,3.91,3.91,1026,76,1.11,88,98,0.0,Clouds,overcast clouds,2
Erdőkertes,47.662222,19.295833,2026-03-06 02:35:41.796904,3.91,3.91,3.91,3.91,1026,76,1.11,88,98,0.0,Clouds,overcast clouds,2
Őrbottyán,47.685833,19.283611,2026-03-06 02:35:43.062125,3.68,3.68,3.68,3.68,1026,76,1.1,89,98,0.0,Clouds,overcast clouds,2
Váchartyán,47.725833,19.248889,2026-03-06 02:35:44.333852,3.66,3.66,3.66,3.66,1026,76,1.09,93,99,0.0,Clouds,overcast clouds,2
Magyarkút-Verőce,47.826111,19.044444,2026-03-06 02:35:45.611442,3.08,1.86,3.08,3.08,1026,81,1.43,112,99,0.0,Clouds,overcast clouds,2
Szokolya,47.871111,19.030556,2026-03-06 02:35:46.882219,2.22,0.66,2.22,2.22,1026,81,1.58,118,99,0.0,Clouds,overcast clouds,2
Berkenye,47.885278,19.071944,2026-03-06 02:35:48.154158,2.97,1.55,2.97,2.97,1026,80,1.56,119,99,0.0,Clouds,overcast clouds,2
Nógrád,47.901944,19.0475,2026-03-06 02:35:49.419414,2.5,0.89,2.5,2.5,1026,80,1.65,121,99,0.0,Clouds,overcast clouds,2
Diósjenő,47.94,19.049444,2026-03-06 02:35:50.685413,2.05,0.29,2.05,2.05,1026,80,1.71,122,98,0.0,Clouds,overcast clouds,2
Borsosberény,47.971389,19.093056,2026-03-06 02:35:51.950261,2.72,1.09,2.72,2.72,1026,79,1.69,129,99,0.0,Clouds,overcast clouds,2
Nagyoroszi,47.993611,19.101111,2026-03-06 02:35:53.216158,2.5,0.81,2.5,2.5,1026,78,1.71,129,98,0.0,Clouds,overcast clouds,2
Drégelyvár,48.001944,19.079444,2026-03-06 02:35:54.489066,2.66,0.92,2.66,2.66,1026,79,1.77,124,97,0.0,Clouds,overcast clouds,2
Drégely,48.042222,19.056111,2026-03-06 02:35:55.757954,2.97,1.3,2.97,2.97,1026,79,1.75,122,96,0.0,Clouds,overcast clouds,2
Drégelypalánk,48.055,19.046111,2026-03-06 02:35:57.028100,3.03,1.42,3.03,3.03,1026,79,1.71,117,95,0.0,Clouds,overcast clouds,2
Ipolyvece,48.056944,19.106389,2026-03-06 02:35:58.313464,3.05,1.55,3.05,3.05,1026,78,1.63,126,97,0.0,Clouds,overcast clouds,2
Dejtár,48.045556,19.196389,2026-03-06 02:35:59.582939,3.06,1.62,3.06,3.06,1026,77,1.58,133,98,0.0,Clouds,overcast clouds,2
Ipolyszög,48.054444,19.221944,2026-03-06 02:36:00.853408,3.04,1.81,3.04,3.04,1026,77,1.43,133,98,0.0,Clouds,overcast clouds,2
Iklad-Domony,47.658056,19.444444,2026-03-06 02:36:02.127064,3.94,3.94,3.94,3.94,1026,76,1.16,99,99,0.0,Clouds,overcast clouds,2
Iklad-Domony felső,47.667778,19.428056,2026-03-06 02:36:03.391038,3.92,3.92,3.92,3.92,1026,76,1.15,98,98,0.0,Clouds,overcast clouds,2
Galgamácsa,47.693889,19.3925,2026-03-06 02:36:04.657363,3.64,3.64,3.64,3.64,1026,76,1.13,96,99,0.0,Clouds,overcast clouds,2
Vácrátót,47.732778,19.217778,2026-03-06 02:36:05.928709,3.94,3.94,3.94,3.94,1026,77,1.08,90,100,0.0,Clouds,overcast clouds,2
Csörög,47.735833,19.196389,2026-03-06 02:36:07.196612,4.2,4.2,4.2,4.2,1026,77,1.09,89,100,0.0,Clouds,overcast clouds,2
Galgagyörk,47.735278,19.372222,2026-03-06 02:36:08.459973,3.66,3.66,3.66,3.66,1026,76,1.13,100,99,0.0,Clouds,overcast clouds,2
Püspökhatvan,47.768611,19.366944,2026-03-06 02:36:09.727523,3.56,3.56,3.56,3.56,1026,76,1.14,108,100,0.0,Clouds,overcast clouds,2
Acsa-Erdőkürt,47.801111,19.386111,2026-03-06 02:36:11.000799,3.34,3.34,3.34,3.34,1026,76,1.15,114,100,0.0,Clouds,overcast clouds,2
Galgaguta,47.848611,19.385556,2026-03-06 02:36:12.265386,2.93,2.93,2.93,2.93,1026,76,1.17,124,100,0.0,Clouds,overcast clouds,2
Nógrádkövesd,47.879444,19.371111,2026-03-06 02:36:13.531704,3.04,3.04,3.04,3.04,1026,76,1.18,129,100,0.0,Clouds,overcast clouds,2
Magyarnándor,47.970833,19.356667,2026-03-06 02:36:14.803840,2.73,2.73,2.73,2.73,1026,76,1.24,138,100,0.0,Clouds,overcast clouds,2
Mohora,47.995556,19.347778,2026-03-06 02:36:16.073840,2.79,2.79,2.79,2.79,1026,76,1.22,139,100,0.0,Clouds,overcast clouds,2
Szügy,48.036389,19.333056,2026-03-06 02:36:17.339097,2.91,2.91,2.91,2.91,1026,76,1.1,138,100,0.0,Clouds,overcast clouds,2
Balassagyarmat,48.071111,19.293611,2026-03-06 02:36:18.614175,2.95,2.95,2.95,2.95,1026,76,1.12,135,99,0.0,Clouds,overcast clouds,2
Őrhalom,48.078773,19.403936,2026-03-06 02:36:19.885491,2.64,2.64,2.64,2.64,1026,76,0.55,119,99,0.0,Clouds,overcast clouds,2
Hugyag,48.083056,19.421111,2026-03-06 02:36:21.162630,2.64,2.64,2.64,2.64,1026,76,0.55,119,99,0.0,Clouds,overcast clouds,2
Szécsény,48.093056,19.521111,2026-03-06 02:36:22.431276,2.88,2.88,2.88,2.88,1026,76,0.33,111,98,0.0,Clouds,overcast clouds,2
Ludányhalászi,48.1325,19.529444,2026-03-06 02:36:23.696580,2.75,2.75,2.75,2.75,1026,75,0.34,60,96,0.0,Clouds,overcast clouds,2
Nógrádszakál,48.178333,19.521667,2026-03-06 02:36:24.968799,2.66,2.66,2.66,2.66,1026,75,0.45,44,95,0.0,Clouds,overcast clouds,2
Ráróspuszta,48.207222,19.541389,2026-03-06 02:36:26.241498,2.02,2.02,2.02,2.02,1026,74,0.65,29,93,0.0,Clouds,overcast clouds,2
Litke,48.215833,19.598611,2026-03-06 02:36:27.512280,2.54,2.54,2.54,2.54,1026,75,0.47,35,87,0.0,Clouds,overcast clouds,2
Nyíregyháza külső,47.943056,21.740278,2026-03-06 02:36:28.784893,2.4,-0.58,2.4,2.4,1026,68,2.96,20,14,0.0,Clouds,few clouds,2
Oros,47.945833,21.806389,2026-03-06 02:36:30.051893,2.29,-0.81,2.29,2.29,1026,69,3.07,17,12,0.0,Clouds,few clouds,2
Napkor,47.948889,21.873056,2026-03-06 02:36:31.328227,2.19,-0.96,2.19,2.19,1026,69,3.11,11,11,0.0,Clouds,few clouds,2
Apagy,47.953775,21.939044,2026-03-06 02:36:32.599257,2.14,-1.01,2.14,2.14,1026,69,3.1,9,12,0.0,Clouds,few clouds,2
Levelek-Magy,47.948056,21.993611,2026-03-06 02:36:33.876279,1.99,-1.16,1.99,1.99,1026,70,3.06,6,12,0.0,Clouds,few clouds,2
Ófehértó,47.940556,22.041389,2026-03-06 02:36:35.147083,1.85,-1.33,1.85,1.85,1026,69,3.06,4,12,0.0,Clouds,few clouds,2
Ligettanya,47.951667,22.071389,2026-03-06 02:36:36.414731,1.76,-1.42,1.76,1.76,1026,70,3.04,1,9,0.0,Clear,clear sky,2
Baktalórántháza,47.988611,22.083333,2026-03-06 02:36:37.681708,1.77,-1.4,1.77,1.77,1026,70,3.03,1,8,0.0,Clear,clear sky,2
Vaja-Rohod,48.006389,22.164167,2026-03-06 02:36:38.951226,1.68,-1.49,1.68,1.68,1026,71,3.01,358,6,0.0,Clear,clear sky,2
Rákóczitanya,48.022222,22.178333,2026-03-06 02:36:40.215146,1.6,-1.58,1.6,1.6,1026,71,3.0,357,6,0.0,Clear,clear sky,2
Nyírmada,48.059167,22.203056,2026-03-06 02:36:41.482229,1.62,-1.55,1.62,1.62,1026,72,2.99,357,6,0.0,Clear,clear sky,2
Tunyogmatolcs,47.960244,22.442247,2026-03-06 02:36:42.752498,1.48,-1.61,1.48,1.48,1026,71,2.87,355,29,0.0,Clouds,scattered clouds,2
Tunyogmatolcs alsó,47.966025,22.464713,2026-03-06 02:36:44.017686,1.41,-1.66,1.41,1.41,1026,71,2.83,355,33,0.0,Clouds,scattered clouds,2
Fehérgyarmat,47.979167,22.524444,2026-03-06 02:36:45.285439,1.32,-1.6,1.32,1.32,1026,71,2.65,357,45,0.0,Clouds,scattered clouds,2
Penyige,47.995278,22.566944,2026-03-06 02:36:46.564206,1.29,-1.57,1.29,1.29,1026,70,2.58,358,49,0.0,Clouds,scattered clouds,2
Nagyszekeres,47.976111,22.6125,2026-03-06 02:36:47.844797,1.24,-1.54,1.24,1.24,1026,70,2.49,359,52,0.0,Clouds,broken clouds,2
Kisszekeres,47.965833,22.629444,2026-03-06 02:36:49.112437,1.21,-1.61,1.21,1.21,1026,71,2.52,360,50,0.0,Clouds,scattered clouds,2
Jánkmajtis,47.941944,22.657222,2026-03-06 02:36:50.381273,1.15,-1.6,1.15,1.15,1026,71,2.44,1,50,0.0,Clouds,scattered clouds,2
Gacsály,47.926111,22.745,2026-03-06 02:36:51.645479,1.07,-1.4,1.07,1.07,1026,70,2.16,5,54,0.0,Clouds,broken clouds,2
Zajta,47.9025,22.796111,2026-03-06 02:36:52.919072,0.96,-1.21,0.96,0.96,1026,71,1.9,6,54,0.0,Clouds,broken clouds,2
Eperjeske alsó,48.360556,22.19,2026-03-06 02:36:54.190240,1.49,-1.73,1.49,1.49,1026,75,3.02,352,39,0.0,Clouds,scattered clouds,2
Mándok,48.326944,22.196389,2026-03-06 02:36:55.462617,1.53,-1.7,1.53,1.53,1026,75,3.05,352,32,0.0,Clouds,scattered clouds,2
Tornyospálca,48.268333,22.201944,2026-03-06 02:36:56.734139,1.61,-1.6,1.61,1.61,1026,74,3.04,353,25,0.0,Clouds,scattered clouds,2
Aranyosapáti,48.211303,22.253534,2026-03-06 02:36:58.001408,1.62,-1.46,1.62,1.62,1026,73,2.89,352,26,0.0,Clouds,scattered clouds,2
Gyüre,48.171389,22.269167,2026-03-06 02:36:59.280511,1.64,-1.45,1.64,1.64,1026,72,2.9,353,20,0.0,Clouds,few clouds,2
Varsány,48.151722,22.290047,2026-03-06 02:37:00.551372,1.6,-1.48,1.6,1.6,1026,72,2.89,352,19,0.0,Clouds,few clouds,2
Vásárosnamény,48.126667,22.306111,2026-03-06 02:37:01.824184,1.61,-1.47,1.61,1.61,1026,72,2.89,353,17,0.0,Clouds,few clouds,2
Vitka,48.095556,22.308056,2026-03-06 02:37:03.099785,1.61,-1.49,1.61,1.61,1026,72,2.91,353,15,0.0,Clouds,few clouds,2
Nagydobos,48.054167,22.311111,2026-03-06 02:37:04.371724,1.54,-1.58,1.54,1.54,1026,71,2.92,354,14,0.0,Clouds,few clouds,2
Ópályi,47.997778,22.318333,2026-03-06 02:37:05.653022,1.52,-1.66,1.52,1.52,1026,71,2.98,355,13,0.0,Clouds,few clouds,2
Nyírcsaholy,47.908056,22.348333,2026-03-06 02:37:06.921336,1.51,-1.68,1.51,1.51,1026,71,2.99,356,19,0.0,Clouds,few clouds,2
Nagyecsed,47.864722,22.385556,2026-03-06 02:37:08.197365,1.48,-1.6,1.48,1.48,1026,71,2.86,356,26,0.0,Clouds,scattered clouds,2
Tiborszállás,47.815278,22.402778,2026-03-06 02:37:09.463363,1.47,-1.5,1.47,1.47,1026,71,2.73,357,28,0.0,Clouds,scattered clouds,2
Kiskunhalas,46.434444,19.493611,2026-03-06 02:37:10.733946,3.7,1.98,3.7,3.7,1026,78,1.89,152,53,0.0,Clouds,broken clouds,2
Kecskemét alsó,46.895833,19.692222,2026-03-06 02:37:12.015140,2.89,0.52,2.89,2.89,1026,76,2.37,120,100,0.0,Clouds,overcast clouds,2
Putnok,48.286667,20.4375,2026-03-06 02:37:13.287877,3.01,3.01,3.01,3.01,1026,68,0.04,214,37,0.0,Clouds,scattered clouds,2
Bánréve,48.299722,20.351944,2026-03-06 02:37:14.557615,2.98,2.98,2.98,2.98,1026,70,0.08,90,36,0.0,Clouds,scattered clouds,2
Ipolytarnóc,48.236667,19.629167,2026-03-06 02:37:15.826020,2.45,2.45,2.45,2.45,1026,74,0.48,34,82,0.0,Clouds,broken clouds,2
Rákosliget,47.486111,19.257778,2026-03-06 02:37:17.095156,4.17,3.23,4.17,4.17,1026,74,1.34,101,95,0.0,Clouds,overcast clouds,2
Ikrény,47.657778,17.524167,2026-03-06 02:37:18.364008,2.51,0.76,2.51,2.51,1025,85,1.76,132,6,0.0,Clear,clear sky,2
Rábapatona,47.648889,17.461944,2026-03-06 02:37:19.628960,2.51,0.68,2.51,2.51,1025,85,1.82,134,5,0.0,Clear,clear sky,2
Enese,47.644167,17.425278,2026-03-06 02:37:20.900463,2.5,0.57,2.5,2.5,1025,85,1.9,135,5,0.0,Clear,clear sky,2
Kóny,47.632222,17.357222,2026-03-06 02:37:22.167522,2.48,0.53,2.48,2.48,1025,86,1.92,139,4,0.0,Clear,clear sky,2
Farád,47.595278,17.195833,2026-03-06 02:37:23.435109,2.48,0.09,2.48,2.48,1025,86,2.32,148,2,0.0,Clear,clear sky,2
Rábatamási,47.592778,17.161389,2026-03-06 02:37:24.699110,2.48,0.09,2.48,2.48,1025,86,2.32,148,2,0.0,Clear,clear sky,2
Szárföld,47.589167,17.123889,2026-03-06 02:37:25.970735,2.48,0.02,2.48,2.48,1025,86,2.39,150,1,0.0,Clear,clear sky,2
Veszkény,47.586944,17.101389,2026-03-06 02:37:27.241044,2.48,-0.06,2.48,2.48,1025,85,2.47,151,1,0.0,Clear,clear sky,2
Kapuvár,47.581944,17.046944,2026-03-06 02:37:28.508460,2.47,-0.15,2.47,2.47,1025,85,2.56,158,0,0.0,Clear,clear sky,2
Vitnyéd-Csermajor,47.5825,16.987222,2026-03-06 02:37:29.778829,2.47,-0.26,2.47,2.47,1025,85,2.68,162,0,0.0,Clear,clear sky,2
Petőháza,47.595278,16.893056,2026-03-06 02:37:31.059236,2.49,-0.36,2.49,2.49,1025,83,2.82,162,0,0.0,Clear,clear sky,2
Fertőszentmiklós,47.6,16.858889,2026-03-06 02:37:32.330388,2.46,-0.41,2.46,2.46,1025,83,2.84,164,0,0.0,Clear,clear sky,2
Pinnye,47.600278,16.768611,2026-03-06 02:37:33.598132,2.31,-0.47,2.31,2.31,1024,82,2.7,172,0,0.0,Clear,clear sky,2
Fertőboz,47.625,16.691667,2026-03-06 02:37:34.873626,2.24,-0.43,2.24,2.24,1024,81,2.56,172,0,0.0,Clear,clear sky,2
Sopron,47.677778,16.587222,2026-03-06 02:37:36.145460,1.92,-0.62,1.92,1.92,1024,81,2.37,169,0,0.0,Clear,clear sky,2
Fertőszéplak-Fertőd,47.618889,16.850833,2026-03-06 02:37:37.411047,2.52,-0.36,2.52,2.52,1024,82,2.86,161,0,0.0,Clear,clear sky,2
Nyúl,47.587778,17.698056,2026-03-06 02:37:38.683235,2.52,1.06,2.52,2.52,1025,85,1.54,132,8,0.0,Clear,clear sky,2
Pannonhalma,47.547778,17.740833,2026-03-06 02:37:39.958745,2.38,0.97,2.38,2.38,1025,86,1.49,137,8,0.0,Clear,clear sky,2
Tarjánpuszta,47.504722,17.789167,2026-03-06 02:37:41.247067,2.34,0.97,2.34,2.34,1025,86,1.46,143,7,0.0,Clear,clear sky,2
Győrasszonyfa,47.4925,17.799167,2026-03-06 02:37:42.517924,2.34,0.97,2.34,2.34,1025,86,1.46,143,7,0.0,Clear,clear sky,2
Veszprémvarsány,47.443333,17.818333,2026-03-06 02:37:43.783197,2.3,0.84,2.3,2.3,1025,86,1.52,149,7,0.0,Clear,clear sky,2
Bakonyszentlászló,47.395556,17.8175,2026-03-06 02:37:45.055358,1.96,0.44,1.96,1.96,1025,87,1.53,152,6,0.0,Clear,clear sky,2
Porva-Csesznek,47.326944,17.841111,2026-03-06 02:37:46.322638,0.65,-1.04,0.65,0.65,1025,88,1.52,153,5,0.0,Clear,clear sky,2
Zirc,47.266667,17.878056,2026-03-06 02:37:47.585860,0.81,0.81,0.81,0.81,1025,88,1.32,151,5,0.0,Clear,clear sky,2
Eplény,47.192778,17.921667,2026-03-06 02:37:48.857755,1.39,1.39,1.39,1.39,1025,87,0.95,137,5,0.0,Clear,clear sky,2
Marcaltő,47.4275,17.348889,2026-03-06 02:37:50.130187,2.42,0.47,2.42,2.42,1025,88,1.91,151,1,0.0,Clear,clear sky,2
Szany-Rábaszentandrás,47.460833,17.315278,2026-03-06 02:37:51.396679,2.43,0.47,2.43,2.43,1025,88,1.92,150,2,0.0,Clear,clear sky,2
Egyed-Rábacsanak,47.521944,17.316389,2026-03-06 02:37:52.665676,2.43,0.44,2.43,2.43,1025,87,1.94,148,2,0.0,Clear,clear sky,2
Rábapordány,47.557222,17.315,2026-03-06 02:37:53.930357,2.47,0.48,2.47,2.47,1025,87,1.95,146,2,0.0,Clear,clear sky,2
Albertfalva,47.440784,19.033965,2026-03-06 02:37:55.201619,4.69,3.61,4.69,4.69,1026,73,1.49,108,91,0.0,Clouds,overcast clouds,2
Budafok,47.425833,19.041389,2026-03-06 02:37:56.477981,4.52,3.26,4.52,4.52,1026,74,1.61,110,90,0.0,Clouds,overcast clouds,2
Tétényliget,47.384722,18.955278,2026-03-06 02:37:57.749377,4.7,3.41,4.7,4.7,1026,75,1.65,107,78,0.0,Clouds,broken clouds,2
Érd alsó,47.379722,18.923056,2026-03-06 02:37:59.006535,4.34,3.05,4.34,4.34,1026,76,1.61,104,71,0.0,Clouds,broken clouds,2
Tárnok,47.365556,18.873889,2026-03-06 02:38:00.279019,4.55,3.35,4.55,4.55,1026,78,1.56,96,51,0.0,Clouds,broken clouds,2
Martonvásár,47.321389,18.781667,2026-03-06 02:38:01.548055,4.29,3.18,4.29,4.29,1026,80,1.47,81,28,0.0,Clouds,scattered clouds,2
Baracska,47.297222,18.753333,2026-03-06 02:38:02.826029,4.26,3.2,4.26,4.26,1026,80,1.43,72,19,0.0,Clouds,few clouds,2
Pettend,47.26,18.708889,2026-03-06 02:38:04.095663,4.04,3.07,4.04,4.04,1026,79,1.35,60,10,0.0,Clear,clear sky,2
Kápolnásnyék,47.245556,18.692222,2026-03-06 02:38:05.368010,4.02,4.02,4.02,4.02,1026,77,1.3,54,8,0.0,Clear,clear sky,2
Velence,47.226944,18.663889,2026-03-06 02:38:06.644119,4.03,4.03,4.03,4.03,1026,76,1.25,52,8,0.0,Clear,clear sky,2
Velencefürdő,47.218611,18.648056,2026-03-06 02:38:07.908837,4.01,4.01,4.01,4.01,1026,75,1.21,50,8,0.0,Clear,clear sky,2
Gárdony,47.205833,18.624722,2026-03-06 02:38:09.177681,3.99,3.99,3.99,3.99,1026,74,1.16,49,8,0.0,Clear,clear sky,2
Agárd,47.197666,18.604907,2026-03-06 02:38:10.463715,3.99,3.99,3.99,3.99,1026,74,1.16,49,8,0.0,Clear,clear sky,2
Dinnyés,47.179722,18.560833,2026-03-06 02:38:11.729689,3.91,3.91,3.91,3.91,1026,71,1.01,49,11,0.0,Clouds,few clouds,2
Székesfehérvár,47.183611,18.424722,2026-03-06 02:38:12.999401,3.64,3.64,3.64,3.64,1026,69,0.82,63,13,0.0,Clouds,few clouds,2
Szabadbattyán,47.105278,18.388333,2026-03-06 02:38:14.267901,3.55,3.55,3.55,3.55,1026,69,0.85,68,11,0.0,Clouds,few clouds,2
Kiscséripuszta,47.048056,18.355,2026-03-06 02:38:15.545059,3.33,3.33,3.33,3.33,1026,69,0.89,75,9,0.0,Clear,clear sky,2
Lepsény,46.9875,18.248056,2026-03-06 02:38:16.817399,3.51,3.51,3.51,3.51,1026,71,0.96,83,7,0.0,Clear,clear sky,2
Balatonaliga,46.984444,18.171389,2026-03-06 02:38:18.092424,3.2,3.2,3.2,3.2,1026,73,0.99,83,6,0.0,Clear,clear sky,2
Balatonvilágos,46.964167,18.157222,2026-03-06 02:38:19.356856,3.51,3.51,3.51,3.51,1026,74,1.02,84,6,0.0,Clear,clear sky,2
Szabadifürdő,46.926111,18.103333,2026-03-06 02:38:20.624658,3.51,3.51,3.51,3.51,1026,75,1.05,88,6,0.0,Clear,clear sky,2
Ózd alsó,48.227778,20.306111,2026-03-06 02:38:21.897130,2.93,2.93,2.93,2.93,1026,70,0.13,157,40,0.0,Clouds,scattered clouds,2
Ózd,48.2225,20.294722,2026-03-06 02:38:23.165019,2.93,2.93,2.93,2.93,1026,70,0.13,157,40,0.0,Clouds,scattered clouds,2
Alsóboldva,48.212778,20.792222,2026-03-06 02:38:24.434639,3.5,2.02,3.5,3.5,1026,65,1.66,355,21,0.0,Clouds,few clouds,2
Boldva,48.223333,20.790278,2026-03-06 02:38:25.706670,3.5,2.02,3.5,3.5,1026,65,1.66,355,21,0.0,Clouds,few clouds,2
Borsodszirák,48.259167,20.770556,2026-03-06 02:38:26.972404,3.33,3.33,3.33,3.33,1026,65,1.07,357,24,0.0,Clouds,few clouds,2
Edelény alsó,48.279167,20.760833,2026-03-06 02:38:28.244792,3.33,3.33,3.33,3.33,1026,65,1.07,357,24,0.0,Clouds,few clouds,2
Edelény,48.299722,20.749444,2026-03-06 02:38:29.515900,3.19,3.19,3.19,3.19,1026,65,0.95,359,25,0.0,Clouds,scattered clouds,2
Szendrőlád,48.334444,20.731944,2026-03-06 02:38:30.791044,1.96,1.96,1.96,1.96,1026,66,0.62,355,27,0.0,Clouds,scattered clouds,2
Szendrő,48.400725,20.721346,2026-03-06 02:38:32.060273,2.69,2.69,2.69,2.69,1026,66,0.59,354,28,0.0,Clouds,scattered clouds,2
Szendrő felső,48.409907,20.720148,2026-03-06 02:38:33.325780,2.69,2.69,2.69,2.69,1026,66,0.59,354,28,0.0,Clouds,scattered clouds,2
Szalonna,48.449444,20.722222,2026-03-06 02:38:34.606378,2.56,2.56,2.56,2.56,1026,66,0.68,352,30,0.0,Clouds,scattered clouds,2
Perkupa,48.471389,20.691111,2026-03-06 02:38:35.876983,1.77,1.77,1.77,1.77,1026,67,0.78,347,33,0.0,Clouds,scattered clouds,2
Szemeretelep,47.443056,19.214167,2026-03-06 02:38:37.148504,4.48,3.26,4.48,4.48,1026,72,1.57,109,96,0.0,Clouds,overcast clouds,2
Jósvafő-Aggtelek,48.489722,20.693889,2026-03-06 02:38:38.418504,1.99,1.99,1.99,1.99,1026,67,0.89,348,35,0.0,Clouds,scattered clouds,2
Bódvaszilas,48.5375,20.738056,2026-03-06 02:38:39.684191,1.51,1.51,1.51,1.51,1026,67,0.9,351,36,0.0,Clouds,scattered clouds,2
Komjáti,48.5475,20.759722,2026-03-06 02:38:40.951372,0.97,0.97,0.97,0.97,1026,67,0.96,353,38,0.0,Clouds,scattered clouds,2
Tornanádaska,48.558333,20.787222,2026-03-06 02:38:42.223456,2.12,2.12,2.12,2.12,1026,67,0.94,357,37,0.0,Clouds,scattered clouds,2
Onga,48.121111,20.906667,2026-03-06 02:38:43.493141,3.58,0.85,3.58,3.58,1026,63,2.93,353,15,0.0,Clouds,few clouds,2
Szikszó-Vásártér,48.193056,20.934722,2026-03-06 02:38:44.764991,3.42,0.89,3.42,3.42,1026,64,2.66,358,16,0.0,Clouds,few clouds,2
Szikszó,48.201667,20.941667,2026-03-06 02:38:46.036542,3.4,0.77,3.4,3.4,1026,64,2.77,359,16,0.0,Clouds,few clouds,2
Aszaló,48.219867,20.961466,2026-03-06 02:38:47.309826,3.19,0.6,3.19,3.19,1026,64,2.67,1,16,0.0,Clouds,few clouds,2
Halmaj,48.246667,20.991667,2026-03-06 02:38:48.581086,3.19,0.6,3.19,3.19,1026,65,2.68,4,18,0.0,Clouds,few clouds,2
Csobád,48.277222,21.033889,2026-03-06 02:38:49.851743,3.09,0.5,3.09,3.09,1026,65,2.65,8,21,0.0,Clouds,few clouds,2
Ináncs,48.291111,21.057778,2026-03-06 02:38:51.125007,2.91,0.28,2.91,2.91,1026,66,2.66,12,25,0.0,Clouds,scattered clouds,2
Forró-Encs,48.3275,21.117778,2026-03-06 02:38:52.391843,2.73,0.11,2.73,2.73,1026,67,2.61,16,28,0.0,Clouds,scattered clouds,2
Méra,48.363056,21.140278,2026-03-06 02:38:53.663482,2.32,-0.29,2.32,2.32,1026,68,2.52,23,32,0.0,Clouds,scattered clouds,2
Novajidrány,48.404444,21.170556,2026-03-06 02:38:54.926650,2.42,-0.13,2.42,2.42,1026,69,2.47,24,33,0.0,Clouds,scattered clouds,2
Hernádszurdok,48.487222,21.213889,2026-03-06 02:38:56.196046,2.1,-0.37,2.1,2.1,1026,71,2.33,24,34,0.0,Clouds,scattered clouds,2
Hidasnémeti,48.508333,21.229722,2026-03-06 02:38:57.467039,1.88,-0.63,1.88,1.88,1026,72,2.33,23,32,0.0,Clouds,scattered clouds,2
Mád,48.19,21.268889,2026-03-06 02:38:58.735442,2.61,0.69,2.61,2.61,1026,65,1.91,358,39,0.0,Clouds,scattered clouds,2
Rátka,48.215,21.230278,2026-03-06 02:39:00.007422,2.97,0.85,2.97,2.97,1026,65,2.14,1,36,0.0,Clouds,scattered clouds,2
Tállya,48.226944,21.225278,2026-03-06 02:39:01.291461,2.97,0.85,2.97,2.97,1026,65,2.14,1,36,0.0,Clouds,scattered clouds,2
Golop,48.242778,21.204167,2026-03-06 02:39:02.558300,2.99,0.56,2.99,2.99,1026,66,2.46,6,31,0.0,Clouds,scattered clouds,2
Abaújszántó,48.286944,21.181667,2026-03-06 02:39:03.829512,2.57,-0.02,2.57,2.57,1026,67,2.54,13,32,0.0,Clouds,scattered clouds,2
Abaújszántói fürdő,48.268333,21.179722,2026-03-06 02:39:05.117455,2.9,0.4,2.9,2.9,1026,66,2.51,9,31,0.0,Clouds,scattered clouds,2
Abaújkér,48.309444,21.198333,2026-03-06 02:39:06.392439,2.5,-0.11,2.5,2.5,1026,67,2.55,16,32,0.0,Clouds,scattered clouds,2
Boldogkőváralja,48.345,21.208889,2026-03-06 02:39:07.663673,2.36,-0.12,2.36,2.36,1026,68,2.39,16,37,0.0,Clouds,scattered clouds,2
Korlát-Vizsoly,48.365,21.219167,2026-03-06 02:39:08.938337,2.4,-0.06,2.4,2.4,1026,69,2.38,19,37,0.0,Clouds,scattered clouds,2
Fony,48.411389,21.242778,2026-03-06 02:39:10.207395,2.29,-0.15,2.29,2.29,1026,70,2.34,23,35,0.0,Clouds,scattered clouds,2
Hejce-Vilmány,48.419444,21.245556,2026-03-06 02:39:11.479152,2.29,-0.15,2.29,2.29,1026,70,2.34,23,35,0.0,Clouds,scattered clouds,2
Göncruszka,48.445,21.246944,2026-03-06 02:39:12.748243,2.2,-0.26,2.2,2.2,1026,71,2.34,24,35,0.0,Clouds,scattered clouds,2
Gönc,48.470556,21.261389,2026-03-06 02:39:14.012176,2.06,-0.34,2.06,2.06,1026,72,2.26,21,35,0.0,Clouds,scattered clouds,2
Zsujta,48.4925,21.265,2026-03-06 02:39:15.279501,1.98,-0.46,1.98,1.98,1026,72,2.28,21,34,0.0,Clouds,scattered clouds,2
Bodrogkeresztúr,48.175556,21.354167,2026-03-06 02:39:16.552383,2.19,0.5,2.19,2.19,1026,65,1.67,353,43,0.0,Clouds,scattered clouds,2
Szegi,48.201944,21.387778,2026-03-06 02:39:17.823060,2.6,0.81,2.6,2.6,1026,66,1.8,353,46,0.0,Clouds,scattered clouds,2
Erdőbénye,48.218056,21.401944,2026-03-06 02:39:19.093029,2.86,0.94,2.86,2.86,1026,67,1.94,353,48,0.0,Clouds,scattered clouds,2
Olaszliszka-Tolcsva,48.258333,21.448056,2026-03-06 02:39:20.358803,2.67,0.55,2.67,2.67,1026,70,2.09,351,49,0.0,Clouds,scattered clouds,2
Bodrogolaszi,48.286944,21.512778,2026-03-06 02:39:21.629065,1.23,-1.2,1.23,1.23,1026,71,2.15,349,48,0.0,Clouds,scattered clouds,2
Sárospatak,48.325833,21.566111,2026-03-06 02:39:22.901870,2.34,-0.15,2.34,2.34,1025,75,2.4,347,39,0.0,Clouds,scattered clouds,2
Sátoraljaújhely,48.385833,21.657778,2026-03-06 02:39:24.180419,1.43,-1.45,1.43,1.43,1025,82,2.63,341,28,0.0,Clouds,scattered clouds,2
Vecsés,47.40855,19.25652,2026-03-06 02:39:25.453446,4.4,3.0,4.4,4.4,1026,73,1.71,110,93,0.0,Clouds,overcast clouds,2
Vecsés-Kertekalja,47.403333,19.271389,2026-03-06 02:39:26.726058,4.4,3.0,4.4,4.4,1026,73,1.71,110,93,0.0,Clouds,overcast clouds,2
Üllő,47.390833,19.348889,2026-03-06 02:39:27.991279,4.25,2.67,4.25,4.25,1026,75,1.84,111,93,0.0,Clouds,overcast clouds,2
Monor,47.34545,19.43701,2026-03-06 02:39:29.268611,3.82,1.9,3.82,3.82,1026,78,2.09,114,97,0.0,Clouds,overcast clouds,2
Pilis,47.279722,19.536389,2026-03-06 02:39:30.544576,3.51,1.34,3.51,3.51,1026,78,2.28,118,99,0.0,Clouds,overcast clouds,2
Albertirsa,47.240278,19.606389,2026-03-06 02:39:31.810321,3.36,1.13,3.36,3.36,1026,78,2.32,120,100,0.0,Clouds,overcast clouds,2
Ceglédbercel-Cserő,47.210278,19.686944,2026-03-06 02:39:33.074381,3.3,1.08,3.3,3.3,1026,77,2.3,121,100,0.0,Clouds,overcast clouds,2
Cegléd,47.182778,19.806111,2026-03-06 02:39:34.351044,3.27,1.13,3.27,3.27,1026,75,2.21,121,99,0.0,Clouds,overcast clouds,2
Abony,47.173056,20.016389,2026-03-06 02:39:35.620917,3.39,1.3,3.39,3.39,1026,69,2.18,114,100,0.0,Clouds,overcast clouds,2
Szolnok,47.179167,20.175833,2026-03-06 02:39:36.891207,3.52,1.37,3.52,3.52,1026,67,2.26,102,100,0.0,Clouds,overcast clouds,2
Szajol,47.170556,20.295278,2026-03-06 02:39:38.157319,3.55,1.32,3.55,3.55,1026,67,2.35,93,100,0.0,Clouds,overcast clouds,2
Törökszentmiklós,47.170278,20.413611,2026-03-06 02:39:39.429064,3.58,1.33,3.58,3.58,1026,67,2.38,84,90,0.0,Clouds,overcast clouds,2
Rákoscsaba-Újtelep,47.4875,19.271944,2026-03-06 02:39:40.691913,4.17,3.23,4.17,4.17,1026,74,1.34,101,95,0.0,Clouds,overcast clouds,2
Rákoscsaba,47.492222,19.284722,2026-03-06 02:39:41.965162,4.18,3.22,4.18,4.18,1026,74,1.35,100,95,0.0,Clouds,overcast clouds,2
Pécel,47.493889,19.338889,2026-03-06 02:39:43.246165,3.98,3.0,3.98,3.98,1026,75,1.35,100,95,0.0,Clouds,overcast clouds,2
Isaszeg,47.537719,19.388955,2026-03-06 02:39:44.521051,3.72,3.72,3.72,3.72,1026,76,1.22,95,96,0.0,Clouds,overcast clouds,2
Gödöllő,47.592222,19.358611,2026-03-06 02:39:45.791399,3.53,3.53,3.53,3.53,1026,76,1.16,92,97,0.0,Clouds,overcast clouds,2
Máriabesnyő,47.595556,19.389722,2026-03-06 02:39:47.061652,3.53,3.53,3.53,3.53,1026,76,1.16,92,97,0.0,Clouds,overcast clouds,2
Bag,47.641111,19.471667,2026-03-06 02:39:48.330186,3.94,3.94,3.94,3.94,1026,76,1.16,99,99,0.0,Clouds,overcast clouds,2
Aszód,47.647467,19.492882,2026-03-06 02:39:49.596959,3.76,3.76,3.76,3.76,1026,75,1.18,101,99,0.0,Clouds,overcast clouds,2
Hévízgyörk,47.638611,19.526667,2026-03-06 02:39:50.871704,3.7,3.7,3.7,3.7,1026,75,1.19,104,99,0.0,Clouds,overcast clouds,2
Galgahévíz,47.6325,19.558333,2026-03-06 02:39:52.148872,3.87,3.87,3.87,3.87,1026,74,1.23,108,100,0.0,Clouds,overcast clouds,2
Tura,47.626389,19.5975,2026-03-06 02:39:53.415118,3.75,3.75,3.75,3.75,1026,74,1.23,111,100,0.0,Clouds,overcast clouds,2
Hatvan,47.663611,19.671389,2026-03-06 02:39:54.679636,3.72,3.72,3.72,3.72,1026,71,1.06,110,100,0.0,Clouds,overcast clouds,2
Vámosgyörk,47.686111,19.927778,2026-03-06 02:39:55.948780,3.59,3.59,3.59,3.59,1026,68,0.34,107,91,0.0,Clouds,overcast clouds,2
Adács,47.696389,19.975278,2026-03-06 02:39:57.218038,3.59,3.59,3.59,3.59,1026,68,0.08,337,86,0.0,Clouds,overcast clouds,2
Karácsond,47.718056,20.048611,2026-03-06 02:39:58.486219,3.46,3.46,3.46,3.46,1026,68,0.34,302,82,0.0,Clouds,broken clouds,2
Ludas,47.723889,20.095556,2026-03-06 02:39:59.750317,3.64,3.64,3.64,3.64,1026,67,0.59,290,79,0.0,Clouds,broken clouds,2
Nagyút,47.72666666666667,20.161388888888887,2026-03-06 02:40:01.020528,3.61,3.61,3.61,3.61,1026,67,0.66,288,77,0.0,Clouds,broken clouds,2
Kál-Kápolna,47.734167,20.254167,2026-03-06 02:40:02.290820,3.62,3.62,3.62,3.62,1026,66,0.81,283,71,0.0,Clouds,broken clouds,2
Füzesabony,47.751389,20.415278,2026-03-06 02:40:03.555038,3.66,3.66,3.66,3.66,1026,66,0.92,286,53,0.0,Clouds,broken clouds,2
Szihalom,47.766944,20.491944,2026-03-06 02:40:04.823053,3.6,3.6,3.6,3.6,1026,65,0.92,298,46,0.0,Clouds,scattered clouds,2
Mezőkövesd,47.797222,20.5675,2026-03-06 02:40:06.091344,3.65,3.65,3.65,3.65,1026,65,1.11,332,37,0.0,Clouds,scattered clouds,2
Mezőkövesd felső,47.807222,20.591389,2026-03-06 02:40:07.360119,3.65,3.65,3.65,3.65,1026,65,1.11,332,37,0.0,Clouds,scattered clouds,2
Mezőkeresztes-Mezőnyárád,47.845556,20.670278,2026-03-06 02:40:08.626285,3.58,1.85,3.58,3.58,1026,64,1.88,351,29,0.0,Clouds,scattered clouds,2
Csincse,47.890833,20.764167,2026-03-06 02:40:09.898907,3.55,1.16,3.55,3.55,1026,63,2.53,353,20,0.0,Clouds,few clouds,2
Emőd,47.930556,20.822778,2026-03-06 02:40:11.170295,3.27,0.57,3.27,3.27,1026,62,2.82,351,18,0.0,Clouds,few clouds,2
Nyékládháza,47.9925,20.840556,2026-03-06 02:40:12.439172,3.55,0.78,3.55,3.55,1026,61,2.98,349,16,0.0,Clouds,few clouds,2
Miskolc-Tiszai,48.098611,20.811389,2026-03-06 02:40:13.707612,3.71,1.31,3.71,3.71,1026,63,2.57,349,19,0.0,Clouds,few clouds,2
Felsőzsolca,48.083611,20.866111,2026-03-06 02:40:14.975072,3.62,0.96,3.62,3.62,1026,62,2.86,351,16,0.0,Clouds,few clouds,2
Hernádnémeti-Bőcs,48.051389,20.985,2026-03-06 02:40:16.244503,3.45,0.76,3.45,3.45,1026,62,2.85,352,16,0.0,Clouds,few clouds,2
Tiszalúc,48.039722,21.0575,2026-03-06 02:40:17.519705,3.37,1.2,3.37,3.37,1026,62,2.26,348,20,0.0,Clouds,few clouds,2
Taktaharkány,48.091667,21.128611,2026-03-06 02:40:18.785801,3.37,1.21,3.37,3.37,1026,63,2.25,351,22,0.0,Clouds,few clouds,2
Taktaszada,48.1125,21.149444,2026-03-06 02:40:20.054394,3.28,1.19,3.28,3.28,1026,63,2.16,353,25,0.0,Clouds,scattered clouds,2
Szerencs,48.155556,21.214444,2026-03-06 02:40:21.319007,3.19,1.35,3.19,3.19,1026,64,1.92,356,35,0.0,Clouds,scattered clouds,2
Mezőzombor,48.156944,21.267778,2026-03-06 02:40:22.586425,3.05,1.33,3.05,3.05,1026,65,1.8,355,38,0.0,Clouds,scattered clouds,2
Tarcal,48.125,21.34,2026-03-06 02:40:23.854590,3.12,1.93,3.12,3.12,1026,64,1.41,351,40,0.0,Clouds,scattered clouds,2
Tokaj,48.112778,21.406667,2026-03-06 02:40:25.123952,2.46,0.99,2.46,2.46,1026,65,1.54,357,43,0.0,Clouds,scattered clouds,2
Rakamaz,48.12,21.475,2026-03-06 02:40:26.400931,2.92,1.36,2.92,2.92,1026,66,1.66,360,42,0.0,Clouds,scattered clouds,2
Görögszállás,48.04,21.555,2026-03-06 02:40:27.666323,2.8,0.99,2.8,2.8,1026,66,1.84,16,34,0.0,Clouds,scattered clouds,2
Nyírtelek,48.005,21.615556,2026-03-06 02:40:28.944685,2.64,0.17,2.64,2.64,1026,67,2.43,21,25,0.0,Clouds,scattered clouds,2
Rákoshegy,47.468611,19.245556,2026-03-06 02:40:30.211464,4.29,3.22,4.29,4.29,1026,73,1.44,104,95,0.0,Clouds,overcast clouds,2
Ecser,47.439444,19.318056,2026-03-06 02:40:31.487230,4.31,3.07,4.31,4.31,1026,74,1.57,106,94,0.0,Clouds,overcast clouds,2
Maglód,47.438889,19.340833,2026-03-06 02:40:32.757085,4.03,2.75,4.03,4.03,1026,75,1.57,106,94,0.0,Clouds,overcast clouds,2
Maglódi nyaraló,47.434167,19.363611,2026-03-06 02:40:34.025482,3.72,2.41,3.72,3.72,1026,76,1.56,105,95,0.0,Clouds,overcast clouds,2
Gyömrő,47.429722,19.393333,2026-03-06 02:40:35.296916,3.72,2.41,3.72,3.72,1026,76,1.56,105,95,0.0,Clouds,overcast clouds,2
Mende,47.426944,19.439722,2026-03-06 02:40:36.569737,3.49,1.99,3.49,3.49,1026,78,1.68,108,97,0.0,Clouds,overcast clouds,2
Szőlősnyaraló,47.450278,19.561111,2026-03-06 02:40:37.843805,3.65,2.25,3.65,3.65,1026,78,1.62,116,99,0.0,Clouds,overcast clouds,2
Sülysáp,47.451944,19.5275,2026-03-06 02:40:39.116432,3.63,2.28,3.63,3.63,1026,78,1.58,110,98,0.0,Clouds,overcast clouds,2
Tápiószecső,47.443056,19.614722,2026-03-06 02:40:40.387943,3.64,2.18,3.64,3.64,1026,77,1.66,119,99,0.0,Clouds,overcast clouds,2
Szentmártonkáta,47.431944,19.680556,2026-03-06 02:40:41.661888,3.47,1.86,3.47,3.47,1026,76,1.76,125,99,0.0,Clouds,overcast clouds,2
Nagykáta,47.409722,19.737778,2026-03-06 02:40:42.932481,3.38,1.62,3.38,3.38,1026,76,1.88,127,99,0.0,Clouds,overcast clouds,2
Farmos,47.355278,19.8375,2026-03-06 02:40:44.200926,3.04,1.0,3.04,3.04,1026,74,2.08,128,100,0.0,Clouds,overcast clouds,2
Tápiószele,47.346313,19.873504,2026-03-06 02:40:45.468732,2.88,0.78,2.88,2.88,1026,74,2.11,126,100,0.0,Clouds,overcast clouds,2
Tápiógyörgye,47.325,19.95,2026-03-06 02:40:46.744938,3.19,1.13,3.19,3.19,1026,71,2.12,122,100,0.0,Clouds,overcast clouds,2
Újszász,47.285833,20.066944,2026-03-06 02:40:48.011184,3.43,1.32,3.43,3.43,1026,68,2.21,113,100,0.0,Clouds,overcast clouds,2
Szurdokpüspöki,47.851944,19.690278,2026-03-06 02:40:49.278900,3.37,3.37,3.37,3.37,1026,72,0.52,126,100,0.0,Clouds,overcast clouds,2
Lőrinci,47.739444,19.673611,2026-03-06 02:40:50.547875,3.62,3.62,3.62,3.62,1026,71,0.92,106,100,0.0,Clouds,overcast clouds,2
Selyp,47.759167,19.670833,2026-03-06 02:40:51.819065,3.58,3.58,3.58,3.58,1026,71,0.85,106,100,0.0,Clouds,overcast clouds,2
Apc-Zagyvaszántó,47.791328,19.66822,2026-03-06 02:40:53.094297,3.55,3.55,3.55,3.55,1026,71,0.78,108,100,0.0,Clouds,overcast clouds,2
Pásztó,47.918889,19.688889,2026-03-06 02:40:54.367717,3.15,3.15,3.15,3.15,1026,74,0.45,151,100,0.0,Clouds,overcast clouds,2
Mátraszőlős-Hasznos,47.938506,19.706122,2026-03-06 02:40:55.638502,3.11,3.11,3.11,3.11,1026,74,0.39,174,100,0.0,Clouds,overcast clouds,2
Tar,47.956111,19.746389,2026-03-06 02:40:56.908603,2.65,2.65,2.65,2.65,1026,73,0.45,207,97,0.0,Clouds,overcast clouds,2
Mátraverebély,47.968333,19.778611,2026-03-06 02:40:58.176836,2.65,2.65,2.65,2.65,1026,73,0.45,207,97,0.0,Clouds,overcast clouds,2
Nagybátony,47.981111,19.82,2026-03-06 02:40:59.446018,2.78,2.78,2.78,2.78,1026,73,0.52,215,93,0.0,Clouds,overcast clouds,2
Kisterenye,48.009444,19.831944,2026-03-06 02:41:00.711860,2.83,2.83,2.83,2.83,1026,73,0.59,219,89,0.0,Clouds,overcast clouds,2
Kisterenye-Bányatelep,48.021389,19.831944,2026-03-06 02:41:01.986256,2.83,2.83,2.83,2.83,1026,73,0.59,219,89,0.0,Clouds,overcast clouds,2
Salgótarján külső,48.089444,19.790833,2026-03-06 02:41:03.257697,2.19,2.19,2.19,2.19,1026,75,0.52,198,83,0.0,Clouds,broken clouds,2
Balatonfenyves GV,46.7125,17.479167,2026-03-06 02:41:04.527125,3.14,3.14,3.14,3.14,1025,83,1.16,131,0,0.0,Clear,clear sky,2
Várhegyalja,47.737778,18.366667,2026-03-06 02:41:05.799212,3.04,1.26,3.04,3.04,1026,75,1.85,135,22,0.0,Clouds,few clouds,2
Imremajor,46.680556,17.499722,2026-03-06 02:41:07.073134,3.19,3.19,3.19,3.19,1025,83,1.17,135,0,0.0,Clear,clear sky,2
Rákospalota-Kertváros,47.578333,19.122778,2026-03-06 02:41:08.342450,4.74,4.74,4.74,4.74,1026,74,1.07,90,99,0.0,Clouds,overcast clouds,2
Vicziántelep,47.675833,19.286111,2026-03-06 02:41:09.607631,3.68,3.68,3.68,3.68,1026,76,1.1,89,98,0.0,Clouds,overcast clouds,2
Pálmajor,46.662831,17.457526,2026-03-06 02:41:10.871914,3.15,3.15,3.15,3.15,1025,83,1.21,139,0,0.0,Clear,clear sky,2
Somogyszentpál felső,46.649758,17.471404,2026-03-06 02:41:12.143444,3.19,3.19,3.19,3.19,1025,83,1.21,139,0,0.0,Clear,clear sky,2
Somogyszentpál,46.638611,17.478611,2026-03-06 02:41:13.412777,3.13,3.13,3.13,3.13,1025,83,1.25,142,0,0.0,Clear,clear sky,2
Rudnaykert,47.7175,19.257778,2026-03-06 02:41:14.688425,3.66,3.66,3.66,3.66,1026,76,1.09,93,99,0.0,Clouds,overcast clouds,2
Maroshegy,47.158333,18.406667,2026-03-06 02:41:15.962693,3.62,3.62,3.62,3.62,1026,69,0.84,62,13,0.0,Clouds,few clouds,2
Bánhida,47.573703,18.371737,2026-03-06 02:41:17.229826,2.99,1.09,2.99,2.99,1026,75,1.94,130,16,0.0,Clouds,few clouds,2
Magyarkút,47.850278,19.045,2026-03-06 02:41:18.507591,2.98,1.64,2.98,2.98,1026,81,1.5,115,99,0.0,Clouds,overcast clouds,2
Becske alsó,47.897222,19.364722,2026-03-06 02:41:19.777879,2.45,2.45,2.45,2.45,1026,76,1.18,133,100,0.0,Clouds,overcast clouds,2
Hosszúberek-Péteri,47.370556,19.389722,2026-03-06 02:41:21.049163,4.1,2.34,4.1,4.1,1026,77,1.98,113,93,0.0,Clouds,overcast clouds,2
Monorierdő,47.308889,19.499167,2026-03-06 02:41:22.320131,3.65,1.59,3.65,3.65,1026,78,2.2,116,98,0.0,Clouds,overcast clouds,2
Ceglédbercel,47.215833,19.658611,2026-03-06 02:41:23.591001,3.3,1.05,3.3,3.3,1026,78,2.33,120,100,0.0,Clouds,overcast clouds,2
Budai út,47.208333,19.731389,2026-03-06 02:41:24.857906,3.14,0.93,3.14,3.14,1026,77,2.26,121,100,0.0,Clouds,overcast clouds,2
Büdöskútpuszta,48.373056,20.726111,2026-03-06 02:41:26.130858,2.92,2.92,2.92,2.92,1026,66,0.59,355,27,0.0,Clouds,scattered clouds,2
Bánrévei Vízmű,48.282778,20.368333,2026-03-06 02:41:27.397029,3.0,3.0,3.0,3.0,1026,69,0.05,101,37,0.0,Clouds,scattered clouds,2
Rákoskert,47.456389,19.296111,2026-03-06 02:41:28.667472,4.13,3.02,4.13,4.13,1026,74,1.45,103,94,0.0,Clouds,overcast clouds,2
Szirmabesenyő,48.146944,20.783056,2026-03-06 02:41:29.936189,3.24,1.33,3.24,3.24,1026,64,1.99,349,22,0.0,Clouds,few clouds,2
Kitérőgyár,47.766944,19.935278,2026-03-06 02:41:31.198705,3.28,3.28,3.28,3.28,1026,68,0.26,317,87,0.0,Clouds,overcast clouds,2
Tápiószentmárton,47.373333,19.797778,2026-03-06 02:41:32.466787,3.0,0.96,3.0,3.0,1026,75,2.07,129,100,0.0,Clouds,overcast clouds,2
Zagyvarékas,47.244229,20.097435,2026-03-06 02:41:33.735887,3.47,1.35,3.47,3.47,1026,68,2.23,109,100,0.0,Clouds,overcast clouds,2
Abonyi út,47.206401,20.125204,2026-03-06 02:41:35.004656,3.47,1.35,3.47,3.47,1026,67,2.23,108,100,0.0,Clouds,overcast clouds,2
Jászkisér felső,47.438056,20.202222,2026-03-06 02:41:36.280276,3.63,2.0,3.63,3.63,1026,68,1.8,111,92,0.0,Clouds,overcast clouds,2
Szellőhát,47.425556,20.188889,2026-03-06 02:41:37.543528,3.6,1.81,3.6,3.6,1026,68,1.93,110,94,0.0,Clouds,overcast clouds,2
Szilvásvárad-Szalajkavölgy,48.0956,20.38272,2026-03-06 02:41:38.808100,2.11,2.11,2.11,2.11,1026,67,0.08,293,44,0.0,Clouds,scattered clouds,2
Vásárosnamény külső,48.084444,22.255556,2026-03-06 02:41:40.088435,1.56,-1.57,1.56,1.56,1026,72,2.93,354,12,0.0,Clouds,few clouds,2
Újváros,46.660556,20.536111,2026-03-06 02:41:41.364684,3.55,1.94,3.55,3.55,1026,70,1.77,56,100,0.0,Clouds,overcast clouds,2
Városi park,46.697778,19.864722,2026-03-06 02:41:42.638943,3.4,1.49,3.4,3.4,1026,77,2.01,106,100,0.0,Clouds,overcast clouds,2
Belsőkamaráspuszta,46.341944,20.848889,2026-03-06 02:41:43.903422,3.39,1.64,3.39,3.39,1026,76,1.87,33,100,0.0,Clouds,overcast clouds,2
Sajószöged,47.945278,20.981667,2026-03-06 02:41:45.169965,3.53,1.15,3.53,3.53,1026,61,2.51,349,13,0.0,Clouds,few clouds,2
Kazincbarcika alsó,48.255278,20.649167,2026-03-06 02:41:46.444959,3.25,3.25,3.25,3.25,1026,65,0.43,334,32,0.0,Clouds,scattered clouds,2
Nyárjas,46.857778,19.923611,2026-03-06 02:41:47.714097,3.18,1.17,3.18,3.18,1026,75,2.07,107,100,0.0,Clouds,overcast clouds,2
Pogonyipuszta,48.296389,20.381667,2026-03-06 02:41:48.984635,3.0,3.0,3.0,3.0,1026,69,0.05,101,37,0.0,Clouds,scattered clouds,2
Sióvölgy,46.911103,18.076964,2026-03-06 02:41:50.261351,3.51,3.51,3.51,3.51,1026,77,1.05,88,6,0.0,Clear,clear sky,2
Répáspuszta,46.430278,17.847222,2026-03-06 02:41:51.540851,3.67,3.67,3.67,3.67,1025,81,1.19,143,1,0.0,Clear,clear sky,2
Virányos,48.066667,21.527222,2026-03-06 02:41:52.812324,2.8,0.98,2.8,2.8,1026,66,1.85,12,36,0.0,Clouds,scattered clouds,2
Füzesbokor,47.988611,21.6475,2026-03-06 02:41:54.084237,2.58,-0.07,2.58,2.58,1026,68,2.61,23,22,0.0,Clouds,few clouds,2
Kunfehértó,46.355833,19.417222,2026-03-06 02:41:55.352511,3.85,2.4,3.85,3.85,1026,79,1.68,157,34,0.0,Clouds,scattered clouds,2
Erdőszél,46.329444,19.395,2026-03-06 02:41:56.617367,3.82,2.62,3.82,3.82,1026,79,1.49,157,24,0.0,Clouds,few clouds,2
Jánoshalma,46.293056,19.330278,2026-03-06 02:41:57.883711,4.07,4.07,4.07,4.07,1026,80,1.32,154,19,0.0,Clouds,few clouds,2
Mélykút,46.213056,19.370556,2026-03-06 02:41:59.156514,4.15,4.15,4.15,4.15,1026,80,1.29,154,16,0.0,Clouds,few clouds,2
Bácsalmás,46.118056,19.346389,2026-03-06 02:42:00.425820,4.33,4.33,4.33,4.33,1026,80,1.04,149,12,0.0,Clouds,few clouds,2
Almás,46.116216,19.328803,2026-03-06 02:42:01.704293,4.33,4.33,4.33,4.33,1026,80,1.04,149,12,0.0,Clouds,few clouds,2
Bácsbokod-Bácsborsód,46.115833,19.16,2026-03-06 02:42:02.970270,4.57,4.57,4.57,4.57,1026,79,0.78,111,13,0.0,Clouds,few clouds,2
Baja,46.187014,18.957602,2026-03-06 02:42:04.239431,4.93,4.93,4.93,4.93,1026,74,0.83,77,9,0.0,Clear,clear sky,2
Harkakötöny,46.458333,19.601944,2026-03-06 02:42:05.507127,3.62,1.86,3.62,3.62,1026,76,1.91,141,80,0.0,Clouds,broken clouds,2
Tajó,46.473056,19.650556,2026-03-06 02:42:06.773406,3.62,1.89,3.62,3.62,1026,76,1.88,138,86,0.0,Clouds,overcast clouds,2
Kiskunmajsa,46.501667,19.728056,2026-03-06 02:42:08.043156,3.58,1.88,3.58,3.58,1026,75,1.85,128,96,0.0,Clouds,overcast clouds,2
Jászszentlászló,46.565833,19.753611,2026-03-06 02:42:09.312611,3.52,1.76,3.52,3.52,1026,75,1.9,117,100,0.0,Clouds,overcast clouds,2
Galambos,46.625,19.801111,2026-03-06 02:42:10.583769,3.45,1.62,3.45,3.45,1026,76,1.95,112,100,0.0,Clouds,overcast clouds,2
Pestszentimre,47.402222,19.188611,2026-03-06 02:42:11.849007,4.59,3.03,4.59,4.59,1026,73,1.87,114,95,0.0,Clouds,overcast clouds,2
Gyál felső,47.390278,19.204722,2026-03-06 02:42:13.118448,4.49,2.91,4.49,4.49,1026,73,1.87,114,94,0.0,Clouds,overcast clouds,2
Gyál,47.376667,19.219444,2026-03-06 02:42:14.385812,4.49,2.91,4.49,4.49,1026,73,1.87,114,94,0.0,Clouds,overcast clouds,2
Ócsa,47.301389,19.232222,2026-03-06 02:42:15.660634,4.39,2.33,4.39,4.39,1026,75,2.33,120,90,0.0,Clouds,overcast clouds,2
Inárcs-Kakucs,47.247222,19.317778,2026-03-06 02:42:16.927762,4.17,1.89,4.17,4.17,1026,77,2.53,122,89,0.0,Clouds,overcast clouds,2
Dabas,47.194722,19.328889,2026-03-06 02:42:18.193118,3.94,1.47,3.94,3.94,1026,77,2.7,124,91,0.0,Clouds,overcast clouds,2
Gyón,47.178333,19.355556,2026-03-06 02:42:19.462777,3.91,1.39,3.91,3.91,1026,77,2.76,126,91,0.0,Clouds,overcast clouds,2
Hernád,47.161389,19.4025,2026-03-06 02:42:20.738748,3.65,1.09,3.65,3.65,1026,77,2.74,125,97,0.0,Clouds,overcast clouds,2
Bakonygyirót,47.416389,17.811944,2026-03-06 02:42:22.010793,2.31,0.89,2.31,2.31,1025,87,1.49,148,6,0.0,Clear,clear sky,2
Vinye,47.360317,17.819635,2026-03-06 02:42:23.275486,1.9,0.37,1.9,1.9,1025,88,1.53,153,6,0.0,Clear,clear sky,2
Nemesgörzsöny,47.402924,17.376385,2026-03-06 02:42:24.542725,2.41,0.47,2.41,2.41,1025,89,1.9,149,2,0.0,Clear,clear sky,2
Rábahíd,47.438618,17.337525,2026-03-06 02:42:25.808414,2.43,0.48,2.43,2.43,1025,88,1.91,151,1,0.0,Clear,clear sky,2
Öskü,47.162222,18.076389,2026-03-06 02:42:27.087847,2.77,2.77,2.77,2.77,1025,82,0.61,118,7,0.0,Clear,clear sky,2
Márkó,47.1275,17.813889,2026-03-06 02:42:28.364037,1.61,1.61,1.61,1.61,1025,88,1.08,117,4,0.0,Clear,clear sky,2
Nemeskocs,47.203333,17.188889,2026-03-06 02:42:29.631757,2.44,0.37,2.44,2.44,1025,88,2.01,160,0,0.0,Clear,clear sky,2
Zalagyömörő,47.011111,17.220833,2026-03-06 02:42:30.897961,2.49,0.31,2.49,2.49,1025,88,2.12,149,0,0.0,Clear,clear sky,2
Rigács,47.061667,17.199167,2026-03-06 02:42:32.171155,2.43,0.23,2.43,2.43,1025,88,2.13,150,0,0.0,Clear,clear sky,2
Kemenespálfa,47.139722,17.183056,2026-03-06 02:42:33.444116,2.45,0.3,2.45,2.45,1025,88,2.09,156,0,0.0,Clear,clear sky,2
Lentiszombathely,46.611389,16.5725,2026-03-06 02:42:34.715732,1.86,0.47,1.86,1.86,1025,88,1.43,155,0,0.0,Clear,clear sky,2
Ortaháza,46.626667,16.685833,2026-03-06 02:42:35.985125,1.82,0.57,1.82,1.82,1025,88,1.34,151,0,0.0,Clear,clear sky,2
Rádiháza,46.654722,16.765833,2026-03-06 02:42:37.250744,1.89,0.62,1.89,1.89,1025,88,1.36,153,0,0.0,Clear,clear sky,2
Baktüttös,46.690833,16.826389,2026-03-06 02:42:38.514811,2.11,0.55,2.11,2.11,1025,88,1.57,156,0,0.0,Clear,clear sky,2
Budafa,46.851667,16.624722,2026-03-06 02:42:39.788588,1.99,0.23,1.99,1.99,1025,88,1.7,174,0,0.0,Clear,clear sky,2
Zalapatakalja,46.845556,16.603889,2026-03-06 02:42:41.059427,1.96,0.23,1.96,1.96,1025,88,1.68,180,0,0.0,Clear,clear sky,2
Tormásliget,47.430556,16.781667,2026-03-06 02:42:42.329364,2.17,-0.64,2.17,2.17,1025,84,2.7,194,0,0.0,Clear,clear sky,2
Belecska,46.64,18.411389,2026-03-06 02:42:43.593402,4.3,4.3,4.3,4.3,1026,69,0.84,92,5,0.0,Clear,clear sky,2
Almár,47.956111,20.356944,2026-03-06 02:42:44.858765,2.57,2.57,2.57,2.57,1026,66,0.59,303,48,0.0,Clouds,scattered clouds,2
Vasútmúzeum,47.543889,19.099444,2026-03-06 02:42:46.138490,4.82,4.82,4.82,4.82,1026,74,1.11,94,98,0.0,Clouds,overcast clouds,2
Abda,47.690833,17.540556,2026-03-06 02:42:47.406924,2.51,0.62,2.51,2.51,1025,83,1.87,128,6,0.0,Clear,clear sky,2
Vadaspark,47.526111,18.949167,2026-03-06 02:42:48.676888,3.41,3.41,3.41,3.41,1026,75,1.22,102,86,0.0,Clouds,overcast clouds,2
Barosstelep,47.398889,18.989167,2026-03-06 02:42:49.942453,4.79,3.46,4.79,4.79,1026,75,1.7,109,85,0.0,Clouds,overcast clouds,2
Fegyvernek-Örményes,47.194444,20.5575,2026-03-06 02:42:51.214795,3.51,1.34,3.51,3.51,1026,68,2.28,75,82,0.0,Clouds,broken clouds,2
Zagyvapálfalva,48.068889,19.785,2026-03-06 02:42:52.482040,2.44,2.44,2.44,2.44,1026,74,0.56,203,86,0.0,Clouds,overcast clouds,2
Salgótarján,48.105556,19.807222,2026-03-06 02:42:53.759794,1.7,1.7,1.7,1.7,1026,75,0.47,190,79,0.0,Clouds,broken clouds,2
Szabadisóstó,46.933889,18.118056,2026-03-06 02:42:55.041340,3.5,3.5,3.5,3.5,1026,75,1.04,86,6,0.0,Clear,clear sky,2
Siófok,46.907778,18.053889,2026-03-06 02:42:56.309171,3.51,3.51,3.51,3.51,1026,77,1.05,88,6,0.0,Clear,clear sky,2
Balatonszéplak felső,46.898056,18.018056,2026-03-06 02:42:57.580021,3.41,3.41,3.41,3.41,1025,78,1.04,92,5,0.0,Clear,clear sky,2
Balatonszéplak alsó,46.891944,17.993333,2026-03-06 02:42:58.850070,3.46,3.46,3.46,3.46,1025,79,1.03,93,5,0.0,Clear,clear sky,2
Zamárdi felső,46.886111,17.969444,2026-03-06 02:43:00.116743,3.42,3.42,3.42,3.42,1025,80,1.02,93,5,0.0,Clear,clear sky,2
Zamárdi,46.88,17.944722,2026-03-06 02:43:01.381893,3.42,3.42,3.42,3.42,1025,80,1.02,93,5,0.0,Clear,clear sky,2
Szántód,46.861944,17.899167,2026-03-06 02:43:02.651036,3.41,3.41,3.41,3.41,1025,82,1.02,104,4,0.0,Clear,clear sky,2
Szőny-Déli,47.735278,18.141944,2026-03-06 02:43:03.915953,2.79,0.86,2.79,2.79,1025,73,1.94,134,9,0.0,Clear,clear sky,2
Várpalota,47.194444,18.149167,2026-03-06 02:43:05.186967,2.57,2.57,2.57,2.57,1026,78,0.59,122,8,0.0,Clear,clear sky,2
Pétfürdő,47.1675,18.121389,2026-03-06 02:43:06.462133,2.97,2.97,2.97,2.97,1026,79,0.58,119,7,0.0,Clear,clear sky,2
Hajmáskér,47.141111,18.009444,2026-03-06 02:43:07.735898,2.47,2.47,2.47,2.47,1025,83,0.65,122,6,0.0,Clear,clear sky,2
Veszprém,47.118889,17.91,2026-03-06 02:43:08.999448,2.27,2.27,2.27,2.27,1025,86,0.83,115,5,0.0,Clear,clear sky,2
Herend,47.136944,17.760278,2026-03-06 02:43:10.279513,1.48,1.48,1.48,1.48,1025,88,1.17,117,3,0.0,Clear,clear sky,2
Városlőd,47.144167,17.652778,2026-03-06 02:43:11.552233,1.15,-0.66,1.15,1.15,1025,89,1.65,123,2,0.0,Clear,clear sky,2
Városlőd-Kislőd,47.133889,17.631111,2026-03-06 02:43:12.823593,1.61,-0.04,1.61,1.61,1025,88,1.58,119,2,0.0,Clear,clear sky,2
Ajka,47.105902,17.572938,2026-03-06 02:43:14.096386,2.02,0.15,2.02,2.02,1025,88,1.79,121,1,0.0,Clear,clear sky,2
Ajka-Gyártelep,47.096806,17.555219,2026-03-06 02:43:15.359067,2.02,0.15,2.02,2.02,1025,88,1.79,121,1,0.0,Clear,clear sky,2
Devecser,47.1125,17.435278,2026-03-06 02:43:16.638734,2.31,0.3,2.31,2.31,1025,88,1.94,128,1,0.0,Clear,clear sky,2
Somlóvásárhely,47.124444,17.369167,2026-03-06 02:43:17.917278,2.32,0.21,2.32,2.32,1025,89,2.03,139,0,0.0,Clear,clear sky,2
Tüskevár,47.128611,17.331389,2026-03-06 02:43:19.188083,2.4,0.31,2.4,2.4,1025,89,2.03,142,0,0.0,Clear,clear sky,2
Karakószörcsök,47.133611,17.287778,2026-03-06 02:43:20.459662,2.44,0.34,2.44,2.44,1025,89,2.04,146,0,0.0,Clear,clear sky,2
Kerta,47.151944,17.237222,2026-03-06 02:43:21.731045,2.48,0.39,2.48,2.48,1025,88,2.04,155,0,0.0,Clear,clear sky,2
Boba,47.183333,17.191389,2026-03-06 02:43:23.006191,2.42,0.33,2.42,2.42,1025,88,2.03,158,0,0.0,Clear,clear sky,2
Börgönd,47.140278,18.515,2026-03-06 02:43:24.277796,3.72,3.72,3.72,3.72,1026,69,0.92,53,12,0.0,Clouds,few clouds,2
Belsőbáránd,47.102778,18.499722,2026-03-06 02:43:25.548332,3.62,3.62,3.62,3.62,1026,69,0.88,58,13,0.0,Clouds,few clouds,2
Zichyújfalu,47.124444,18.6725,2026-03-06 02:43:26.822379,3.89,3.89,3.89,3.89,1026,73,1.03,49,9,0.0,Clear,clear sky,2
Seregélyes,47.121111,18.580556,2026-03-06 02:43:28.088823,3.91,3.91,3.91,3.91,1026,70,0.95,50,11,0.0,Clouds,few clouds,2
Polgárdi-Ipartelepek,47.079167,18.314444,2026-03-06 02:43:29.355184,3.11,3.11,3.11,3.11,1026,70,0.86,75,8,0.0,Clear,clear sky,2
Polgárdi,47.07,18.284167,2026-03-06 02:43:30.619810,3.11,3.11,3.11,3.11,1026,70,0.86,75,8,0.0,Clear,clear sky,2
Füle,47.05,18.255278,2026-03-06 02:43:31.893301,3.06,3.06,3.06,3.06,1026,71,0.9,78,7,0.0,Clear,clear sky,2
Zánka-Erzsébettábor,46.8775,17.709167,2026-03-06 02:43:33.165162,3.22,3.22,3.22,3.22,1025,85,1.12,110,1,0.0,Clear,clear sky,2
Csajág,47.033889,18.186389,2026-03-06 02:43:34.438119,3.14,3.14,3.14,3.14,1026,74,0.94,82,6,0.0,Clear,clear sky,2
Balatonakarattya,47.017222,18.167778,2026-03-06 02:43:35.709285,3.14,3.14,3.14,3.14,1026,74,0.94,82,6,0.0,Clear,clear sky,2
Csittényhegy,47.025278,18.1375,2026-03-06 02:43:36.976201,3.34,3.34,3.34,3.34,1025,75,0.94,82,6,0.0,Clear,clear sky,2
Balatonkenese,47.0325,18.105556,2026-03-06 02:43:38.250215,3.41,3.41,3.41,3.41,1025,77,0.94,81,6,0.0,Clear,clear sky,2
Balatonfűzfő,47.060278,18.0425,2026-03-06 02:43:39.514134,3.05,3.05,3.05,3.05,1025,81,0.87,83,7,0.0,Clear,clear sky,2
Balatonalmádi,47.028333,18.015,2026-03-06 02:43:40.782237,3.28,3.28,3.28,3.28,1025,80,0.94,81,6,0.0,Clear,clear sky,2
Káptalanfüred,47.008889,18.003889,2026-03-06 02:43:42.051586,2.39,2.39,2.39,2.39,1025,81,0.99,80,6,0.0,Clear,clear sky,2
Alsóörs,46.985278,17.974722,2026-03-06 02:43:43.317505,2.39,2.39,2.39,2.39,1025,81,0.99,80,6,0.0,Clear,clear sky,2
Csopak,46.974722,17.931111,2026-03-06 02:43:44.588860,2.7,2.7,2.7,2.7,1025,83,1.02,84,5,0.0,Clear,clear sky,2
Balatonarács,46.9625,17.8975,2026-03-06 02:43:45.862256,2.7,2.7,2.7,2.7,1025,83,1.02,84,5,0.0,Clear,clear sky,2
Balatonfüred,46.955833,17.883056,2026-03-06 02:43:47.132055,3.1,3.1,3.1,3.1,1025,84,1.02,88,4,0.0,Clear,clear sky,2
Aszófő,46.925556,17.8325,2026-03-06 02:43:48.398403,3.06,3.06,3.06,3.06,1025,84,1.03,94,3,0.0,Clear,clear sky,2
Örvényes,46.9125,17.818056,2026-03-06 02:43:49.669693,3.06,3.06,3.06,3.06,1025,84,1.03,94,3,0.0,Clear,clear sky,2
Balatonudvari,46.904722,17.808056,2026-03-06 02:43:50.945935,2.5,2.5,2.5,2.5,1025,85,1.05,97,3,0.0,Clear,clear sky,2
Fövenyes,46.893611,17.789444,2026-03-06 02:43:52.213673,3.17,3.17,3.17,3.17,1025,84,1.04,102,2,0.0,Clear,clear sky,2
Balatonakali-Dörgicse,46.88,17.747778,2026-03-06 02:43:53.480707,2.77,2.77,2.77,2.77,1025,85,1.06,104,2,0.0,Clear,clear sky,2
Zánka-Köveskál,46.872778,17.687778,2026-03-06 02:43:54.750397,2.79,2.79,2.79,2.79,1025,85,1.14,110,1,0.0,Clear,clear sky,2
Balatonszepezd,46.851111,17.663056,2026-03-06 02:43:56.018212,3.21,3.21,3.21,3.21,1025,85,1.14,115,1,0.0,Clear,clear sky,2
Szepezdfürdő,46.839722,17.649444,2026-03-06 02:43:57.289070,2.15,2.15,2.15,2.15,1025,85,1.16,115,1,0.0,Clear,clear sky,2
Révfülöp,46.829167,17.632222,2026-03-06 02:43:58.558748,2.15,2.15,2.15,2.15,1025,85,1.16,115,1,0.0,Clear,clear sky,2
Balatonrendes,46.824722,17.582778,2026-03-06 02:43:59.822725,2.77,2.77,2.77,2.77,1025,85,1.19,118,0,0.0,Clear,clear sky,2
Ábrahámhegy,46.815,17.572222,2026-03-06 02:44:01.093276,2.77,2.77,2.77,2.77,1025,85,1.19,118,0,0.0,Clear,clear sky,2
Badacsonyörs,46.805556,17.531667,2026-03-06 02:44:02.364695,2.99,2.99,2.99,2.99,1025,85,1.2,118,0,0.0,Clear,clear sky,2
Kisújszállás,47.223889,20.751111,2026-03-06 02:44:03.642002,3.41,1.39,3.41,3.41,1026,68,2.12,62,70,0.0,Clouds,broken clouds,2
Karcag,47.303333,20.928056,2026-03-06 02:44:04.913875,3.25,1.32,3.25,3.25,1026,68,2.01,52,32,0.0,Clouds,scattered clouds,2
Püspökladány,47.3275,21.128889,2026-03-06 02:44:06.176863,3.04,0.6,3.04,3.04,1026,66,2.48,48,10,0.0,Clear,clear sky,2
Kaba,47.368889,21.259444,2026-03-06 02:44:07.439423,2.79,-0.03,2.79,2.79,1026,65,2.86,44,7,0.0,Clear,clear sky,2
Hajdúszoboszló,47.429444,21.406944,2026-03-06 02:44:08.710472,2.4,-0.6,2.4,2.4,1026,64,2.98,37,7,0.0,Clear,clear sky,2
Ebes,47.462778,21.488889,2026-03-06 02:44:09.980049,2.15,-0.9,2.15,2.15,1026,63,2.98,34,8,0.0,Clear,clear sky,2
Debrecen,47.520278,21.628611,2026-03-06 02:44:11.257367,1.8,-1.35,1.8,1.8,1026,62,3.01,28,10,0.0,Clear,clear sky,2
Debrecen-Csapókert,47.540556,21.648056,2026-03-06 02:44:12.541989,1.78,-1.38,1.78,1.78,1026,62,3.02,26,11,0.0,Clouds,few clouds,2
Apafa,47.584045,21.655858,2026-03-06 02:44:13.806268,1.83,-1.34,1.83,1.83,1026,63,3.04,26,12,0.0,Clouds,few clouds,2
Bocskaikert,47.6425,21.666389,2026-03-06 02:44:15.074599,1.87,-1.3,1.87,1.87,1026,64,3.06,26,14,0.0,Clouds,few clouds,2
Hajdúhadház,47.686944,21.679167,2026-03-06 02:44:16.345118,1.97,-1.17,1.97,1.97,1026,65,3.04,23,16,0.0,Clouds,few clouds,2
Téglás,47.714722,21.684722,2026-03-06 02:44:17.610654,2.04,-1.07,2.04,2.04,1026,65,3.03,24,16,0.0,Clouds,few clouds,2
Újfehértó,47.814444,21.706389,2026-03-06 02:44:18.879927,2.32,-0.68,2.32,2.32,1026,66,2.96,25,18,0.0,Clouds,few clouds,2
Nyíregyháza,47.946667,21.705556,2026-03-06 02:44:20.145618,2.46,-0.38,2.46,2.46,1026,68,2.8,24,18,0.0,Clouds,few clouds,2
Sóstó,47.998051,21.729047,2026-03-06 02:44:21.417620,2.4,-0.58,2.4,2.4,1026,69,2.96,20,14,0.0,Clouds,few clouds,2
Sóstóhegy,48.012222,21.742778,2026-03-06 02:44:22.686483,2.48,-0.48,2.48,2.48,1026,69,2.95,19,14,0.0,Clouds,few clouds,2
Kemecse,48.065556,21.801667,2026-03-06 02:44:23.959339,2.38,-0.73,2.38,2.38,1026,71,3.11,15,11,0.0,Clouds,few clouds,2
Nyírbogdány,48.082222,21.855278,2026-03-06 02:44:25.232724,2.29,-0.89,2.29,2.29,1026,71,3.18,13,10,0.0,Clear,clear sky,2
Kék,48.093333,21.883889,2026-03-06 02:44:26.498297,2.26,-0.94,2.26,2.26,1026,72,3.19,11,8,0.0,Clear,clear sky,2
Demecser,48.111667,21.926667,2026-03-06 02:44:27.764808,2.2,-1.02,2.2,2.2,1026,72,3.21,8,7,0.0,Clear,clear sky,2
Gégény,48.128333,21.951944,2026-03-06 02:44:29.034245,2.11,-1.14,2.11,2.11,1026,73,3.22,6,6,0.0,Clear,clear sky,2
Pátroha,48.158611,21.996667,2026-03-06 02:44:30.309078,2.06,-1.2,2.06,2.06,1026,74,3.22,3,6,0.0,Clear,clear sky,2
Ajak,48.1865,22.048972,2026-03-06 02:44:31.584657,1.97,-1.3,1.97,1.97,1026,74,3.21,1,7,0.0,Clear,clear sky,2
Kisvárda,48.208333,22.078333,2026-03-06 02:44:32.852783,1.9,-1.35,1.9,1.9,1026,75,3.16,358,11,0.0,Clouds,few clouds,2
Kisvárda-Hármasút,48.228333,22.091944,2026-03-06 02:44:34.123815,1.9,-1.35,1.9,1.9,1026,75,3.16,358,11,0.0,Clouds,few clouds,2
Fényeslitke,48.267222,22.107222,2026-03-06 02:44:35.395291,1.74,-1.52,1.74,1.74,1026,75,3.14,355,19,0.0,Clouds,few clouds,2
Komoró,48.305278,22.118056,2026-03-06 02:44:36.665101,1.73,-1.54,1.73,1.73,1026,75,3.15,354,23,0.0,Clouds,few clouds,2
Tuzsér,48.342222,22.131667,2026-03-06 02:44:37.935376,1.6,-1.69,1.6,1.6,1026,76,3.14,353,30,0.0,Clouds,scattered clouds,2
Tiszabezdéd,48.371389,22.145,2026-03-06 02:44:39.207218,1.53,-1.72,1.53,1.53,1026,75,3.07,352,37,0.0,Clouds,scattered clouds,2
Záhony,48.402222,22.183611,2026-03-06 02:44:40.478639,1.44,-1.77,1.44,1.44,1026,75,3.0,352,43,0.0,Clouds,scattered clouds,2
Karcag-Vásártér,47.3225,20.9075,2026-03-06 02:44:41.765530,3.25,1.32,3.25,3.25,1026,68,2.01,52,32,0.0,Clouds,scattered clouds,2
Berekfürdő,47.374722,20.827222,2026-03-06 02:44:43.038987,3.35,1.85,3.35,3.35,1026,68,1.66,53,40,0.0,Clouds,scattered clouds,2
Kunmadaras,47.415278,20.793056,2026-03-06 02:44:44.301038,3.4,2.24,3.4,3.4,1026,68,1.42,47,34,0.0,Clouds,scattered clouds,2
Tiszaszentimre,47.490833,20.733056,2026-03-06 02:44:45.584534,3.55,3.55,3.55,3.55,1026,69,1.2,34,27,0.0,Clouds,scattered clouds,2
Tiszaszőlős,47.555556,20.728056,2026-03-06 02:44:46.859078,3.57,3.57,3.57,3.57,1026,68,1.21,24,21,0.0,Clouds,few clouds,2
Hosszúhát,47.235556,21.101944,2026-03-06 02:44:48.128787,3.06,0.62,3.06,3.06,1026,67,2.48,47,16,0.0,Clouds,few clouds,2
Szerep,47.234444,21.145833,2026-03-06 02:44:49.400860,3.03,0.52,3.03,3.03,1026,67,2.55,46,14,0.0,Clouds,few clouds,2
Sárrétudvari,47.231667,21.180833,2026-03-06 02:44:50.665511,2.98,0.41,2.98,2.98,1026,67,2.61,45,12,0.0,Clouds,few clouds,2
Biharnagybajom,47.208889,21.221944,2026-03-06 02:44:51.932440,2.94,0.28,2.94,2.94,1026,67,2.7,44,13,0.0,Clouds,few clouds,2
Füzesgyarmat,47.113056,21.194444,2026-03-06 02:44:53.200698,3.05,0.54,3.05,3.05,1026,68,2.56,42,29,0.0,Clouds,scattered clouds,2
Füzesgyarmatfürdő,47.093787,21.201582,2026-03-06 02:44:54.472439,3.05,0.54,3.05,3.05,1026,68,2.56,42,29,0.0,Clouds,scattered clouds,2
Báránd,47.299722,21.235278,2026-03-06 02:44:55.747402,2.9,0.16,2.9,2.9,1026,66,2.79,45,8,0.0,Clear,clear sky,2
Sáp,47.259722,21.360556,2026-03-06 02:44:57.016894,2.78,-0.05,2.78,2.78,1026,66,2.87,42,9,0.0,Clear,clear sky,2
Berettyóújfalu,47.211944,21.535556,2026-03-06 02:44:58.289478,2.67,-0.16,2.67,2.67,1026,66,2.84,38,9,0.0,Clear,clear sky,2
Mezőpeterd,47.176111,21.625278,2026-03-06 02:44:59.560884,2.67,-0.07,2.67,2.67,1026,67,2.73,36,9,0.0,Clear,clear sky,2
Biharkeresztes,47.135556,21.721389,2026-03-06 02:45:00.835494,2.64,0.1,2.64,2.64,1026,67,2.5,35,10,0.0,Clear,clear sky,2
Tócóvölgy,47.529444,21.588889,2026-03-06 02:45:02.111776,1.9,-1.23,1.9,1.9,1026,62,3.01,29,10,0.0,Clear,clear sky,2
Sáregres,46.7825,18.588889,2026-03-06 02:45:03.387768,4.14,4.14,4.14,4.14,1026,65,0.45,76,11,0.0,Clouds,few clouds,2
Simontornya,46.756582,18.540674,2026-03-06 02:45:04.656249,4.06,4.06,4.06,4.06,1026,66,0.61,80,7,0.0,Clear,clear sky,2
Tolnanémedi,46.727778,18.475833,2026-03-06 02:45:05.931627,4.14,4.14,4.14,4.14,1026,67,0.67,83,6,0.0,Clear,clear sky,2
Pincehely,46.681389,18.43,2026-03-06 02:45:07.210694,4.06,4.06,4.06,4.06,1026,68,0.82,91,6,0.0,Clear,clear sky,2
Keszőhidegkút-Gyönk,46.597778,18.426111,2026-03-06 02:45:08.491537,4.26,4.26,4.26,4.26,1026,69,0.84,93,5,0.0,Clear,clear sky,2
Szárazd,46.575556,18.420833,2026-03-06 02:45:09.760883,4.37,4.37,4.37,4.37,1026,70,0.84,94,5,0.0,Clear,clear sky,2
Regöly,46.568889,18.396111,2026-03-06 02:45:11.028693,4.37,4.37,4.37,4.37,1026,70,0.84,94,5,0.0,Clear,clear sky,2
Szakály-Hőgyész,46.523611,18.389444,2026-03-06 02:45:12.302290,4.39,4.39,4.39,4.39,1026,71,0.84,100,5,0.0,Clear,clear sky,2
Dúzs,46.493889,18.377222,2026-03-06 02:45:13.573196,4.49,4.49,4.49,4.49,1026,72,0.82,103,5,0.0,Clear,clear sky,2
Csibrák,46.466667,18.336389,2026-03-06 02:45:14.844799,4.6,4.6,4.6,4.6,1025,73,0.83,109,4,0.0,Clear,clear sky,2
Kurd,46.449167,18.319167,2026-03-06 02:45:16.117071,4.34,4.34,4.34,4.34,1025,73,0.81,115,4,0.0,Clear,clear sky,2
Döbrököz,46.418889,18.255,2026-03-06 02:45:17.386280,4.65,4.65,4.65,4.65,1025,75,0.83,123,2,0.0,Clear,clear sky,2
Dombóvár,46.37,18.149722,2026-03-06 02:45:18.663851,4.69,4.69,4.69,4.69,1025,78,0.88,139,2,0.0,Clear,clear sky,2
Dombóvár alsó,46.363889,18.134167,2026-03-06 02:45:19.931406,4.69,4.69,4.69,4.69,1025,78,0.88,139,2,0.0,Clear,clear sky,2
Somoskőújfalu,48.154722,19.815556,2026-03-06 02:45:21.199674,0.51,0.51,0.51,0.51,1026,75,0.33,168,71,0.0,Clouds,broken clouds,2
Jászfényszaru,47.593056,19.754444,2026-03-06 02:45:22.468168,3.69,3.69,3.69,3.69,1026,70,1.25,124,100,0.0,Clouds,overcast clouds,2
Pusztamonostor,47.564444,19.794167,2026-03-06 02:45:23.757163,3.65,2.59,3.65,3.65,1026,70,1.37,128,100,0.0,Clouds,overcast clouds,2
Jászberény,47.494444,19.893333,2026-03-06 02:45:25.051994,3.57,2.0,3.57,3.57,1026,71,1.74,132,100,0.0,Clouds,overcast clouds,2
Meggyespele,47.441944,19.938889,2026-03-06 02:45:26.325422,3.48,1.72,3.48,3.48,1026,71,1.89,127,100,0.0,Clouds,overcast clouds,2
Portelek,47.418056,19.958889,2026-03-06 02:45:27.591116,3.42,1.55,3.42,3.42,1026,71,1.98,126,100,0.0,Clouds,overcast clouds,2
Jászboldogháza-Jánoshida,47.366944,20.001389,2026-03-06 02:45:28.860928,3.33,1.33,3.33,3.33,1026,70,2.09,122,100,0.0,Clouds,overcast clouds,2
Jászárokszállás,47.635556,19.971111,2026-03-06 02:45:30.134713,3.69,3.69,3.69,3.69,1026,69,0.67,123,94,0.0,Clouds,overcast clouds,2
Jászdózsa,47.563056,20.028056,2026-03-06 02:45:31.404020,3.69,3.69,3.69,3.69,1026,69,0.98,125,96,0.0,Clouds,overcast clouds,2
Jászapáti,47.513611,20.155,2026-03-06 02:45:32.669669,3.65,3.65,3.65,3.65,1026,69,1.27,117,90,0.0,Clouds,overcast clouds,2
Jászkisér,47.456111,20.203333,2026-03-06 02:45:33.938201,3.63,2.2,3.63,3.63,1026,68,1.64,112,90,0.0,Clouds,overcast clouds,2
Jászladány,47.373333,20.159167,2026-03-06 02:45:35.216382,3.55,1.54,3.55,3.55,1026,68,2.13,111,99,0.0,Clouds,overcast clouds,2
Szászberek,47.320556,20.090833,2026-03-06 02:45:36.483243,3.47,1.37,3.47,3.47,1026,68,2.21,111,100,0.0,Clouds,overcast clouds,2
Gyöngyöshalász,47.743056,19.932222,2026-03-06 02:45:37.754589,3.48,3.48,3.48,3.48,1026,68,0.18,338,87,0.0,Clouds,overcast clouds,2
Gyöngyös,47.783056,19.937222,2026-03-06 02:45:39.019970,3.1,3.1,3.1,3.1,1026,68,0.39,307,84,0.0,Clouds,broken clouds,2
Erdőtelek,47.683333,20.3025,2026-03-06 02:45:40.288736,3.62,3.62,3.62,3.62,1026,67,0.48,278,71,0.0,Clouds,broken clouds,2
Heves,47.609444,20.306111,2026-03-06 02:45:41.562450,3.67,3.67,3.67,3.67,1026,67,0.29,104,74,0.0,Clouds,broken clouds,2
Hevesvezekény,47.562222,20.365833,2026-03-06 02:45:42.829312,3.71,3.71,3.71,3.71,1026,68,0.5,85,69,0.0,Clouds,broken clouds,2
Tarnaszentmiklós,47.546944,20.390833,2026-03-06 02:45:44.101324,3.69,3.69,3.69,3.69,1026,68,0.76,88,70,0.0,Clouds,broken clouds,2
Kisköre,47.495556,20.481667,2026-03-06 02:45:45.376687,3.66,3.66,3.66,3.66,1026,69,1.14,71,61,0.0,Clouds,broken clouds,2
Abádszalók,47.455278,20.553056,2026-03-06 02:45:46.641638,3.62,3.62,3.62,3.62,1026,70,1.28,69,59,0.0,Clouds,broken clouds,2
Kunhegyes,47.376667,20.641111,2026-03-06 02:45:47.915494,3.52,2.23,3.52,3.52,1026,70,1.52,63,54,0.0,Clouds,broken clouds,2
Kenderes,47.254444,20.686111,2026-03-06 02:45:49.179070,3.47,1.5,3.47,3.47,1026,68,2.08,68,74,0.0,Clouds,broken clouds,2
Maklár,47.808056,20.404722,2026-03-06 02:45:50.448544,3.59,3.59,3.59,3.59,1026,66,1.0,287,52,0.0,Clouds,broken clouds,2
Andornaktálya,47.852203,20.402295,2026-03-06 02:45:51.717494,3.43,3.43,3.43,3.43,1026,66,0.96,291,51,0.0,Clouds,broken clouds,2
Eger,47.891667,20.381667,2026-03-06 02:45:52.988440,3.3,3.3,3.3,3.3,1026,66,0.9,291,53,0.0,Clouds,broken clouds,2
Egervár,47.908056,20.380556,2026-03-06 02:45:54.253802,3.41,3.41,3.41,3.41,1026,66,0.81,294,51,0.0,Clouds,broken clouds,2
Eger-Felnémet,47.936667,20.370556,2026-03-06 02:45:55.528764,3.35,3.35,3.35,3.35,1026,66,0.7,298,49,0.0,Clouds,scattered clouds,2
Szarvaskő,47.988611,20.3325,2026-03-06 02:45:56.790988,2.66,2.66,2.66,2.66,1026,66,0.46,307,46,0.0,Clouds,scattered clouds,2
Mónosbél,48.031944,20.33,2026-03-06 02:45:58.060086,2.71,2.71,2.71,2.71,1026,67,0.25,317,44,0.0,Clouds,scattered clouds,2
Bélapátfalva,48.055556,20.340556,2026-03-06 02:45:59.329016,2.42,2.42,2.42,2.42,1026,67,0.15,318,43,0.0,Clouds,scattered clouds,2
Bélapátfalvi Cementgyár,48.058056,20.355,2026-03-06 02:46:00.592245,2.42,2.42,2.42,2.42,1026,67,0.15,318,43,0.0,Clouds,scattered clouds,2
Szilvásvárad,48.11345,20.37919,2026-03-06 02:46:01.858407,2.12,2.12,2.12,2.12,1026,67,0.06,225,44,0.0,Clouds,scattered clouds,2
Hejőkeresztúr,47.960278,20.869444,2026-03-06 02:46:03.121357,3.57,0.8,3.57,3.57,1026,59,2.99,350,14,0.0,Clouds,few clouds,2
Tiszaújváros,47.926111,21.030556,2026-03-06 02:46:04.401770,3.51,1.3,3.51,3.51,1026,61,2.32,348,14,0.0,Clouds,few clouds,2
Miskolc-Gömöri,48.106667,20.800278,2026-03-06 02:46:05.675228,3.78,1.55,3.78,3.78,1026,63,2.4,349,19,0.0,Clouds,few clouds,2
Sajókeresztúr,48.168008,20.774014,2026-03-06 02:46:06.943050,3.64,2.02,3.64,3.64,1026,64,1.79,350,23,0.0,Clouds,few clouds,2
Sajóecseg,48.186111,20.766667,2026-03-06 02:46:08.209010,3.62,2.24,3.62,3.62,1026,64,1.6,351,23,0.0,Clouds,few clouds,2
Sajószentpéter,48.222222,20.708056,2026-03-06 02:46:09.475959,3.53,3.53,3.53,3.53,1026,65,1.17,350,26,0.0,Clouds,scattered clouds,2
Kazincbarcika,48.264444,20.6275,2026-03-06 02:46:10.740869,3.33,3.33,3.33,3.33,1026,65,0.25,318,34,0.0,Clouds,scattered clouds,2
Sajókaza,48.272778,20.581944,2026-03-06 02:46:12.009191,3.32,3.32,3.32,3.32,1026,66,0.18,297,35,0.0,Clouds,scattered clouds,2
Vadna,48.276389,20.555278,2026-03-06 02:46:13.280104,3.32,3.32,3.32,3.32,1026,66,0.18,297,35,0.0,Clouds,scattered clouds,2
Dubicsány,48.280833,20.504722,2026-03-06 02:46:14.553761,3.25,3.25,3.25,3.25,1026,66,0.12,228,38,0.0,Clouds,scattered clouds,2
Raposka,46.851389,17.412778,2026-03-06 02:46:15.825765,2.93,1.81,2.93,2.93,1025,86,1.35,123,0,0.0,Clear,clear sky,2
Ivacs,47.641944,19.273889,2026-03-06 02:46:17.100024,3.76,3.76,3.76,3.76,1026,76,1.09,87,98,0.0,Clouds,overcast clouds,2
Kisköre-Tiszahíd,47.480835,20.507698,2026-03-06 02:46:18.362519,3.64,3.64,3.64,3.64,1026,70,1.33,74,62,0.0,Clouds,broken clouds,2
Rozsály,47.912778,22.7825,2026-03-06 02:46:19.631383,0.99,-1.33,0.99,0.99,1026,71,2.02,5,53,0.0,Clouds,broken clouds,2
Pusztakettős,47.453611,20.749722,2026-03-06 02:46:20.900030,3.46,3.46,3.46,3.46,1026,69,1.31,43,32,0.0,Clouds,scattered clouds,2
Kisvác,47.795278,19.113611,2026-03-06 02:46:22.166158,3.78,3.78,3.78,3.78,1026,79,1.24,105,100,0.0,Clouds,overcast clouds,2
Tiszafüred-Gyártelep,47.6075,20.736111,2026-03-06 02:46:23.433705,3.59,3.59,3.59,3.59,1026,67,1.26,18,18,0.0,Clouds,few clouds,2
Újkenéz,48.251111,22.221667,2026-03-06 02:46:24.703523,1.59,-1.52,1.59,1.59,1026,73,2.92,353,27,0.0,Clouds,scattered clouds,2
Püspökladány-Vásártér,47.319167,21.096111,2026-03-06 02:46:25.973949,3.04,0.6,3.04,3.04,1026,67,2.48,48,10,0.0,Clear,clear sky,2
Végegyháza alsó,46.3675,20.866944,2026-03-06 02:46:27.244518,3.4,1.59,3.4,3.4,1026,76,1.92,31,100,0.0,Clouds,overcast clouds,2
Orosháza felső,46.553611,20.655278,2026-03-06 02:46:28.521359,3.51,1.89,3.51,3.51,1026,72,1.78,44,100,0.0,Clouds,overcast clouds,2
Ambrózfalva,46.353056,20.740556,2026-03-06 02:46:29.790893,3.47,1.83,3.47,3.47,1026,75,1.79,38,99,0.0,Clouds,overcast clouds,2
Alsónyék,46.199444,18.738056,2026-03-06 02:46:31.059517,5.14,5.14,5.14,5.14,1026,68,0.7,58,6,0.0,Clear,clear sky,2
Tompapuszta,46.321389,20.966389,2026-03-06 02:46:32.331733,3.35,1.4,3.35,3.35,1026,77,2.04,28,100,0.0,Clouds,overcast clouds,2
Halászlak,46.911879,20.56228,2026-03-06 02:46:33.599697,3.52,1.38,3.52,3.52,1026,67,2.25,60,100,0.0,Clouds,overcast clouds,2
Sirató,46.840556,20.61,2026-03-06 02:46:34.869289,3.53,1.48,3.53,3.53,1026,68,2.17,54,100,0.0,Clouds,overcast clouds,2
Csabacsűd felső,46.829167,20.649167,2026-03-06 02:46:36.137158,3.5,1.4,3.5,3.5,1026,68,2.21,51,100,0.0,Clouds,overcast clouds,2
Orosháza-Üveggyár,46.579979,20.683644,2026-03-06 02:46:37.402257,3.48,1.77,3.48,3.48,1026,72,1.85,41,100,0.0,Clouds,overcast clouds,2
Gyulai városerdő,46.69482,21.32281,2026-03-06 02:46:38.672101,3.18,0.8,3.18,3.18,1026,73,2.44,23,61,0.0,Clouds,broken clouds,2
Kórógyszentgyörgy,46.564377,20.224998,2026-03-06 02:46:39.942991,3.57,1.88,3.57,3.57,1026,73,1.84,81,100,0.0,Clouds,overcast clouds,2
Kunszállás,46.784444,19.767222,2026-03-06 02:46:41.213521,3.18,1.1,3.18,3.18,1026,76,2.14,114,100,0.0,Clouds,overcast clouds,2
Selymes,46.655321,19.8534,2026-03-06 02:46:42.487297,3.42,1.56,3.42,3.42,1026,76,1.97,108,100,0.0,Clouds,overcast clouds,2
Petőfiszállási tanyák,46.587805,19.874509,2026-03-06 02:46:43.759739,3.5,1.71,3.5,3.5,1026,76,1.92,106,100,0.0,Clouds,overcast clouds,2
Kisteleki szőlők,46.514199,19.92868,2026-03-06 02:46:45.027755,3.53,1.81,3.53,3.53,1026,75,1.86,101,100,0.0,Clouds,overcast clouds,2
Kapitányság,46.435336,19.987564,2026-03-06 02:46:46.295941,3.64,2.0,3.64,3.64,1026,74,1.81,97,100,0.0,Clouds,overcast clouds,2
Őszeszék,46.39025,20.016017,2026-03-06 02:46:47.561609,3.69,2.08,3.69,3.69,1026,74,1.79,95,99,0.0,Clouds,overcast clouds,2
Vilmaszállás,46.366389,20.030833,2026-03-06 02:46:48.830427,3.71,2.15,3.71,3.71,1026,74,1.75,96,99,0.0,Clouds,overcast clouds,2
Jánosszállás,46.334359,20.051199,2026-03-06 02:46:50.102973,3.74,2.22,3.74,3.74,1026,73,1.72,96,99,0.0,Clouds,overcast clouds,2
Felsőpakony,47.343056,19.230556,2026-03-06 02:46:51.374920,4.44,2.53,4.44,4.44,1026,75,2.18,118,91,0.0,Clouds,overcast clouds,2
Felsőméntelek,46.987074,19.557745,2026-03-06 02:46:52.639807,3.07,0.6,3.07,3.07,1026,77,2.52,124,100,0.0,Clouds,overcast clouds,2
Alsóméntelek,46.961558,19.579121,2026-03-06 02:46:53.918649,3.05,0.58,3.05,3.05,1026,77,2.51,124,100,0.0,Clouds,overcast clouds,2
Nagynyír,46.943319,19.585447,2026-03-06 02:46:55.190362,3.01,0.53,3.01,3.01,1026,76,2.51,125,100,0.0,Clouds,overcast clouds,2
Úrihegy,46.917778,19.621389,2026-03-06 02:46:56.459637,2.98,0.54,2.98,2.98,1026,76,2.46,124,100,0.0,Clouds,overcast clouds,2
Miklóstelep,46.913412,19.630913,2026-03-06 02:46:57.726028,2.92,0.5,2.92,2.92,1026,76,2.43,122,100,0.0,Clouds,overcast clouds,2
Tiszajenő alsó,47.016944,20.134444,2026-03-06 02:46:59.001406,3.5,1.51,3.5,3.5,1026,68,2.1,100,100,0.0,Clouds,overcast clouds,2
Óbög,46.987222,20.111111,2026-03-06 02:47:00.283256,3.48,1.53,3.48,3.48,1026,69,2.06,101,99,0.0,Clouds,overcast clouds,2
Árpádszállás,46.866456,19.989163,2026-03-06 02:47:01.560275,3.34,1.4,3.34,3.34,1026,74,2.03,104,100,0.0,Clouds,overcast clouds,2
Tőserdő,46.851111,19.980278,2026-03-06 02:47:02.838533,3.38,1.46,3.38,3.38,1026,74,2.02,103,100,0.0,Clouds,overcast clouds,2
Tiszaalpár felső,46.836256,19.976753,2026-03-06 02:47:04.141000,3.38,1.46,3.38,3.38,1026,74,2.02,103,100,0.0,Clouds,overcast clouds,2
Borsihalom,46.773056,19.92,2026-03-06 02:47:05.417467,3.36,1.43,3.36,3.36,1026,76,2.03,104,100,0.0,Clouds,overcast clouds,2
Petőfiváros,46.725556,19.848611,2026-03-06 02:47:06.695595,3.35,1.39,3.35,3.35,1026,77,2.05,109,100,0.0,Clouds,overcast clouds,2
Csorna,47.601944,17.248889,2026-03-06 02:47:07.961766,2.47,0.22,2.47,2.47,1025,86,2.18,145,2,0.0,Clear,clear sky,2
Szorgalmatos,47.986667,21.366389,2026-03-06 02:47:09.230697,3.06,3.06,3.06,3.06,1026,64,1.14,13,34,0.0,Clouds,scattered clouds,2
Fótfürdő,47.6225,19.200556,2026-03-06 02:47:10.499702,4.26,4.26,4.26,4.26,1026,75,1.06,84,99,0.0,Clouds,overcast clouds,2
Fenyveshegy,47.818333,19.068056,2026-03-06 02:47:11.769413,3.98,3.98,3.98,3.98,1026,80,1.32,107,100,0.0,Clouds,overcast clouds,2
Hűvösvölgy,47.541202,18.96351,2026-03-06 02:47:13.039769,3.64,3.64,3.64,3.64,1026,75,1.16,101,87,0.0,Clouds,overcast clouds,2
Hárshegy,47.535318,18.961433,2026-03-06 02:47:14.301182,3.64,3.64,3.64,3.64,1026,75,1.16,101,87,0.0,Clouds,overcast clouds,2
Szépjuhászné,47.528277,18.955246,2026-03-06 02:47:15.563271,3.41,3.41,3.41,3.41,1026,75,1.22,102,86,0.0,Clouds,overcast clouds,2
Jánoshegy,47.51433,18.95047,2026-03-06 02:47:16.834343,3.41,3.41,3.41,3.41,1026,75,1.22,102,86,0.0,Clouds,overcast clouds,2
Virágvölgy,47.505965,18.95876,2026-03-06 02:47:18.101031,3.57,3.57,3.57,3.57,1026,74,1.29,104,84,0.0,Clouds,broken clouds,2
Csillebérc,47.498196,18.961694,2026-03-06 02:47:19.372421,3.57,3.57,3.57,3.57,1026,74,1.29,104,84,0.0,Clouds,broken clouds,2
Normafa,47.5,18.970558,2026-03-06 02:47:20.651394,3.57,3.57,3.57,3.57,1026,74,1.29,104,84,0.0,Clouds,broken clouds,2
Széchenyihegy,47.49413,18.977049,2026-03-06 02:47:21.922870,2.8,2.8,2.8,2.8,1026,74,1.27,103,89,0.0,Clouds,overcast clouds,2
Balatonfőkajár felső,47.031389,18.215278,2026-03-06 02:47:23.194450,3.31,3.31,3.31,3.31,1026,73,0.94,81,6,0.0,Clear,clear sky,2
Piroska,47.148333,20.129722,2026-03-06 02:47:24.465327,3.49,1.37,3.49,3.49,1026,67,2.23,104,100,0.0,Clouds,overcast clouds,2
Somodor,46.4725,17.836667,2026-03-06 02:47:25.750189,3.7,3.7,3.7,3.7,1025,81,1.21,141,1,0.0,Clear,clear sky,2
Középmező,45.995833,18.668889,2026-03-06 02:47:27.019829,5.27,5.27,5.27,5.27,1026,71,0.98,52,6,0.0,Clear,clear sky,2
Jobbágyi,47.828889,19.6875,2026-03-06 02:47:28.289867,3.4,3.4,3.4,3.4,1026,72,0.6,118,100,0.0,Clouds,overcast clouds,2
Ferihegy,47.437222,19.223889,2026-03-06 02:47:29.563526,4.48,3.26,4.48,4.48,1026,72,1.57,109,96,0.0,Clouds,overcast clouds,2
Máriapócs,47.852778,22.019167,2026-03-06 02:47:30.834263,1.79,-1.4,1.79,1.79,1026,69,3.06,4,15,0.0,Clouds,few clouds,2
Máriaudvar,47.751944,19.165,2026-03-06 02:47:32.105792,4.19,4.19,4.19,4.19,1026,78,1.12,94,100,0.0,Clouds,overcast clouds,2
Nagyberki,46.353333,18.004167,2026-03-06 02:47:33.373123,4.31,4.31,4.31,4.31,1025,80,0.93,145,2,0.0,Clear,clear sky,2
Badacsonytomaj,46.804722,17.518056,2026-03-06 02:47:34.640172,2.99,2.99,2.99,2.99,1025,85,1.2,118,0,0.0,Clear,clear sky,2
Badacsony,46.788611,17.506389,2026-03-06 02:47:35.906088,3.04,3.04,3.04,3.04,1025,84,1.17,121,0,0.0,Clear,clear sky,2
Badacsonylábdihegy,46.793889,17.470833,2026-03-06 02:47:37.176806,3.04,3.04,3.04,3.04,1025,84,1.17,121,0,0.0,Clear,clear sky,2
Badacsonytördemic-Szigliget,46.809722,17.469167,2026-03-06 02:47:38.450744,3.0,3.0,3.0,3.0,1025,85,1.21,118,0,0.0,Clear,clear sky,2
Nemesgulács-Kisapáti,46.836944,17.476389,2026-03-06 02:47:39.720851,2.99,2.99,2.99,2.99,1025,85,1.27,116,0,0.0,Clear,clear sky,2
Tapolca,46.877778,17.428611,2026-03-06 02:47:40.993383,2.86,1.61,2.86,2.86,1025,86,1.43,122,0,0.0,Clear,clear sky,2
Uzsabánya alsó,46.898333,17.345278,2026-03-06 02:47:42.259274,1.71,0.02,1.71,1.71,1025,87,1.62,130,0,0.0,Clear,clear sky,2
Uzsa,46.920278,17.331667,2026-03-06 02:47:43.527253,2.47,0.77,2.47,2.47,1025,87,1.71,132,0,0.0,Clear,clear sky,2
Sümegi Bazaltbánya,46.9525,17.2925,2026-03-06 02:47:44.796526,2.43,0.55,2.43,2.43,1025,88,1.85,137,0,0.0,Clear,clear sky,2
Sümeg,46.981111,17.270833,2026-03-06 02:47:46.068485,2.56,0.51,2.56,2.56,1025,88,2.01,144,0,0.0,Clear,clear sky,2
Gógánfa,47.021111,17.207778,2026-03-06 02:47:47.339944,2.49,0.31,2.49,2.49,1025,88,2.12,149,0,0.0,Clear,clear sky,2
Ukk,47.041944,17.195833,2026-03-06 02:47:48.609942,2.5,0.3,2.5,2.5,1025,88,2.14,152,0,0.0,Clear,clear sky,2
Nemeskeresztúr,47.093611,17.183611,2026-03-06 02:47:49.874077,2.4,0.22,2.4,2.4,1025,88,2.11,155,0,0.0,Clear,clear sky,2
Jánosháza,47.115833,17.171667,2026-03-06 02:47:51.146605,2.45,0.3,2.45,2.45,1025,88,2.09,156,0,0.0,Clear,clear sky,2
Keszthely,46.758333,17.248056,2026-03-06 02:47:52.430730,2.87,1.59,2.87,2.87,1025,86,1.45,140,0,0.0,Clear,clear sky,2
Alsógyenes,46.765844,17.276435,2026-03-06 02:47:53.701673,2.93,2.93,2.93,2.93,1025,85,1.32,134,0,0.0,Clear,clear sky,2
Gyenesdiás,46.763333,17.292778,2026-03-06 02:47:54.978209,2.93,2.93,2.93,2.93,1025,85,1.32,134,0,0.0,Clear,clear sky,2
Vonyarcvashegy,46.755278,17.318333,2026-03-06 02:47:56.245922,2.38,2.38,2.38,2.38,1025,85,1.27,131,0,0.0,Clear,clear sky,2
Balatongyörök,46.751944,17.354444,2026-03-06 02:47:57.517500,2.98,2.98,2.98,2.98,1025,85,1.22,128,0,0.0,Clear,clear sky,2
Becehegy,46.776111,17.372778,2026-03-06 02:47:58.788674,1.8,1.8,1.8,1.8,1025,85,1.27,126,0,0.0,Clear,clear sky,2
Balatonederics,46.8025,17.385,2026-03-06 02:48:00.069443,1.72,1.72,1.72,1.72,1025,86,1.33,125,0,0.0,Clear,clear sky,2
Dabronc,47.025766,17.167006,2026-03-06 02:48:01.341267,2.51,0.32,2.51,2.51,1025,88,2.13,151,0,0.0,Clear,clear sky,2
Türje,46.994444,17.093611,2026-03-06 02:48:02.607440,2.47,0.26,2.47,2.47,1025,87,2.15,154,0,0.0,Clear,clear sky,2
Zalabér-Batyk,46.983056,17.040833,2026-03-06 02:48:03.883996,2.55,0.36,2.55,2.55,1025,87,2.14,158,0,0.0,Clear,clear sky,2
Pakod,46.959167,16.996667,2026-03-06 02:48:05.156175,2.42,0.2,2.42,2.42,1025,87,2.15,160,0,0.0,Clear,clear sky,2
Pókaszepetk,46.924444,16.972222,2026-03-06 02:48:06.425908,2.56,0.38,2.56,2.56,1025,87,2.13,157,0,0.0,Clear,clear sky,2
Kemendollár,46.905833,16.946667,2026-03-06 02:48:07.698174,2.24,0.0,2.24,2.24,1025,87,2.14,159,0,0.0,Clear,clear sky,2
Zalaegerszeg,46.833056,16.848333,2026-03-06 02:48:08.970595,2.24,0.27,2.24,2.24,1025,87,1.9,162,0,0.0,Clear,clear sky,2
Bocfölde,46.780278,16.853611,2026-03-06 02:48:10.253876,2.37,0.47,2.37,2.37,1025,87,1.86,159,0,0.0,Clear,clear sky,2
Sárhida,46.755833,16.851389,2026-03-06 02:48:11.531161,1.53,-0.34,1.53,1.53,1025,87,1.73,159,0,0.0,Clear,clear sky,2
Bak,46.7325,16.849167,2026-03-06 02:48:12.805332,1.94,0.2,1.94,1.94,1025,87,1.68,159,0,0.0,Clear,clear sky,2
Tófej,46.670833,16.801944,2026-03-06 02:48:14.077418,1.71,0.21,1.71,1.71,1025,88,1.49,156,0,0.0,Clear,clear sky,2
Gutorfölde,46.646944,16.739722,2026-03-06 02:48:15.349791,1.89,0.62,1.89,1.89,1025,88,1.36,153,0,0.0,Clear,clear sky,2
Csömödér-Páka,46.608056,16.641111,2026-03-06 02:48:16.624733,1.91,0.64,1.91,1.91,1025,88,1.36,149,0,0.0,Clear,clear sky,2
Iklódbördőce,46.603056,16.604722,2026-03-06 02:48:17.900368,1.7,0.34,1.7,1.7,1025,88,1.4,153,0,0.0,Clear,clear sky,2
Lenti,46.621389,16.528611,2026-03-06 02:48:19.179306,1.88,0.51,1.88,1.88,1025,88,1.42,160,0,0.0,Clear,clear sky,2
Rédics,46.618056,16.471111,2026-03-06 02:48:20.445916,1.87,0.51,1.87,1.87,1025,88,1.41,162,0,0.0,Clear,clear sky,2
Zalalövő,46.845556,16.576389,2026-03-06 02:48:21.711113,1.89,0.17,1.89,1.89,1025,88,1.66,182,0,0.0,Clear,clear sky,2
Zalaegerszeg-Ola,46.849167,16.844722,2026-03-06 02:48:22.981658,2.24,0.27,2.24,2.24,1025,87,1.9,162,0,0.0,Clear,clear sky,2
Andráshida,46.863116,16.7792,2026-03-06 02:48:24.252717,2.16,0.17,2.16,2.16,1025,88,1.91,164,0,0.0,Clear,clear sky,2
Bagod,46.875,16.746111,2026-03-06 02:48:25.531578,2.23,0.34,2.23,2.23,1025,88,1.83,168,0,0.0,Clear,clear sky,2
Zalaszentgyörgy,46.872222,16.7125,2026-03-06 02:48:26.801095,2.15,0.28,2.15,2.15,1025,88,1.81,170,0,0.0,Clear,clear sky,2
Zalacséb-Salomvár,46.858056,16.662222,2026-03-06 02:48:28.074210,1.89,0.01,1.89,1.89,1025,88,1.78,173,0,0.0,Clear,clear sky,2
Kópháza,47.631389,16.6375,2026-03-06 02:48:29.342471,1.95,-0.67,1.95,1.95,1024,81,2.46,175,0,0.0,Clear,clear sky,2
Nagycenk,47.601111,16.690278,2026-03-06 02:48:30.616419,2.12,-0.54,2.12,2.12,1024,82,2.53,178,0,0.0,Clear,clear sky,2
Sopronkövesd,47.548333,16.748056,2026-03-06 02:48:31.885671,1.95,-0.87,1.95,1.95,1024,82,2.67,183,0,0.0,Clear,clear sky,2
Lövő,47.509444,16.7775,2026-03-06 02:48:33.156535,1.92,-1.0,1.92,1.92,1024,83,2.77,183,0,0.0,Clear,clear sky,2
Újkér,47.457778,16.786667,2026-03-06 02:48:34.433864,2.01,-0.85,2.01,2.01,1025,83,2.73,191,0,0.0,Clear,clear sky,2
Bük,47.388611,16.752222,2026-03-06 02:48:35.696201,2.08,-0.61,2.08,2.08,1025,84,2.55,206,0,0.0,Clear,clear sky,2
Acsád,47.308333,16.734722,2026-03-06 02:48:36.967595,1.81,-0.73,1.81,1.81,1025,85,2.35,214,0,0.0,Clear,clear sky,2
Salköveskút-Vassurány,47.291389,16.704167,2026-03-06 02:48:38.232856,1.85,-0.62,1.85,1.85,1025,85,2.29,214,0,0.0,Clear,clear sky,2
Zalaszentiván,46.8875,16.909444,2026-03-06 02:48:39.498348,2.35,0.19,2.35,2.35,1025,87,2.08,161,0,0.0,Clear,clear sky,2
Alsónemesapáti,46.854167,16.936389,2026-03-06 02:48:40.770050,2.48,0.33,2.48,2.48,1025,86,2.09,157,0,0.0,Clear,clear sky,2
Józsa,47.600833,21.584444,2026-03-06 02:48:42.035503,1.91,-1.25,1.91,1.91,1026,63,3.05,29,12,0.0,Clouds,few clouds,2
Hajdúszentgyörgy,47.608056,21.578333,2026-03-06 02:48:43.303721,1.91,-1.25,1.91,1.91,1026,63,3.05,29,12,0.0,Clouds,few clouds,2
Zelemér,47.627778,21.578333,2026-03-06 02:48:44.572716,1.95,-1.2,1.95,1.95,1026,63,3.05,29,13,0.0,Clouds,few clouds,2
Hajdúböszörmény,47.668056,21.524167,2026-03-06 02:48:45.835993,2.22,-0.77,2.22,2.22,1026,64,2.92,33,15,0.0,Clouds,few clouds,2
Hajdúvid,47.749444,21.508056,2026-03-06 02:48:47.110650,2.58,-0.09,2.58,2.58,1026,64,2.63,35,19,0.0,Clouds,few clouds,2
Hajdúdorog,47.805556,21.493056,2026-03-06 02:48:48.375005,2.65,0.18,2.65,2.65,1026,65,2.43,34,22,0.0,Clouds,few clouds,2
Hajdúnánás,47.831944,21.426667,2026-03-06 02:48:49.644992,2.91,1.0,2.91,2.91,1026,64,1.94,35,24,0.0,Clouds,few clouds,2
Hajdúnánás-Vásártér,47.843056,21.407222,2026-03-06 02:48:50.911074,2.91,1.0,2.91,2.91,1026,64,1.94,35,24,0.0,Clouds,few clouds,2
Tedej,47.903611,21.404444,2026-03-06 02:48:52.193597,2.99,1.6,2.99,2.99,1026,64,1.54,29,29,0.0,Clouds,scattered clouds,2
Tiszavasvári,47.945278,21.374722,2026-03-06 02:48:53.462952,3.06,3.06,3.06,3.06,1026,64,1.24,23,31,0.0,Clouds,scattered clouds,2
Egyházerdő,47.9725,21.365,2026-03-06 02:48:54.728310,3.1,3.1,3.1,3.1,1026,64,1.17,18,32,0.0,Clouds,scattered clouds,2
Tiszalök,48.013056,21.369167,2026-03-06 02:48:55.994905,3.08,3.08,3.08,3.08,1026,64,1.15,8,35,0.0,Clouds,scattered clouds,2
Hajnalos,47.998889,21.414167,2026-03-06 02:48:57.265974,3.04,3.04,3.04,3.04,1026,64,1.31,17,34,0.0,Clouds,scattered clouds,2
Kisfástanya,47.989167,21.47,2026-03-06 02:48:58.532660,2.95,1.61,2.95,2.95,1026,64,1.5,20,33,0.0,Clouds,scattered clouds,2
Tiszaeszlár,48.010556,21.491944,2026-03-06 02:48:59.805257,2.92,1.34,2.92,2.92,1026,65,1.67,18,34,0.0,Clouds,scattered clouds,2
Bashalom,48.026111,21.514722,2026-03-06 02:49:01.076212,2.95,1.39,2.95,2.95,1026,65,1.66,14,36,0.0,Clouds,scattered clouds,2
Sáránd,47.415556,21.625,2026-03-06 02:49:02.362909,2.06,-0.92,2.06,2.06,1026,62,2.87,31,10,0.0,Clear,clear sky,2
Derecske,47.365,21.584167,2026-03-06 02:49:03.631417,2.25,-0.67,2.25,2.25,1026,63,2.85,34,10,0.0,Clear,clear sky,2
Derecske-Vásártér,47.352222,21.58,2026-03-06 02:49:04.898131,2.25,-0.67,2.25,2.25,1026,63,2.85,34,10,0.0,Clear,clear sky,2
Konyár,47.323611,21.666111,2026-03-06 02:49:06.170727,2.35,-0.41,2.35,2.35,1026,64,2.69,34,11,0.0,Clouds,few clouds,2
Konyári Sóstófürdő,47.324167,21.744444,2026-03-06 02:49:07.441913,2.35,-0.22,2.35,2.35,1026,64,2.48,33,10,0.0,Clear,clear sky,2
Pocsaj-Esztár,47.288333,21.793056,2026-03-06 02:49:08.721930,2.38,-0.01,2.38,2.38,1026,65,2.3,33,10,0.0,Clear,clear sky,2
Kismarja,47.243889,21.813889,2026-03-06 02:49:09.998461,2.46,0.11,2.46,2.46,1026,65,2.28,35,10,0.0,Clear,clear sky,2
Nagykereki,47.191667,21.8,2026-03-06 02:49:11.268606,2.5,0.14,2.5,2.5,1026,65,2.29,35,10,0.0,Clear,clear sky,2
Debrecen-Szabadságtelep,47.527778,21.658611,2026-03-06 02:49:12.537906,1.74,-1.4,1.74,1.74,1026,62,2.99,26,10,0.0,Clear,clear sky,2
Kondoroskert,47.525556,21.713889,2026-03-06 02:49:13.810285,1.85,-1.21,1.85,1.85,1026,63,2.92,22,10,0.0,Clear,clear sky,2
Nagycsere,47.523889,21.763056,2026-03-06 02:49:15.085406,1.89,-1.13,1.89,1.89,1026,63,2.88,21,10,0.0,Clear,clear sky,2
Haláp,47.521667,21.818333,2026-03-06 02:49:16.352515,1.89,-1.09,1.89,1.89,1026,63,2.84,20,10,0.0,Clear,clear sky,2
Vámospércs,47.518056,21.893889,2026-03-06 02:49:17.625800,1.89,-0.93,1.89,1.89,1026,64,2.66,17,9,0.0,Clear,clear sky,2
Szentannapuszta,47.52,21.965833,2026-03-06 02:49:18.897720,1.92,-0.77,1.92,1.92,1026,65,2.52,15,9,0.0,Clear,clear sky,2
Nyírábrány,47.523889,22.016944,2026-03-06 02:49:20.164816,1.91,-0.71,1.91,1.91,1026,65,2.45,14,9,0.0,Clear,clear sky,2
Dombostanya,47.602778,21.706389,2026-03-06 02:49:21.428541,1.88,-1.27,1.88,1.88,1026,63,3.04,24,13,0.0,Clouds,few clouds,2
Hajdúsámson,47.608056,21.755278,2026-03-06 02:49:22.696773,1.9,-1.2,1.9,1.9,1026,64,2.98,19,12,0.0,Clouds,few clouds,2
Tamásipuszta,47.632778,21.796111,2026-03-06 02:49:23.964829,1.88,-1.22,1.88,1.88,1026,64,2.97,17,13,0.0,Clouds,few clouds,2
Aradványpuszta,47.662778,21.8425,2026-03-06 02:49:25.236090,1.9,-1.19,1.9,1.9,1026,65,2.97,14,14,0.0,Clouds,few clouds,2
Nyíradony,47.699444,21.903333,2026-03-06 02:49:26.504670,1.84,-1.27,1.84,1.84,1026,66,2.98,9,15,0.0,Clouds,few clouds,2
Nyírmihálydi,47.7375,21.958889,2026-03-06 02:49:27.776511,1.81,-1.33,1.81,1.81,1026,67,3.0,7,15,0.0,Clouds,few clouds,2
Nyírgelse,47.750833,21.987778,2026-03-06 02:49:29.052795,1.73,-1.43,1.73,1.73,1026,67,3.01,6,16,0.0,Clouds,few clouds,2
Nyírbogát,47.793056,22.066389,2026-03-06 02:49:30.321588,1.73,-1.45,1.73,1.73,1026,68,3.03,2,16,0.0,Clouds,few clouds,2
Nagykálló,47.871111,21.825833,2026-03-06 02:49:31.585093,2.19,-0.93,2.19,2.19,1026,68,3.07,15,13,0.0,Clouds,few clouds,2
Kállósemjén,47.854722,21.935,2026-03-06 02:49:32.850375,2.04,-1.12,2.04,2.04,1026,68,3.08,9,14,0.0,Clouds,few clouds,2
Nyírbátor,47.8425,22.131111,2026-03-06 02:49:34.124293,1.65,-1.55,1.65,1.65,1026,69,3.04,0,16,0.0,Clouds,few clouds,2
Nyírcsászári,47.865556,22.179167,2026-03-06 02:49:35.397355,1.6,-1.61,1.6,1.6,1026,69,3.04,358,15,0.0,Clouds,few clouds,2
Hodász,47.896111,22.213611,2026-03-06 02:49:36.683360,1.51,-1.71,1.51,1.51,1026,70,3.03,357,15,0.0,Clouds,few clouds,2
Nyírmeggyes,47.9225,22.256667,2026-03-06 02:49:37.950059,1.54,-1.67,1.54,1.54,1026,70,3.02,356,13,0.0,Clouds,few clouds,2
Mátészalka,47.951389,22.313333,2026-03-06 02:49:39.214725,1.54,-1.64,1.54,1.54,1026,70,2.99,356,14,0.0,Clouds,few clouds,2
Kocsord,47.941944,22.375833,2026-03-06 02:49:40.486738,1.55,-1.57,1.55,1.55,1026,70,2.92,355,25,0.0,Clouds,scattered clouds,2
Kocsord alsó,47.946389,22.400556,2026-03-06 02:49:41.751683,1.55,-1.57,1.55,1.55,1026,70,2.92,355,25,0.0,Clouds,scattered clouds,2
Győrtelek,47.936667,22.424722,2026-03-06 02:49:43.021665,1.51,-1.58,1.51,1.51,1026,70,2.87,355,29,0.0,Clouds,scattered clouds,2
Győrtelek alsó,47.921111,22.443333,2026-03-06 02:49:44.291802,1.44,-1.62,1.44,1.44,1026,70,2.82,356,32,0.0,Clouds,scattered clouds,2
Ököritófülpös,47.911389,22.495,2026-03-06 02:49:45.565397,1.39,-1.62,1.39,1.39,1026,70,2.76,357,35,0.0,Clouds,scattered clouds,2
Porcsalma-Tyukod,47.868056,22.568333,2026-03-06 02:49:46.841132,1.26,-1.54,1.26,1.26,1026,70,2.51,359,40,0.0,Clouds,scattered clouds,2
Csenger,47.826111,22.666389,2026-03-06 02:49:48.111298,1.11,-1.45,1.11,1.11,1026,71,2.25,1,43,0.0,Clouds,scattered clouds,2
Kisfái,46.888303,19.807366,2026-03-06 02:49:49.383869,2.87,0.67,2.87,2.87,1026,77,2.2,114,99,0.0,Clouds,overcast clouds,2
Nyárlőrinci szőlők,46.8775,19.828333,2026-03-06 02:49:50.663399,2.98,0.85,2.98,2.98,1026,76,2.15,112,99,0.0,Clouds,overcast clouds,2
Nyárlőrinc alsó,46.863889,19.878889,2026-03-06 02:49:51.930406,3.01,0.92,3.01,3.01,1026,76,2.12,110,100,0.0,Clouds,overcast clouds,2
Tiszaug-Tiszahídfő,46.866106,20.052098,2026-03-06 02:49:53.208152,3.33,1.4,3.33,3.33,1026,73,2.02,102,100,0.0,Clouds,overcast clouds,2
Csongrádi úti tanyák,46.690278,19.921667,2026-03-06 02:49:54.482854,3.31,1.42,3.31,3.31,1026,76,1.98,101,100,0.0,Clouds,overcast clouds,2
Kettőshalom,46.689167,20.0225,2026-03-06 02:49:55.745992,3.36,1.51,3.36,3.36,1026,75,1.95,96,100,0.0,Clouds,overcast clouds,2
Csongrád alsó,46.711389,20.126389,2026-03-06 02:49:57.017339,3.38,1.57,3.38,3.38,1026,74,1.92,91,100,0.0,Clouds,overcast clouds,2
Dónát,46.66988,20.368168,2026-03-06 02:49:58.281142,3.4,1.78,3.4,3.4,1026,70,1.76,72,99,0.0,Clouds,overcast clouds,2
Pusztatemplom,46.676667,20.407222,2026-03-06 02:49:59.545691,3.4,1.79,3.4,3.4,1026,70,1.75,66,99,0.0,Clouds,overcast clouds,2
Előhát,47.364722,20.653611,2026-03-06 02:50:00.813708,3.41,1.95,3.41,3.41,1026,69,1.64,66,59,0.0,Clouds,broken clouds,2
Polgárdi-Tekerespuszta,47.017778,18.297778,2026-03-06 02:50:02.080994,3.34,3.34,3.34,3.34,1026,69,0.93,79,7,0.0,Clear,clear sky,2
Szatina-Kishajmás,46.202778,18.083611,2026-03-06 02:50:03.358023,4.53,4.53,4.53,4.53,1025,80,0.92,136,2,0.0,Clear,clear sky,2
Márok,45.886944,18.499167,2026-03-06 02:50:04.625085,4.51,4.51,4.51,4.51,1025,77,0.96,79,4,0.0,Clear,clear sky,2
Nagynyárád,45.953333,18.564722,2026-03-06 02:50:05.894331,5.02,5.02,5.02,5.02,1025,74,0.82,68,4,0.0,Clear,clear sky,2
Szászvár,46.2875,18.369722222222222,2026-03-06 02:50:07.163412,4.57,4.57,4.57,4.57,1025,76,0.8,140,3,0.0,Clear,clear sky,2
Cikó,46.263514,18.557605,2026-03-06 02:50:08.437028,4.89,4.89,4.89,4.89,1026,72,0.49,110,5,0.0,Clear,clear sky,2
Gyöngyfa-Magyarmecske,45.983889,17.958889,2026-03-06 02:50:09.712642,5.35,4.33,5.35,5.35,1025,80,1.51,103,0,0.0,Clear,clear sky,2
Nagyhát,47.581389,21.445,2026-03-06 02:50:10.982464,2.18,-0.83,2.18,2.18,1026,63,2.94,35,10,0.0,Clear,clear sky,2
Balmazújváros,47.613889,21.348056,2026-03-06 02:50:12.254090,2.69,0.17,2.69,2.69,1026,63,2.49,39,12,0.0,Clouds,few clouds,2
Kónya,47.600833,21.2375,2026-03-06 02:50:13.520890,2.9,0.62,2.9,2.9,1026,64,2.29,39,12,0.0,Clouds,few clouds,2
Hortobágy,47.586111,21.154722,2026-03-06 02:50:14.789077,3.06,1.12,3.06,3.06,1026,64,1.99,36,13,0.0,Clouds,few clouds,2
Hortobágyi Halastó,47.604167,21.074167,2026-03-06 02:50:16.058159,3.18,1.48,3.18,3.18,1026,65,1.8,33,14,0.0,Clouds,few clouds,2
Ohat-Pusztakócs,47.623333,20.951111,2026-03-06 02:50:17.326124,3.36,1.94,3.36,3.36,1026,65,1.6,20,12,0.0,Clouds,few clouds,2
Egyek,47.616944,20.883611,2026-03-06 02:50:18.602611,3.45,2.14,3.45,3.45,1026,66,1.53,17,12,0.0,Clouds,few clouds,2
Tiszafüred,47.627778,20.756111,2026-03-06 02:50:19.877523,3.53,2.44,3.53,3.53,1026,67,1.38,16,16,0.0,Clouds,few clouds,2
Poroszló,47.657778,20.654444,2026-03-06 02:50:21.149387,3.67,3.67,3.67,3.67,1026,67,1.02,6,28,0.0,Clouds,scattered clouds,2
Kétútköz,47.694167,20.565,2026-03-06 02:50:22.419535,3.69,3.69,3.69,3.69,1026,66,0.83,341,35,0.0,Clouds,scattered clouds,2
Egerfarmos,47.711667,20.5225,2026-03-06 02:50:23.692322,3.69,3.69,3.69,3.69,1026,66,0.69,317,43,0.0,Clouds,scattered clouds,2
Piliscsaba,47.638056,18.829722,2026-03-06 02:50:24.956538,3.18,1.99,3.18,3.18,1026,78,1.42,116,81,0.0,Clouds,broken clouds,2
Pilisjászfalu,47.656111,18.797778,2026-03-06 02:50:26.238387,3.82,2.62,3.82,3.82,1026,78,1.49,119,77,0.0,Clouds,broken clouds,2
Leányvár,47.687594,18.772553,2026-03-06 02:50:27.502496,3.66,2.31,3.66,3.66,1026,79,1.58,123,77,0.0,Clouds,broken clouds,2
Dorog,47.723333,18.732778,2026-03-06 02:50:28.770319,3.77,2.28,3.77,3.77,1026,80,1.7,129,76,0.0,Clouds,broken clouds,2
Esztergom-Kertváros,47.743333,18.719167,2026-03-06 02:50:30.039065,3.77,2.28,3.77,3.77,1026,80,1.7,130,79,0.0,Clouds,broken clouds,2
Esztergom,47.7775,18.743611,2026-03-06 02:50:31.310605,3.48,2.05,3.48,3.48,1026,80,1.62,125,89,0.0,Clouds,overcast clouds,2
Dunaalmás,47.733056,18.326389,2026-03-06 02:50:32.579351,3.05,1.25,3.05,3.05,1026,74,1.87,134,18,0.0,Clouds,few clouds,2
Neszmély,47.734444,18.345278,2026-03-06 02:50:33.842211,3.05,1.25,3.05,3.05,1026,74,1.87,134,18,0.0,Clouds,few clouds,2
Süttő,47.761111,18.455,2026-03-06 02:50:35.118264,3.21,1.51,3.21,3.21,1026,77,1.8,137,39,0.0,Clouds,scattered clouds,2
Piszke,47.75307,18.478017,2026-03-06 02:50:36.393326,3.33,1.65,3.33,3.33,1026,78,1.8,138,44,0.0,Clouds,scattered clouds,2
Lábatlan,47.751944,18.513333,2026-03-06 02:50:37.659363,3.4,1.73,3.4,3.4,1026,79,1.8,138,49,0.0,Clouds,scattered clouds,2
Eternitgyár,47.755544,18.530014,2026-03-06 02:50:38.932435,3.4,1.73,3.4,3.4,1026,79,1.8,138,49,0.0,Clouds,scattered clouds,2
Nyergesújfalu felső,47.762222,18.540556,2026-03-06 02:50:40.204823,3.4,1.73,3.4,3.4,1026,79,1.8,138,49,0.0,Clouds,scattered clouds,2
Nyergesújfalu,47.761111,18.561667,2026-03-06 02:50:41.479473,3.43,1.77,3.43,3.43,1026,79,1.8,137,54,0.0,Clouds,broken clouds,2
Tokod,47.735,18.675,2026-03-06 02:50:42.756031,3.72,2.18,3.72,3.72,1026,80,1.74,131,72,0.0,Clouds,broken clouds,2
Környe,47.541667,18.330278,2026-03-06 02:50:44.020890,2.93,0.99,2.93,2.93,1026,74,1.97,130,14,0.0,Clouds,few clouds,2
Kecskéd alsó,47.519722,18.316667,2026-03-06 02:50:45.299283,2.87,0.91,2.87,2.87,1026,73,1.98,132,14,0.0,Clouds,few clouds,2
Oroszlány,47.486944,18.308611,2026-03-06 02:50:46.574419,2.81,0.96,2.81,2.81,1026,73,1.88,130,14,0.0,Clouds,few clouds,2
Győrszabadhegy,47.663056,17.648056,2026-03-06 02:50:47.848508,2.45,0.65,2.45,2.45,1025,83,1.79,128,9,0.0,Clear,clear sky,2
Ménfőcsanak felső,47.638333,17.615,2026-03-06 02:50:49.116036,2.5,0.82,2.5,2.5,1025,83,1.7,130,8,0.0,Clear,clear sky,2
Gyömöre-Tét,47.501672,17.559596,2026-03-06 02:50:50.380751,2.28,0.74,2.28,2.28,1025,85,1.57,142,6,0.0,Clear,clear sky,2
Szerecseny,47.469167,17.5475,2026-03-06 02:50:51.652212,2.29,0.71,2.29,2.29,1025,85,1.6,142,6,0.0,Clear,clear sky,2
Gecse-Gyarmat,47.456111,17.515,2026-03-06 02:50:52.930137,2.17,0.49,2.17,2.17,1025,85,1.66,143,5,0.0,Clear,clear sky,2
Vaszar,47.4025,17.496389,2026-03-06 02:50:54.202879,2.17,0.25,2.17,2.17,1025,87,1.85,144,4,0.0,Clear,clear sky,2
Pápa,47.340556,17.458889,2026-03-06 02:50:55.486350,2.2,0.15,2.2,2.2,1025,87,1.96,143,3,0.0,Clear,clear sky,2
Mezőlak,47.324722,17.371389,2026-03-06 02:50:56.765427,2.32,0.34,2.32,2.32,1025,87,1.92,148,1,0.0,Clear,clear sky,2
Mihályháza,47.318889,17.331667,2026-03-06 02:50:58.053799,2.34,0.36,2.34,2.34,1025,87,1.92,150,1,0.0,Clear,clear sky,2
