station_name,station_lat,station_lon,observation_time,temp,feels_like,temp_min,temp_max,pressure,humidity,wind_speed,wind_deg,clouds,precipitation_1h,weather_main,weather_description,collection_hour
Búcsúszentlászló,46.793056,16.932778,2026-03-19 02:44:07.280409,7.84,5.54,7.84,7.84,1023,73,3.63,356,4,0.0,Clear,clear sky,2
Angyalföld,47.549722,19.09,2026-03-19 02:44:08.461090,6.71,3.72,5.23,7.17,1022,55,4.47,4,0,0.0,Clear,clear sky,2
Felsőjánosfa,46.841389,16.544167,2026-03-19 02:44:09.630712,4.5,1.19,4.5,4.5,1023,76,4.09,16,4,0.0,Clear,clear sky,2
Pankasz,46.835833,16.496111,2026-03-19 02:44:10.801522,4.23,0.75,4.23,4.23,1023,76,4.29,17,3,0.0,Clear,clear sky,2
Nagyrákos,46.827222,16.455556,2026-03-19 02:44:11.971515,4.19,0.66,4.19,4.19,1023,76,4.36,17,3,0.0,Clear,clear sky,2
Őriszentpéter,46.828889,16.415278,2026-03-19 02:44:13.143486,4.31,0.78,4.31,4.31,1023,76,4.4,17,4,0.0,Clear,clear sky,2
Törökbálint,47.45,18.908611,2026-03-19 02:44:14.315711,6.54,3.51,5.0,6.94,1022,55,4.47,4,0,0.0,Clear,clear sky,2
Bicske alsó,47.486389,18.642778,2026-03-19 02:44:15.494446,6.6,3.23,5.78,6.73,1023,60,5.24,45,0,0.0,Clear,clear sky,2
Bajánsenye,46.818056,16.358056,2026-03-19 02:44:16.669900,4.43,0.87,4.43,4.43,1023,76,4.51,17,4,0.0,Clear,clear sky,2
Aquincum,47.566218,19.048273,2026-03-19 02:44:17.847736,6.73,3.75,5.25,7.19,1022,55,4.47,4,0,0.0,Clear,clear sky,2
Piliscsév,47.673889,18.791389,2026-03-19 02:44:19.018084,6.56,3.24,5.73,6.78,1023,54,5.11,52,0,0.0,Clear,clear sky,2
Tát,47.741201,18.64783,2026-03-19 02:44:20.188098,7.07,3.97,7.07,7.07,1023,58,4.9,63,0,0.0,Clear,clear sky,2
Süttő felső,47.756667,18.437222,2026-03-19 02:44:21.357808,5.26,1.89,5.26,5.26,1023,59,4.54,68,3,0.0,Clear,clear sky,2
Budatétény,47.405,19.016389,2026-03-19 02:44:22.535194,6.91,4.44,5.29,7.23,1022,55,3.58,28,0,0.0,Clear,clear sky,2
Seregélyes-Szőlőhegy,47.119444,18.612222,2026-03-19 02:44:23.706226,5.53,2.87,5.53,5.53,1022,60,3.4,43,1,0.0,Clear,clear sky,2
Gödöllő-Állami telepek,47.564444,19.375556,2026-03-19 02:44:24.875943,5.82,3.81,4.74,6.68,1022,56,2.57,350,0,0.0,Clear,clear sky,2
Dunakeszi alsó,47.607778,19.128889,2026-03-19 02:44:26.044970,6.68,5.11,5.22,7.16,1022,55,2.24,289,0,0.0,Clear,clear sky,2
Vác-Alsóváros,47.773056,19.149722,2026-03-19 02:44:27.213876,6.62,3.25,6.62,7.03,1023,60,5.27,44,0,0.0,Clear,clear sky,2
Szob alsó,47.816667,18.8725,2026-03-19 02:44:28.389919,7.06,4.12,7.06,7.06,1023,60,4.55,58,0,0.0,Clear,clear sky,2
Zalaszentmihály-Pacsa,46.7225,16.951944,2026-03-19 02:44:29.559408,7.75,5.45,7.75,7.75,1023,57,3.6,50,0,0.0,Clear,clear sky,2
Pötréte,46.682778,16.9575,2026-03-19 02:44:30.741718,7.75,5.45,7.75,7.75,1023,57,3.6,50,0,0.0,Clear,clear sky,2
Felsőrajk,46.667222,16.982778,2026-03-19 02:44:31.910358,7.81,5.52,7.81,7.81,1023,57,3.6,50,0,0.0,Clear,clear sky,2
Gelse,46.600556,16.982778,2026-03-19 02:44:33.079520,7.81,5.52,7.81,7.81,1023,57,3.6,50,0,0.0,Clear,clear sky,2
Őrtilos,46.297778,16.887778,2026-03-19 02:44:34.249503,5.26,2.37,5.26,5.26,1022,71,3.68,33,85,0.0,Clouds,overcast clouds,2
Zákány,46.251944,16.9425,2026-03-19 02:44:35.421534,5.07,1.87,5.07,5.07,1022,69,4.13,36,85,0.0,Clouds,overcast clouds,2
Berzence,46.201389,17.143611,2026-03-19 02:44:36.592414,5.41,2.08,5.41,5.41,1021,66,4.53,45,87,0.0,Clouds,overcast clouds,2
Somogyudvarhely,46.163333,17.179722,2026-03-19 02:44:37.762561,5.38,2.09,5.38,5.38,1021,65,4.43,48,88,0.0,Clouds,overcast clouds,2
Bélavár,46.122778,17.207778,2026-03-19 02:44:38.932059,5.43,2.35,5.43,5.43,1021,65,4.07,51,87,0.0,Clouds,overcast clouds,2
Vízvár,46.101389,17.239444,2026-03-19 02:44:40.101592,5.32,2.32,5.32,5.32,1021,65,3.89,52,86,0.0,Clouds,overcast clouds,2
Babócsa,46.028359,17.342276,2026-03-19 02:44:41.286162,5.3,2.46,5.3,5.3,1021,65,3.6,55,87,0.0,Clouds,overcast clouds,2
Péterhida-Komlósd,46.006667,17.358056,2026-03-19 02:44:42.454689,5.34,2.6,5.34,5.34,1021,65,3.47,56,88,0.0,Clouds,overcast clouds,2
Barcs,45.951944,17.446944,2026-03-19 02:44:43.627743,5.3,2.67,5.3,5.3,1021,66,3.28,59,92,0.0,Clouds,overcast clouds,2
Barcs felső,45.958333,17.486389,2026-03-19 02:44:44.798817,5.2,2.54,5.2,5.2,1021,66,3.3,58,93,0.0,Clouds,overcast clouds,2
Középrigóc,45.970556,17.525,2026-03-19 02:44:45.970701,5.11,2.42,5.11,5.11,1021,66,3.31,57,94,0.0,Clouds,overcast clouds,2
Darány,45.992222,17.598611,2026-03-19 02:44:47.141897,5.11,2.28,5.11,5.11,1021,65,3.53,52,97,0.0,Clouds,overcast clouds,2
Kisdobsza,46.012222,17.668056,2026-03-19 02:44:48.321105,5.17,2.23,5.17,5.17,1021,65,3.73,48,97,0.0,Clouds,overcast clouds,2
Nemeske,46.023333,17.705278,2026-03-19 02:44:49.492956,5.2,2.26,5.2,5.2,1021,65,3.73,48,96,0.0,Clouds,overcast clouds,2
Molvány,46.035278,17.748611,2026-03-19 02:44:50.674564,5.2,2.2,5.2,5.2,1021,64,3.84,46,95,0.0,Clouds,overcast clouds,2
Szigetvár,46.043333,17.801944,2026-03-19 02:44:51.846790,5.18,2.2,5.18,5.18,1021,64,3.79,47,95,0.0,Clouds,overcast clouds,2
Nagypeterd,46.039444,17.871667,2026-03-19 02:44:53.020762,6.53,3.91,6.53,6.53,1021,63,3.69,48,95,0.0,Clouds,overcast clouds,2
Szentdénes,46.036667,17.926944,2026-03-19 02:44:54.195840,6.48,3.88,6.48,6.48,1021,63,3.64,49,96,0.0,Clouds,overcast clouds,2
Háros,47.412222,19.035,2026-03-19 02:44:55.373667,6.88,4.4,5.25,7.19,1022,55,3.58,28,0,0.0,Clear,clear sky,2
Nagytétény-Diósd,47.398333,18.974444,2026-03-19 02:44:56.545800,6.88,4.4,5.29,7.23,1022,55,3.58,28,0,0.0,Clear,clear sky,2
Érdliget,47.390278,18.937778,2026-03-19 02:44:57.723918,6.78,4.28,5.2,7.14,1022,55,3.58,28,0,0.0,Clear,clear sky,2
Érd felső,47.381111,18.922222,2026-03-19 02:44:58.893551,6.79,4.29,5.17,7.11,1022,55,3.58,28,0,0.0,Clear,clear sky,2
Érd,47.369722,18.900833,2026-03-19 02:45:00.074369,6.75,3.78,5.13,7.07,1022,55,4.44,47,0,0.0,Clear,clear sky,2
Százhalombatta,47.322222,18.899167,2026-03-19 02:45:01.249719,6.78,3.95,5.12,7.06,1022,55,4.18,48,0,0.0,Clear,clear sky,2
Dunai Finomító,47.294444,18.878889,2026-03-19 02:45:02.423134,6.79,4.0,5.84,6.9,1022,55,4.12,49,0,0.0,Clear,clear sky,2
Ercsi,47.247222,18.875278,2026-03-19 02:45:03.593603,7.02,4.34,6.07,7.12,1022,58,4.01,49,0,0.0,Clear,clear sky,2
Iváncsa,47.177778,18.811944,2026-03-19 02:45:04.762379,5.55,2.67,5.55,5.55,1022,59,3.76,51,0,0.0,Clear,clear sky,2
Pusztaszabolcs,47.139722,18.761667,2026-03-19 02:45:05.936025,5.59,2.79,5.59,5.59,1022,60,3.65,50,1,0.0,Clear,clear sky,2
Szabadegyháza,47.082778,18.704167,2026-03-19 02:45:07.109044,5.54,2.83,5.54,5.54,1022,61,3.48,49,1,0.0,Clear,clear sky,2
Sárosd,47.039722,18.660278,2026-03-19 02:45:08.280435,5.55,2.96,5.55,5.55,1022,61,3.3,46,1,0.0,Clear,clear sky,2
Nagylók,46.979444,18.635833,2026-03-19 02:45:09.457608,5.4,2.66,5.4,5.4,1022,62,3.49,48,0,0.0,Clear,clear sky,2
Sárbogárd,46.896944,18.611944,2026-03-19 02:45:10.630806,5.58,2.68,5.58,5.58,1022,62,3.81,50,0,0.0,Clear,clear sky,2
Rétszilas,46.814167,18.601389,2026-03-19 02:45:11.801873,5.63,2.48,5.63,5.63,1022,62,4.28,52,3,0.0,Clear,clear sky,2
Nagyatád,46.228611,17.354167,2026-03-19 02:45:12.975086,5.3,1.81,5.3,5.3,1021,64,4.8,51,85,0.0,Clouds,overcast clouds,2
Budapest-Keleti,47.500278,19.084167,2026-03-19 02:45:14.147657,6.77,3.8,5.2,7.14,1022,55,4.47,4,0,0.0,Clear,clear sky,2
Ferencváros,47.468611,19.088056,2026-03-19 02:45:15.316259,6.79,3.82,5.22,7.16,1022,55,4.47,4,0,0.0,Clear,clear sky,2
Budapest-Nyugati,47.510833,19.0575,2026-03-19 02:45:16.487697,6.74,3.76,5.21,7.16,1022,55,4.47,4,0,0.0,Clear,clear sky,2
Kőbánya felső,47.491944,19.133889,2026-03-19 02:45:17.676901,6.54,4.67,5.14,7.08,1022,55,2.57,350,0,0.0,Clear,clear sky,2
Rákos,47.488889,19.174722,2026-03-19 02:45:18.852721,6.32,4.41,5.1,7.04,1022,56,2.57,350,0,0.0,Clear,clear sky,2
Rákosrendező,47.525556,19.089444,2026-03-19 02:45:20.025013,6.76,3.78,5.25,7.19,1022,55,4.47,4,0,0.0,Clear,clear sky,2
Zugló,47.511389,19.101389,2026-03-19 02:45:21.211802,6.75,3.77,5.21,7.15,1022,55,4.47,4,0,0.0,Clear,clear sky,2
Mezőtárkány,47.725,20.480278,2026-03-19 02:45:22.390769,5.46,0.92,5.46,5.46,1023,62,7.54,38,0,0.0,Clear,clear sky,2
Istvántelek,47.550278,19.106389,2026-03-19 02:45:23.564918,6.72,4.88,5.23,7.17,1022,55,2.57,350,0,0.0,Clear,clear sky,2
Rákospalota-Újpest,47.565833,19.111944,2026-03-19 02:45:24.728748,6.69,4.85,5.23,7.17,1022,56,2.57,350,0,0.0,Clear,clear sky,2
Kőbánya alsó,47.483056,19.127222,2026-03-19 02:45:25.900588,6.57,4.02,5.16,7.1,1022,55,3.58,28,0,0.0,Clear,clear sky,2
Kőbánya-Kispest,47.463889,19.149444,2026-03-19 02:45:27.071252,6.42,4.53,5.16,7.1,1022,55,2.57,350,0,0.0,Clear,clear sky,2
Pestszentlőrinc,47.454722,19.182778,2026-03-19 02:45:28.244192,6.21,4.28,5.1,7.04,1022,56,2.57,350,0,0.0,Clear,clear sky,2
Kispest,47.448135,19.157552,2026-03-19 02:45:29.420291,6.37,4.47,5.16,7.1,1022,55,2.57,350,0,0.0,Clear,clear sky,2
Újpest,47.558889,19.079722,2026-03-19 02:45:30.591053,6.71,3.72,5.23,7.17,1022,55,4.47,4,0,0.0,Clear,clear sky,2
Pestszentimre felső,47.413611,19.173333,2026-03-19 02:45:31.759844,6.3,4.38,5.19,7.13,1022,56,2.57,350,0,0.0,Clear,clear sky,2
Dunakeszi,47.626111,19.136111,2026-03-19 02:45:32.933006,6.6,5.01,5.13,7.07,1023,55,2.24,289,0,0.0,Clear,clear sky,2
Dunakeszi-Gyártelep,47.643611,19.135,2026-03-19 02:45:34.105755,6.65,3.36,6.06,7.12,1023,55,5.09,42,0,0.0,Clear,clear sky,2
Alsógöd,47.676944,19.134444,2026-03-19 02:45:35.277291,6.66,3.36,6.06,7.11,1023,56,5.13,42,0,0.0,Clear,clear sky,2
Göd,47.687778,19.1375,2026-03-19 02:45:36.447767,6.68,3.38,6.08,7.13,1023,56,5.13,42,0,0.0,Clear,clear sky,2
Felsőgöd,47.705556,19.143333,2026-03-19 02:45:37.619982,6.71,3.4,6.12,7.17,1023,56,5.17,42,0,0.0,Clear,clear sky,2
Sződ-Sződliget,47.728056,19.154722,2026-03-19 02:45:38.790368,6.67,3.34,6.11,7.17,1023,56,5.2,42,0,0.0,Clear,clear sky,2
Vác,47.782778,19.133056,2026-03-19 02:45:39.960183,6.62,3.25,6.62,7.03,1023,60,5.27,44,0,0.0,Clear,clear sky,2
Verőce,47.823889,19.029444,2026-03-19 02:45:41.131737,6.46,3.26,6.46,6.86,1023,61,4.79,52,0,0.0,Clear,clear sky,2
Kismaros,47.8275,19.010278,2026-03-19 02:45:42.304957,6.99,3.96,6.99,6.99,1023,61,4.7,53,0,0.0,Clear,clear sky,2
Nagymaros-Visegrád,47.791389,18.959167,2026-03-19 02:45:43.475840,7.01,3.98,6.61,7.01,1023,60,4.72,51,0,0.0,Clear,clear sky,2
Nagymaros,47.780278,18.952222,2026-03-19 02:45:44.646806,7.09,4.08,6.68,7.09,1023,60,4.72,51,0,0.0,Clear,clear sky,2
Zebegény,47.801389,18.908889,2026-03-19 02:45:45.820212,7.06,4.08,6.66,7.06,1023,60,4.62,54,0,0.0,Clear,clear sky,2
Szob,47.821111,18.861944,2026-03-19 02:45:46.992474,7.02,4.1,7.02,7.02,1023,60,4.49,60,0,0.0,Clear,clear sky,2
Alagimajor,47.601944,19.153889,2026-03-19 02:45:48.162782,6.63,4.78,5.18,7.12,1022,56,2.57,350,0,0.0,Clear,clear sky,2
Fót,47.611389,19.181667,2026-03-19 02:45:49.331202,6.55,3.26,5.96,7.01,1023,56,5.04,42,0,0.0,Clear,clear sky,2
Fótújfalu,47.615,19.192778,2026-03-19 02:45:50.505128,6.45,3.13,5.85,6.91,1023,56,5.04,42,0,0.0,Clear,clear sky,2
Csomád,47.635556,19.222778,2026-03-19 02:45:51.682893,6.19,2.81,5.58,6.64,1022,56,5.03,41,0,0.0,Clear,clear sky,2
Veresegyház,47.649167,19.288611,2026-03-19 02:45:52.860684,6.19,2.81,4.84,6.79,1023,56,5.04,39,0,0.0,Clear,clear sky,2
Erdőkertes,47.662222,19.295833,2026-03-19 02:45:54.034599,6.15,2.76,4.8,6.74,1023,58,5.04,39,0,0.0,Clear,clear sky,2
Őrbottyán,47.685833,19.283611,2026-03-19 02:45:55.216711,6.17,2.72,4.71,6.66,1023,58,5.17,40,0,0.0,Clear,clear sky,2
Váchartyán,47.725833,19.248889,2026-03-19 02:45:56.400111,6.5,3.03,6.5,6.61,1023,59,5.42,41,0,0.0,Clear,clear sky,2
Magyarkút-Verőce,47.826111,19.044444,2026-03-19 02:45:57.579565,6.62,3.46,6.62,6.62,1023,61,4.79,52,0,0.0,Clear,clear sky,2
Szokolya,47.871111,19.030556,2026-03-19 02:45:58.761708,3.98,0.21,3.98,3.98,1023,62,4.7,56,0,0.0,Clear,clear sky,2
Berkenye,47.885278,19.071944,2026-03-19 02:45:59.933426,4.71,1.06,4.71,4.71,1023,62,4.82,55,0,0.0,Clear,clear sky,2
Nógrád,47.901944,19.0475,2026-03-19 02:46:01.102865,4.31,0.66,4.31,4.31,1023,62,4.64,58,0,0.0,Clear,clear sky,2
Diósjenő,47.94,19.049444,2026-03-19 02:46:02.271827,3.91,0.21,3.91,3.91,1023,62,4.55,60,0,0.0,Clear,clear sky,2
Borsosberény,47.971389,19.093056,2026-03-19 02:46:03.440608,4.63,0.92,4.63,4.63,1023,62,4.91,57,0,0.0,Clear,clear sky,2
Nagyoroszi,47.993611,19.101111,2026-03-19 02:46:04.617303,4.45,0.75,4.45,4.45,1023,62,4.79,59,0,0.0,Clear,clear sky,2
Drégelyvár,48.001944,19.079444,2026-03-19 02:46:05.799608,4.66,1.27,4.66,4.66,1023,62,4.31,61,0,0.0,Clear,clear sky,2
Drégely,48.042222,19.056111,2026-03-19 02:46:06.975297,5.0,1.78,5.0,5.0,1023,62,4.14,61,0,0.0,Clear,clear sky,2
Drégelypalánk,48.055,19.046111,2026-03-19 02:46:08.147128,5.11,2.12,5.11,5.11,1023,63,3.79,61,0,0.0,Clear,clear sky,2
Ipolyvece,48.056944,19.106389,2026-03-19 02:46:09.318874,5.12,1.85,5.12,5.12,1023,62,4.28,59,0,0.0,Clear,clear sky,2
Dejtár,48.045556,19.196389,2026-03-19 02:46:10.488206,5.1,1.55,5.1,5.1,1023,62,4.81,57,0,0.0,Clear,clear sky,2
Ipolyszög,48.054444,19.221944,2026-03-19 02:46:11.664685,5.11,1.59,5.11,5.11,1023,62,4.76,56,0,0.0,Clear,clear sky,2
Iklad-Domony,47.658056,19.444444,2026-03-19 02:46:12.834890,6.64,3.51,5.1,6.64,1023,60,4.72,37,0,0.0,Clear,clear sky,2
Iklad-Domony felső,47.667778,19.428056,2026-03-19 02:46:14.010470,6.6,3.35,5.09,6.62,1023,59,4.97,38,0,0.0,Clear,clear sky,2
Galgamácsa,47.693889,19.3925,2026-03-19 02:46:15.184828,6.61,3.24,6.5,6.61,1023,59,5.25,39,0,0.0,Clear,clear sky,2
Vácrátót,47.732778,19.217778,2026-03-19 02:46:16.361780,6.42,2.97,6.42,6.53,1023,59,5.33,41,0,0.0,Clear,clear sky,2
Csörög,47.735833,19.196389,2026-03-19 02:46:17.537527,6.43,3.0,6.42,6.94,1023,59,5.28,42,0,0.0,Clear,clear sky,2
Galgagyörk,47.735278,19.372222,2026-03-19 02:46:18.709122,6.51,3.05,6.4,6.51,1023,59,5.4,40,0,0.0,Clear,clear sky,2
Püspökhatvan,47.768611,19.366944,2026-03-19 02:46:19.877564,5.24,1.35,5.24,5.24,1023,59,5.65,42,0,0.0,Clear,clear sky,2
Acsa-Erdőkürt,47.801111,19.386111,2026-03-19 02:46:21.055150,5.06,1.08,5.06,5.06,1023,59,5.74,43,0,0.0,Clear,clear sky,2
Galgaguta,47.848611,19.385556,2026-03-19 02:46:22.226289,4.73,0.63,4.73,4.73,1023,60,5.81,45,0,0.0,Clear,clear sky,2
Nógrádkövesd,47.879444,19.371111,2026-03-19 02:46:23.398805,4.87,0.82,4.87,4.87,1023,60,5.78,47,0,0.0,Clear,clear sky,2
Magyarnándor,47.970833,19.356667,2026-03-19 02:46:24.577237,4.67,0.65,4.67,4.67,1023,61,5.59,51,0,0.0,Clear,clear sky,2
Mohora,47.995556,19.347778,2026-03-19 02:46:25.752821,4.76,0.81,4.76,4.76,1023,61,5.48,51,0,0.0,Clear,clear sky,2
Szügy,48.036389,19.333056,2026-03-19 02:46:26.923366,4.95,1.18,4.95,4.95,1023,61,5.19,52,0,0.0,Clear,clear sky,2
Balassagyarmat,48.071111,19.293611,2026-03-19 02:46:28.098024,5.03,1.37,5.03,5.03,1024,62,5.0,53,0,0.0,Clear,clear sky,2
Őrhalom,48.078773,19.403936,2026-03-19 02:46:29.271893,4.76,1.17,4.76,4.76,1024,62,4.73,50,0,0.0,Clear,clear sky,2
Hugyag,48.083056,19.421111,2026-03-19 02:46:30.450586,4.76,1.17,4.76,4.76,1024,62,4.73,50,0,0.0,Clear,clear sky,2
Szécsény,48.093056,19.521111,2026-03-19 02:46:31.625607,4.98,1.57,4.98,4.98,1024,63,4.49,50,0,0.0,Clear,clear sky,2
Ludányhalászi,48.1325,19.529444,2026-03-19 02:46:32.800527,4.92,1.59,4.92,4.92,1024,63,4.31,51,0,0.0,Clear,clear sky,2
Nógrádszakál,48.178333,19.521667,2026-03-19 02:46:33.974143,4.86,1.57,4.86,4.86,1024,63,4.2,51,0,0.0,Clear,clear sky,2
Ráróspuszta,48.207222,19.541389,2026-03-19 02:46:35.145896,4.28,1.01,4.28,4.28,1024,64,3.94,49,0,0.0,Clear,clear sky,2
Litke,48.215833,19.598611,2026-03-19 02:46:36.319302,4.8,1.49,4.8,4.8,1024,64,4.22,51,0,0.0,Clear,clear sky,2
Nyíregyháza külső,47.943056,21.740278,2026-03-19 02:46:37.492813,4.78,1.25,4.78,4.78,1023,71,4.63,29,3,0.0,Clear,clear sky,2
Oros,47.945833,21.806389,2026-03-19 02:46:38.668753,4.71,1.21,4.71,4.71,1023,71,4.53,27,4,0.0,Clear,clear sky,2
Napkor,47.948889,21.873056,2026-03-19 02:46:39.842893,4.62,1.22,4.62,4.62,1023,71,4.3,25,5,0.0,Clear,clear sky,2
Apagy,47.953775,21.939044,2026-03-19 02:46:41.013541,4.58,1.23,4.58,4.58,1023,71,4.2,25,5,0.0,Clear,clear sky,2
Levelek-Magy,47.948056,21.993611,2026-03-19 02:46:42.183292,4.46,1.2,4.46,4.46,1023,71,4.0,24,5,0.0,Clear,clear sky,2
Ófehértó,47.940556,22.041389,2026-03-19 02:46:43.360754,4.34,1.12,4.34,4.34,1023,71,3.88,25,6,0.0,Clear,clear sky,2
Ligettanya,47.951667,22.071389,2026-03-19 02:46:44.532199,4.25,1.1,4.25,4.25,1023,71,3.74,24,5,0.0,Clear,clear sky,2
Baktalórántháza,47.988611,22.083333,2026-03-19 02:46:45.703932,4.26,1.1,4.26,4.26,1023,71,3.76,23,5,0.0,Clear,clear sky,2
Vaja-Rohod,48.006389,22.164167,2026-03-19 02:46:46.883890,4.21,1.12,4.21,4.21,1023,72,3.62,22,5,0.0,Clear,clear sky,2
Rákóczitanya,48.022222,22.178333,2026-03-19 02:46:48.067867,4.14,1.08,4.14,4.14,1023,72,3.55,22,5,0.0,Clear,clear sky,2
Nyírmada,48.059167,22.203056,2026-03-19 02:46:49.248782,4.16,1.12,4.16,4.16,1023,72,3.54,20,4,0.0,Clear,clear sky,2
Tunyogmatolcs,47.960244,22.442247,2026-03-19 02:46:50.426379,4.06,1.34,4.06,4.06,1023,71,3.05,27,9,0.0,Clear,clear sky,2
Tunyogmatolcs alsó,47.966025,22.464713,2026-03-19 02:46:51.602427,3.99,1.28,3.99,3.99,1023,71,3.01,28,10,0.0,Clear,clear sky,2
Fehérgyarmat,47.979167,22.524444,2026-03-19 02:46:52.771103,3.91,1.19,3.91,3.91,1023,71,3.01,28,8,0.0,Clear,clear sky,2
Penyige,47.995278,22.566944,2026-03-19 02:46:53.942814,3.87,1.16,3.87,3.87,1023,71,2.98,29,8,0.0,Clear,clear sky,2
Nagyszekeres,47.976111,22.6125,2026-03-19 02:46:55.122304,3.81,1.11,3.81,3.81,1023,71,2.96,29,8,0.0,Clear,clear sky,2
Kisszekeres,47.965833,22.629444,2026-03-19 02:46:56.292632,3.79,1.12,3.79,3.79,1023,71,2.91,31,12,0.0,Clouds,few clouds,2
Jánkmajtis,47.941944,22.657222,2026-03-19 02:46:57.474176,3.71,1.09,3.71,3.71,1023,71,2.83,34,16,0.0,Clouds,few clouds,2
Gacsály,47.926111,22.745,2026-03-19 02:46:58.651416,3.93,1.41,3.93,4.03,1023,71,2.76,37,16,0.0,Clouds,few clouds,2
Zajta,47.9025,22.796111,2026-03-19 02:46:59.831445,3.92,1.49,3.92,4.03,1023,72,2.65,43,21,0.0,Clouds,few clouds,2
Eperjeske alsó,48.360556,22.19,2026-03-19 02:47:00.999746,4.15,1.1,4.15,4.15,1023,75,3.54,11,2,0.0,Clear,clear sky,2
Mándok,48.326944,22.196389,2026-03-19 02:47:02.172352,4.15,1.16,4.15,4.15,1023,75,3.45,12,1,0.0,Clear,clear sky,2
Tornyospálca,48.268333,22.201944,2026-03-19 02:47:03.345735,4.21,1.29,4.21,4.21,1023,75,3.37,14,1,0.0,Clear,clear sky,2
Aranyosapáti,48.211303,22.253534,2026-03-19 02:47:04.519085,4.22,1.35,4.22,4.22,1023,74,3.3,16,1,0.0,Clear,clear sky,2
Gyüre,48.171389,22.269167,2026-03-19 02:47:05.689414,4.22,1.33,4.22,4.22,1023,73,3.33,17,2,0.0,Clear,clear sky,2
Varsány,48.151722,22.290047,2026-03-19 02:47:06.864368,4.19,1.31,4.19,4.19,1023,73,3.31,18,2,0.0,Clear,clear sky,2
Vásárosnamény,48.126667,22.306111,2026-03-19 02:47:08.035499,4.2,1.3,4.2,4.2,1023,72,3.34,19,2,0.0,Clear,clear sky,2
Vitka,48.095556,22.308056,2026-03-19 02:47:09.218652,4.19,1.27,4.19,4.19,1023,72,3.36,20,3,0.0,Clear,clear sky,2
Nagydobos,48.054167,22.311111,2026-03-19 02:47:10.390276,4.12,1.17,4.12,4.12,1023,72,3.38,21,4,0.0,Clear,clear sky,2
Ópályi,47.997778,22.318333,2026-03-19 02:47:11.562588,4.09,1.19,4.09,4.09,1023,71,3.31,23,5,0.0,Clear,clear sky,2
Nyírcsaholy,47.908056,22.348333,2026-03-19 02:47:12.737460,4.07,1.36,4.07,4.07,1023,71,3.04,29,9,0.0,Clear,clear sky,2
Nagyecsed,47.864722,22.385556,2026-03-19 02:47:13.917898,4.03,1.53,4.03,4.03,1023,71,2.76,35,16,0.0,Clouds,few clouds,2
Tiborszállás,47.815278,22.402778,2026-03-19 02:47:15.096623,4.0,1.57,4.0,4.0,1023,71,2.67,41,19,0.0,Clouds,few clouds,2
Kiskunhalas,46.434444,19.493611,2026-03-19 02:47:16.296977,5.03,2.17,5.03,5.03,1021,61,3.54,24,100,0.0,Clouds,overcast clouds,2
Kecskemét alsó,46.895833,19.692222,2026-03-19 02:47:17.473734,3.99,1.22,3.77,4.32,1021,60,3.09,20,0,0.0,Clear,clear sky,2
Putnok,48.286667,20.4375,2026-03-19 02:47:18.646616,4.82,2.27,4.82,5.0,1025,67,3.02,50,0,0.0,Clear,clear sky,2
Bánréve,48.299722,20.351944,2026-03-19 02:47:19.823544,4.8,2.6,4.8,4.99,1025,67,2.57,47,0,0.0,Clear,clear sky,2
Ipolytarnóc,48.236667,19.629167,2026-03-19 02:47:21.001567,4.74,1.4,4.74,4.74,1024,64,4.24,50,0,0.0,Clear,clear sky,2
Rákosliget,47.486111,19.257778,2026-03-19 02:47:22.172509,6.6,3.59,5.91,6.97,1022,55,4.45,42,0,0.0,Clear,clear sky,2
Ikrény,47.657778,17.524167,2026-03-19 02:47:23.351035,3.08,0.81,3.08,3.08,1024,66,2.31,32,52,0.0,Clouds,broken clouds,2
Rábapatona,47.648889,17.461944,2026-03-19 02:47:24.523031,3.1,0.86,3.1,3.1,1024,65,2.28,24,54,0.0,Clouds,broken clouds,2
Enese,47.644167,17.425278,2026-03-19 02:47:25.691239,3.1,0.81,3.1,3.1,1024,65,2.33,15,58,0.0,Clouds,broken clouds,2
Kóny,47.632222,17.357222,2026-03-19 02:47:26.866096,4.71,2.65,4.71,4.71,1024,65,2.39,11,58,0.0,Clouds,broken clouds,2
Farád,47.595278,17.195833,2026-03-19 02:47:28.052109,4.7,2.38,4.7,4.7,1024,65,2.7,360,71,0.0,Clouds,broken clouds,2
Rábatamási,47.592778,17.161389,2026-03-19 02:47:29.223576,4.7,2.38,4.7,4.7,1024,65,2.7,360,71,0.0,Clouds,broken clouds,2
Szárföld,47.589167,17.123889,2026-03-19 02:47:30.392086,4.7,2.35,4.7,4.7,1024,66,2.73,359,73,0.0,Clouds,broken clouds,2
Veszkény,47.586944,17.101389,2026-03-19 02:47:31.579842,4.7,2.34,4.7,4.7,1024,66,2.75,359,74,0.0,Clouds,broken clouds,2
Kapuvár,47.581944,17.046944,2026-03-19 02:47:32.754798,4.68,2.31,4.68,4.68,1024,66,2.75,357,73,0.0,Clouds,broken clouds,2
Vitnyéd-Csermajor,47.5825,16.987222,2026-03-19 02:47:33.936157,4.66,2.27,4.66,4.66,1024,67,2.77,355,72,0.0,Clouds,broken clouds,2
Petőháza,47.595278,16.893056,2026-03-19 02:47:35.110591,4.68,2.27,4.68,4.68,1024,67,2.81,353,68,0.0,Clouds,broken clouds,2
Fertőszentmiklós,47.6,16.858889,2026-03-19 02:47:36.286803,4.65,2.22,4.65,4.65,1024,68,2.82,351,66,0.0,Clouds,broken clouds,2
Pinnye,47.600278,16.768611,2026-03-19 02:47:37.458098,4.49,2.05,4.49,4.49,1024,69,2.8,343,62,0.0,Clouds,broken clouds,2
Fertőboz,47.625,16.691667,2026-03-19 02:47:38.635678,4.41,2.06,4.41,4.41,1024,70,2.67,338,68,0.0,Clouds,broken clouds,2
Sopron,47.677778,16.587222,2026-03-19 02:47:39.806292,4.09,2.04,4.09,4.09,1024,71,2.26,326,82,0.0,Clouds,broken clouds,2
Fertőszéplak-Fertőd,47.618889,16.850833,2026-03-19 02:47:40.978916,4.71,2.29,4.71,4.71,1024,68,2.82,350,66,0.0,Clouds,broken clouds,2
Nyúl,47.587778,17.698056,2026-03-19 02:47:42.158718,3.02,-0.65,3.02,5.14,1023,70,4.12,30,0,0.0,Clear,clear sky,2
Pannonhalma,47.547778,17.740833,2026-03-19 02:47:43.330079,2.96,-0.72,2.96,5.08,1023,70,4.12,30,0,0.0,Clear,clear sky,2
Tarjánpuszta,47.504722,17.789167,2026-03-19 02:47:44.516038,2.73,-1.0,2.73,4.84,1023,70,4.12,30,0,0.0,Clear,clear sky,2
Győrasszonyfa,47.4925,17.799167,2026-03-19 02:47:45.695465,2.66,-1.09,2.66,4.77,1023,70,4.12,30,0,0.0,Clear,clear sky,2
Veszprémvarsány,47.443333,17.818333,2026-03-19 02:47:46.874885,2.71,-0.22,2.71,4.83,1023,66,2.97,58,13,0.0,Clouds,few clouds,2
Bakonyszentlászló,47.395556,17.8175,2026-03-19 02:47:48.048782,4.58,1.78,2.47,4.58,1023,65,3.31,60,9,0.0,Clear,clear sky,2
Porva-Csesznek,47.326944,17.841111,2026-03-19 02:47:49.219116,3.59,0.34,3.59,3.59,1023,65,3.66,60,6,0.0,Clear,clear sky,2
Zirc,47.266667,17.878056,2026-03-19 02:47:50.391742,2.99,-0.5,2.99,2.99,1023,65,3.82,55,4,0.0,Clear,clear sky,2
Eplény,47.192778,17.921667,2026-03-19 02:47:51.570148,3.51,0.19,3.51,3.51,1023,64,3.75,44,2,0.0,Clear,clear sky,2
Marcaltő,47.4275,17.348889,2026-03-19 02:47:52.754963,5.17,2.65,5.17,5.17,1023,60,3.09,70,0,0.0,Clear,clear sky,2
Szany-Rábaszentandrás,47.460833,17.315278,2026-03-19 02:47:53.940567,5.17,2.65,5.17,5.17,1024,60,3.09,70,0,0.0,Clear,clear sky,2
Egyed-Rábacsanak,47.521944,17.316389,2026-03-19 02:47:55.118253,5.18,3.11,5.18,5.18,1024,65,2.51,9,51,0.0,Clouds,broken clouds,2
Rábapordány,47.557222,17.315,2026-03-19 02:47:56.295790,5.18,3.12,5.18,5.18,1024,65,2.49,8,54,0.0,Clouds,broken clouds,2
Albertfalva,47.440784,19.033965,2026-03-19 02:47:57.470975,6.89,3.94,5.28,7.22,1022,55,4.47,4,0,0.0,Clear,clear sky,2
Budafok,47.425833,19.041389,2026-03-19 02:47:58.640372,6.91,3.97,5.29,7.23,1022,55,4.47,4,0,0.0,Clear,clear sky,2
Tétényliget,47.384722,18.955278,2026-03-19 02:47:59.814029,6.89,4.41,5.31,7.25,1022,55,3.58,3,0,0.0,Clear,clear sky,2
Érd alsó,47.379722,18.923056,2026-03-19 02:48:00.976004,6.79,4.29,5.17,7.11,1022,55,3.58,28,0,0.0,Clear,clear sky,2
Tárnok,47.365556,18.873889,2026-03-19 02:48:02.152028,6.84,3.82,5.23,7.17,1022,55,4.59,46,0,0.0,Clear,clear sky,2
Martonvásár,47.321389,18.781667,2026-03-19 02:48:03.323297,6.82,3.93,6.05,7.1,1022,58,4.33,47,0,0.0,Clear,clear sky,2
Baracska,47.297222,18.753333,2026-03-19 02:48:04.494777,5.23,2.03,4.89,7.11,1022,58,4.2,47,0,0.0,Clear,clear sky,2
Pettend,47.26,18.708889,2026-03-19 02:48:05.665141,4.79,1.55,4.79,4.79,1022,59,4.09,46,0,0.0,Clear,clear sky,2
Kápolnásnyék,47.245556,18.692222,2026-03-19 02:48:06.836945,4.82,1.66,4.82,4.82,1022,59,3.96,46,0,0.0,Clear,clear sky,2
Velence,47.226944,18.663889,2026-03-19 02:48:08.013978,4.84,1.67,4.84,4.84,1022,59,3.98,45,0,0.0,Clear,clear sky,2
Velencefürdő,47.218611,18.648056,2026-03-19 02:48:09.183983,5.62,2.72,5.62,5.62,1022,59,3.83,45,0,0.0,Clear,clear sky,2
Gárdony,47.205833,18.624722,2026-03-19 02:48:10.355303,5.63,2.73,5.63,5.63,1022,59,3.83,44,0,0.0,Clear,clear sky,2
Agárd,47.197666,18.604907,2026-03-19 02:48:11.532559,5.63,2.73,5.63,5.63,1022,59,3.83,44,0,0.0,Clear,clear sky,2
Dinnyés,47.179722,18.560833,2026-03-19 02:48:12.714849,5.6,2.79,5.6,5.6,1022,60,3.66,40,0,0.0,Clear,clear sky,2
Székesfehérvár,47.183611,18.424722,2026-03-19 02:48:13.886667,5.46,2.7,5.46,5.46,1023,61,3.54,31,0,0.0,Clear,clear sky,2
Szabadbattyán,47.105278,18.388333,2026-03-19 02:48:15.057375,5.38,2.8,5.38,5.38,1023,62,3.23,26,0,0.0,Clear,clear sky,2
Kiscséripuszta,47.048056,18.355,2026-03-19 02:48:16.229297,6.35,4.03,6.35,6.35,1023,63,3.15,24,0,0.0,Clear,clear sky,2
Lepsény,46.9875,18.248056,2026-03-19 02:48:17.405561,6.57,4.22,6.57,7.12,1023,50,3.26,25,0,0.0,Clear,clear sky,2
Balatonaliga,46.984444,18.171389,2026-03-19 02:48:18.581459,6.38,3.78,6.38,6.93,1023,50,3.6,24,1,0.0,Clear,clear sky,2
Balatonvilágos,46.964167,18.157222,2026-03-19 02:48:19.751427,6.42,3.78,6.42,6.97,1023,50,3.68,26,1,0.0,Clear,clear sky,2
Szabadifürdő,46.926111,18.103333,2026-03-19 02:48:20.925635,6.59,3.98,6.59,7.14,1023,50,3.69,32,2,0.0,Clear,clear sky,2
Ózd alsó,48.227778,20.306111,2026-03-19 02:48:22.101664,4.09,1.88,4.09,5.4,1025,68,2.44,49,1,0.0,Clear,clear sky,2
Ózd,48.2225,20.294722,2026-03-19 02:48:23.272762,4.15,1.95,4.14,5.45,1025,68,2.44,49,1,0.0,Clear,clear sky,2
Alsóboldva,48.212778,20.792222,2026-03-19 02:48:24.444099,5.68,1.96,5.21,5.68,1024,66,5.5,28,1,0.0,Clear,clear sky,2
Boldva,48.223333,20.790278,2026-03-19 02:48:25.618854,5.2,1.36,5.2,5.68,1024,66,5.5,28,1,0.0,Clear,clear sky,2
Borsodszirák,48.259167,20.770556,2026-03-19 02:48:26.793775,5.16,1.33,5.16,5.16,1024,66,5.46,33,1,0.0,Clear,clear sky,2
Edelény alsó,48.279167,20.760833,2026-03-19 02:48:27.965897,5.32,1.53,5.32,5.32,1024,66,5.46,33,1,0.0,Clear,clear sky,2
Edelény,48.299722,20.749444,2026-03-19 02:48:29.139766,5.24,1.43,5.24,5.24,1024,65,5.46,33,1,0.0,Clear,clear sky,2
Szendrőlád,48.334444,20.731944,2026-03-19 02:48:30.316669,4.11,0.16,4.11,4.11,1024,65,5.13,35,1,0.0,Clear,clear sky,2
Szendrő,48.400725,20.721346,2026-03-19 02:48:31.487246,4.96,1.35,4.96,4.96,1024,65,4.87,32,1,0.0,Clear,clear sky,2
Szendrő felső,48.409907,20.720148,2026-03-19 02:48:32.660079,4.96,1.35,4.96,4.96,1024,65,4.87,32,1,0.0,Clear,clear sky,2
Szalonna,48.449444,20.722222,2026-03-19 02:48:33.831161,4.94,1.49,4.94,4.94,1024,66,4.55,28,2,0.0,Clear,clear sky,2
Perkupa,48.471389,20.691111,2026-03-19 02:48:35.003979,4.18,1.07,4.18,4.18,1024,68,3.65,26,1,0.0,Clear,clear sky,2
Szemeretelep,47.443056,19.214167,2026-03-19 02:48:36.183267,6.1,4.15,5.09,7.03,1022,56,2.57,350,0,0.0,Clear,clear sky,2
Jósvafő-Aggtelek,48.489722,20.693889,2026-03-19 02:48:37.359794,4.46,1.49,4.46,4.46,1025,68,3.52,23,2,0.0,Clear,clear sky,2
Bódvaszilas,48.5375,20.738056,2026-03-19 02:48:38.533817,4.05,0.64,4.05,4.05,1024,67,4.09,22,3,0.0,Clear,clear sky,2
Komjáti,48.5475,20.759722,2026-03-19 02:48:39.707786,3.57,-0.03,3.57,3.57,1024,68,4.22,21,3,0.0,Clear,clear sky,2
Tornanádaska,48.558333,20.787222,2026-03-19 02:48:40.879791,4.75,1.27,4.75,4.75,1024,67,4.51,22,3,0.0,Clear,clear sky,2
Onga,48.121111,20.906667,2026-03-19 02:48:42.054896,5.74,2.08,5.74,5.74,1024,67,5.4,19,1,0.0,Clear,clear sky,2
Szikszó-Vásártér,48.193056,20.934722,2026-03-19 02:48:43.236847,5.7,1.99,5.7,5.7,1024,67,5.5,23,1,0.0,Clear,clear sky,2
Szikszó,48.201667,20.941667,2026-03-19 02:48:44.415183,5.37,1.6,5.37,5.37,1024,67,5.43,23,1,0.0,Clear,clear sky,2
Aszaló,48.219867,20.961466,2026-03-19 02:48:45.589133,5.19,1.35,5.19,5.19,1024,67,5.5,24,2,0.0,Clear,clear sky,2
Halmaj,48.246667,20.991667,2026-03-19 02:48:46.766811,5.26,1.43,5.26,5.26,1024,67,5.51,25,2,0.0,Clear,clear sky,2
Csobád,48.277222,21.033889,2026-03-19 02:48:47.938734,5.21,1.37,5.21,5.21,1024,68,5.5,26,2,0.0,Clear,clear sky,2
Ináncs,48.291111,21.057778,2026-03-19 02:48:49.111280,5.1,1.33,5.1,5.1,1024,68,5.28,26,2,0.0,Clear,clear sky,2
Forró-Encs,48.3275,21.117778,2026-03-19 02:48:50.299384,4.99,1.25,4.99,4.99,1024,69,5.16,26,2,0.0,Clear,clear sky,2
Méra,48.363056,21.140278,2026-03-19 02:48:51.469928,4.72,1.0,4.72,4.72,1024,69,4.98,27,2,0.0,Clear,clear sky,2
Novajidrány,48.404444,21.170556,2026-03-19 02:48:52.645680,6.11,2.86,6.11,7.5,1024,70,4.71,27,2,0.0,Clear,clear sky,2
Hernádszurdok,48.487222,21.213889,2026-03-19 02:48:53.820356,6.45,2.67,6.03,7.42,1024,54,6.17,10,0,0.0,Clear,clear sky,2
Hidasnémeti,48.508333,21.229722,2026-03-19 02:48:54.992934,6.47,2.7,6.04,7.43,1024,54,6.17,10,0,0.0,Clear,clear sky,2
Mád,48.19,21.268889,2026-03-19 02:48:56.166621,6.74,3.73,6.74,6.74,1023,49,4.53,26,1,0.0,Clear,clear sky,2
Rátka,48.215,21.230278,2026-03-19 02:48:57.339827,6.9,3.92,6.9,6.9,1023,49,4.54,25,1,0.0,Clear,clear sky,2
Tállya,48.226944,21.225278,2026-03-19 02:48:58.511845,6.85,3.86,6.85,6.85,1023,49,4.54,25,1,0.0,Clear,clear sky,2
Golop,48.242778,21.204167,2026-03-19 02:48:59.684255,6.97,3.93,6.97,6.97,1024,49,4.7,25,2,0.0,Clear,clear sky,2
Abaújszántó,48.286944,21.181667,2026-03-19 02:49:00.856506,6.88,3.81,6.88,6.88,1024,70,4.73,26,2,0.0,Clear,clear sky,2
Abaújszántói fürdő,48.268333,21.179722,2026-03-19 02:49:02.028444,6.94,3.88,6.94,6.94,1024,70,4.73,25,2,0.0,Clear,clear sky,2
Abaújkér,48.309444,21.198333,2026-03-19 02:49:03.198451,6.84,3.75,6.84,6.84,1024,70,4.74,26,2,0.0,Clear,clear sky,2
Boldogkőváralja,48.345,21.208889,2026-03-19 02:49:04.369843,6.64,3.7,6.64,6.64,1024,71,4.33,26,2,0.0,Clear,clear sky,2
Korlát-Vizsoly,48.365,21.219167,2026-03-19 02:49:05.541474,6.55,3.63,6.55,6.55,1024,71,4.26,26,2,0.0,Clear,clear sky,2
Fony,48.411389,21.242778,2026-03-19 02:49:06.715262,5.91,2.91,5.91,7.3,1024,71,4.13,27,2,0.0,Clear,clear sky,2
Hejce-Vilmány,48.419444,21.245556,2026-03-19 02:49:07.887047,5.88,2.87,5.88,7.27,1024,71,4.13,27,2,0.0,Clear,clear sky,2
Göncruszka,48.445,21.246944,2026-03-19 02:49:09.064265,6.4,3.54,5.97,7.36,1024,71,4.07,26,2,0.0,Clear,clear sky,2
Gönc,48.470556,21.261389,2026-03-19 02:49:10.236666,6.32,3.59,5.87,7.26,1024,72,3.8,25,2,0.0,Clear,clear sky,2
Zsujta,48.4925,21.265,2026-03-19 02:49:11.409890,6.34,2.53,5.89,7.28,1024,54,6.17,10,0,0.0,Clear,clear sky,2
Bodrogkeresztúr,48.175556,21.354167,2026-03-19 02:49:12.579509,7.01,4.05,7.01,7.01,1023,49,4.55,27,0,0.0,Clear,clear sky,2
Szegi,48.201944,21.387778,2026-03-19 02:49:13.756491,7.05,4.06,2.43,7.05,1023,49,4.65,24,1,0.0,Clear,clear sky,2
Erdőbénye,48.218056,21.401944,2026-03-19 02:49:14.929521,7.02,3.98,2.4,7.02,1023,49,4.73,22,1,0.0,Clear,clear sky,2
Olaszliszka-Tolcsva,48.258333,21.448056,2026-03-19 02:49:16.107535,7.05,4.03,2.43,7.05,1023,49,4.71,19,1,0.0,Clear,clear sky,2
Bodrogolaszi,48.286944,21.512778,2026-03-19 02:49:17.287906,2.37,-1.77,2.37,6.99,1023,100,4.67,17,1,0.0,Clear,clear sky,2
Sárospatak,48.325833,21.566111,2026-03-19 02:49:18.460066,2.32,-1.85,2.32,6.94,1023,100,4.7,13,1,0.0,Clear,clear sky,2
Sátoraljaújhely,48.385833,21.657778,2026-03-19 02:49:19.636466,2.4,-1.46,2.4,2.4,1023,100,4.2,5,1,0.0,Clear,clear sky,2
Vecsés,47.40855,19.25652,2026-03-19 02:49:20.810848,6.73,3.81,6.02,7.07,1022,55,4.33,42,0,0.0,Clear,clear sky,2
Vecsés-Kertekalja,47.403333,19.271389,2026-03-19 02:49:21.983974,6.76,3.85,6.06,7.11,1022,55,4.33,42,0,0.0,Clear,clear sky,2
Üllő,47.390833,19.348889,2026-03-19 02:49:23.154861,6.69,3.68,6.01,7.06,1022,56,4.51,42,0,0.0,Clear,clear sky,2
Monor,47.34545,19.43701,2026-03-19 02:49:24.331747,5.07,2.92,5.07,6.6,1022,56,2.57,350,0,0.0,Clear,clear sky,2
Pilis,47.279722,19.536389,2026-03-19 02:49:25.502797,5.86,1.86,5.03,6.56,1022,59,6.34,45,0,0.0,Clear,clear sky,2
Albertirsa,47.240278,19.606389,2026-03-19 02:49:26.673039,5.95,1.76,5.95,5.95,1022,53,6.92,45,0,0.0,Clear,clear sky,2
Ceglédbercel-Cserő,47.210278,19.686944,2026-03-19 02:49:27.843832,6.02,1.83,6.02,6.02,1022,53,6.98,44,0,0.0,Clear,clear sky,2
Cegléd,47.182778,19.806111,2026-03-19 02:49:29.021739,6.14,2.06,4.07,6.57,1022,53,6.77,42,0,0.0,Clear,clear sky,2
Abony,47.173056,20.016389,2026-03-19 02:49:30.201079,6.55,2.61,5.97,6.63,1022,55,6.69,40,0,0.0,Clear,clear sky,2
Szolnok,47.179167,20.175833,2026-03-19 02:49:31.376101,6.29,2.28,5.99,6.65,1022,54,6.69,40,0,0.0,Clear,clear sky,2
Szajol,47.170556,20.295278,2026-03-19 02:49:32.547067,6.01,1.92,6.01,6.66,1021,52,6.69,40,0,0.0,Clear,clear sky,2
Törökszentmiklós,47.170278,20.413611,2026-03-19 02:49:33.730433,6.0,1.91,6.0,6.66,1021,52,6.69,40,0,0.0,Clear,clear sky,2
Rákoscsaba-Újtelep,47.4875,19.271944,2026-03-19 02:49:34.909974,6.59,3.58,5.91,6.97,1022,55,4.45,42,0,0.0,Clear,clear sky,2
Rákoscsaba,47.492222,19.284722,2026-03-19 02:49:36.080239,6.57,3.59,5.91,6.96,1022,55,4.39,41,0,0.0,Clear,clear sky,2
Pécel,47.493889,19.338889,2026-03-19 02:49:37.257637,6.44,3.45,5.78,6.84,1022,56,4.34,40,0,0.0,Clear,clear sky,2
Isaszeg,47.537719,19.388955,2026-03-19 02:49:38.431031,5.88,3.89,4.81,6.75,1023,56,2.57,350,0,0.0,Clear,clear sky,2
Gödöllő,47.592222,19.358611,2026-03-19 02:49:39.602272,5.72,3.7,4.58,6.53,1023,56,2.57,350,0,0.0,Clear,clear sky,2
Máriabesnyő,47.595556,19.389722,2026-03-19 02:49:40.780557,5.88,2.63,4.73,6.67,1023,56,4.6,38,0,0.0,Clear,clear sky,2
Bag,47.641111,19.471667,2026-03-19 02:49:41.959435,6.62,3.49,5.08,6.62,1023,60,4.72,37,0,0.0,Clear,clear sky,2
Aszód,47.647467,19.492882,2026-03-19 02:49:43.132966,6.69,3.6,5.16,6.69,1023,61,4.68,36,0,0.0,Clear,clear sky,2
Hévízgyörk,47.638611,19.526667,2026-03-19 02:49:44.307192,6.7,3.63,6.7,6.7,1023,61,4.63,36,0,0.0,Clear,clear sky,2
Galgahévíz,47.6325,19.558333,2026-03-19 02:49:45.491563,6.69,3.71,6.69,6.69,1023,62,4.44,36,0,0.0,Clear,clear sky,2
Tura,47.626389,19.5975,2026-03-19 02:49:46.669501,6.72,3.74,6.72,6.72,1023,62,4.46,36,0,0.0,Clear,clear sky,2
Hatvan,47.663611,19.671389,2026-03-19 02:49:47.839604,5.45,1.99,5.45,5.45,1023,61,4.81,38,0,0.0,Clear,clear sky,2
Vámosgyörk,47.686111,19.927778,2026-03-19 02:49:49.018171,5.34,1.88,5.34,5.34,1023,62,4.75,37,0,0.0,Clear,clear sky,2
Adács,47.696389,19.975278,2026-03-19 02:49:50.187817,5.33,1.94,5.33,5.33,1023,63,4.6,35,0,0.0,Clear,clear sky,2
Karácsond,47.718056,20.048611,2026-03-19 02:49:51.363377,5.19,1.85,5.19,5.19,1023,63,4.44,34,0,0.0,Clear,clear sky,2
Ludas,47.723889,20.095556,2026-03-19 02:49:52.543130,5.36,1.73,5.36,5.36,1023,62,5.13,35,0,0.0,Clear,clear sky,2
Nagyút,47.72666666666667,20.161388888888887,2026-03-19 02:49:53.718224,5.32,1.54,5.32,5.32,1023,62,5.43,35,0,0.0,Clear,clear sky,2
Kál-Kápolna,47.734167,20.254167,2026-03-19 02:49:54.893527,5.32,1.05,5.32,5.32,1023,61,6.65,37,0,0.0,Clear,clear sky,2
Füzesabony,47.751389,20.415278,2026-03-19 02:49:56.068800,5.34,0.85,5.34,5.34,1023,62,7.29,38,0,0.0,Clear,clear sky,2
Szihalom,47.766944,20.491944,2026-03-19 02:49:57.245542,5.73,1.41,5.73,5.73,1023,63,7.11,38,0,0.0,Clear,clear sky,2
Mezőkövesd,47.797222,20.5675,2026-03-19 02:49:58.414659,5.74,1.54,5.74,5.74,1023,64,6.79,35,0,0.0,Clear,clear sky,2
Mezőkövesd felső,47.807222,20.591389,2026-03-19 02:49:59.598262,5.72,1.51,5.25,5.72,1023,64,6.79,35,0,0.0,Clear,clear sky,2
Mezőkeresztes-Mezőnyárád,47.845556,20.670278,2026-03-19 02:50:00.776301,5.72,1.74,5.25,5.72,1023,60,6.19,27,1,0.0,Clear,clear sky,2
Csincse,47.890833,20.764167,2026-03-19 02:50:01.947210,5.74,4.45,5.27,5.74,1023,60,1.79,333,1,0.0,Clear,clear sky,2
Emőd,47.930556,20.822778,2026-03-19 02:50:03.133986,5.76,4.47,5.29,5.76,1023,60,1.79,333,1,0.0,Clear,clear sky,2
Nyékládháza,47.9925,20.840556,2026-03-19 02:50:04.303244,5.79,4.51,5.32,5.79,1023,60,1.79,333,0,0.0,Clear,clear sky,2
Miskolc-Tiszai,48.098611,20.811389,2026-03-19 02:50:05.475522,5.71,2.0,5.24,5.71,1023,60,5.5,16,0,0.0,Clear,clear sky,2
Felsőzsolca,48.083611,20.866111,2026-03-19 02:50:06.652738,5.74,2.03,5.26,5.74,1023,60,5.52,16,0,0.0,Clear,clear sky,2
Hernádnémeti-Bőcs,48.051389,20.985,2026-03-19 02:50:07.829570,5.74,2.18,5.74,5.74,1023,66,5.17,20,0,0.0,Clear,clear sky,2
Tiszalúc,48.039722,21.0575,2026-03-19 02:50:09.003177,5.78,2.36,5.78,7.04,1023,66,4.89,26,0,0.0,Clear,clear sky,2
Taktaharkány,48.091667,21.128611,2026-03-19 02:50:10.177878,7.09,4.03,7.09,7.09,1023,49,4.81,26,0,0.0,Clear,clear sky,2
Taktaszada,48.1125,21.149444,2026-03-19 02:50:11.357937,7.1,4.08,7.1,7.1,1023,49,4.74,26,1,0.0,Clear,clear sky,2
Szerencs,48.155556,21.214444,2026-03-19 02:50:12.531198,7.09,4.14,7.09,7.09,1023,49,4.57,27,1,0.0,Clear,clear sky,2
Mezőzombor,48.156944,21.267778,2026-03-19 02:50:13.701791,7.09,4.16,7.09,7.09,1023,49,4.54,27,1,0.0,Clear,clear sky,2
Tarcal,48.125,21.34,2026-03-19 02:50:14.876752,7.11,4.19,7.11,7.11,1023,49,4.53,30,0,0.0,Clear,clear sky,2
Tokaj,48.112778,21.406667,2026-03-19 02:50:16.048119,7.07,4.11,7.07,7.07,1023,49,4.58,29,0,0.0,Clear,clear sky,2
Rakamaz,48.12,21.475,2026-03-19 02:50:17.216765,7.07,4.09,7.07,7.07,1023,49,4.63,29,0,0.0,Clear,clear sky,2
Görögszállás,48.04,21.555,2026-03-19 02:50:18.387273,7.03,4.08,7.03,7.03,1023,49,4.54,33,0,0.0,Clear,clear sky,2
Nyírtelek,48.005,21.615556,2026-03-19 02:50:19.560890,7.07,4.1,7.07,7.07,1023,72,4.61,31,0,0.0,Clear,clear sky,2
Rákoshegy,47.468611,19.245556,2026-03-19 02:50:20.735810,6.55,3.57,5.86,6.91,1022,55,4.38,42,0,0.0,Clear,clear sky,2
Ecser,47.439444,19.318056,2026-03-19 02:50:21.916476,6.58,3.62,5.91,6.96,1022,56,4.35,41,0,0.0,Clear,clear sky,2
Maglód,47.438889,19.340833,2026-03-19 02:50:23.088418,6.52,3.54,5.85,6.9,1022,56,4.36,41,0,0.0,Clear,clear sky,2
Maglódi nyaraló,47.434167,19.363611,2026-03-19 02:50:24.292083,6.42,3.4,5.75,6.8,1022,56,4.39,40,0,0.0,Clear,clear sky,2
Gyömrő,47.429722,19.393333,2026-03-19 02:50:25.463504,6.36,3.33,6.25,6.77,1022,56,4.39,40,0,0.0,Clear,clear sky,2
Mende,47.426944,19.439722,2026-03-19 02:50:26.634670,5.68,3.65,4.79,6.73,1022,56,2.57,350,0,0.0,Clear,clear sky,2
Szőlősnyaraló,47.450278,19.561111,2026-03-19 02:50:27.805616,6.32,3.14,5.02,6.55,1022,56,4.67,39,0,0.0,Clear,clear sky,2
Sülysáp,47.451944,19.5275,2026-03-19 02:50:29.056072,6.07,2.87,5.0,6.53,1022,56,4.58,39,0,0.0,Clear,clear sky,2
Tápiószecső,47.443056,19.614722,2026-03-19 02:50:30.228558,6.21,2.97,5.1,6.64,1022,62,4.75,39,0,0.0,Clear,clear sky,2
Szentmártonkáta,47.431944,19.680556,2026-03-19 02:50:31.399476,5.96,2.55,5.96,6.66,1022,53,4.97,40,0,0.0,Clear,clear sky,2
Nagykáta,47.409722,19.737778,2026-03-19 02:50:32.572474,6.03,2.46,6.03,6.03,1022,53,5.38,41,0,0.0,Clear,clear sky,2
Farmos,47.355278,19.8375,2026-03-19 02:50:33.756500,6.14,6.14,6.14,6.14,1022,53,0.89,39,1,0.0,Clear,clear sky,2
Tápiószele,47.346313,19.873504,2026-03-19 02:50:34.940653,6.12,6.12,6.12,6.12,1022,53,0.89,39,2,0.0,Clear,clear sky,2
Tápiógyörgye,47.325,19.95,2026-03-19 02:50:36.122111,6.18,6.18,6.18,6.62,1022,53,0.89,39,2,0.0,Clear,clear sky,2
Újszász,47.285833,20.066944,2026-03-19 02:50:37.293453,6.23,2.04,6.01,6.66,1022,53,7.15,42,1,0.0,Clear,clear sky,2
Szurdokpüspöki,47.851944,19.690278,2026-03-19 02:50:38.470284,5.17,1.73,5.17,5.17,1023,62,4.63,43,0,0.0,Clear,clear sky,2
Lőrinci,47.739444,19.673611,2026-03-19 02:50:39.647031,5.35,1.79,5.35,5.35,1023,61,4.97,40,0,0.0,Clear,clear sky,2
Selyp,47.759167,19.670833,2026-03-19 02:50:40.821901,5.32,1.74,5.32,5.32,1023,61,5.0,40,0,0.0,Clear,clear sky,2
Apc-Zagyvaszántó,47.791328,19.66822,2026-03-19 02:50:41.998364,5.31,1.73,5.31,5.31,1023,61,4.98,41,0,0.0,Clear,clear sky,2
Pásztó,47.918889,19.688889,2026-03-19 02:50:43.170197,4.98,1.67,4.98,4.98,1023,63,4.29,44,0,0.0,Clear,clear sky,2
Mátraszőlős-Hasznos,47.938506,19.706122,2026-03-19 02:50:44.341266,4.95,1.8,4.95,4.95,1023,64,4.0,45,0,0.0,Clear,clear sky,2
Tar,47.956111,19.746389,2026-03-19 02:50:45.512697,4.5,1.41,4.5,4.5,1024,65,3.73,45,0,0.0,Clear,clear sky,2
Mátraverebély,47.968333,19.778611,2026-03-19 02:50:46.687773,5.11,2.15,5.11,5.11,1024,65,3.73,45,0,0.0,Clear,clear sky,2
Nagybátony,47.981111,19.82,2026-03-19 02:50:47.857025,5.32,2.41,5.32,5.32,1024,65,3.73,46,0,0.0,Clear,clear sky,2
Kisterenye,48.009444,19.831944,2026-03-19 02:50:49.025743,5.31,2.33,5.31,5.31,1024,65,3.85,46,0,0.0,Clear,clear sky,2
Kisterenye-Bányatelep,48.021389,19.831944,2026-03-19 02:50:50.200131,5.31,2.33,5.31,5.31,1024,65,3.85,46,0,0.0,Clear,clear sky,2
Salgótarján külső,48.089444,19.790833,2026-03-19 02:50:51.380512,5.04,1.84,5.04,5.04,1024,65,4.12,50,0,0.0,Clear,clear sky,2
Balatonfenyves GV,46.7125,17.479167,2026-03-19 02:50:52.551798,8.08,5.5,8.08,8.08,1022,65,4.3,56,5,0.0,Clear,clear sky,2
Várhegyalja,47.737778,18.366667,2026-03-19 02:50:53.723149,5.02,1.82,5.02,5.02,1023,60,4.12,70,5,0.0,Clear,clear sky,2
Imremajor,46.680556,17.499722,2026-03-19 02:50:54.911836,8.11,5.53,8.11,8.11,1022,65,4.31,58,6,0.0,Clear,clear sky,2
Rákospalota-Kertváros,47.578333,19.122778,2026-03-19 02:50:56.084989,6.69,4.85,5.22,7.16,1023,56,2.57,350,0,0.0,Clear,clear sky,2
Vicziántelep,47.675833,19.286111,2026-03-19 02:50:57.263422,6.08,2.61,4.69,6.63,1023,59,5.17,40,0,0.0,Clear,clear sky,2
Pálmajor,46.662831,17.457526,2026-03-19 02:50:58.437114,8.1,5.66,8.1,8.1,1022,65,4.01,58,8,0.0,Clear,clear sky,2
Somogyszentpál felső,46.649758,17.471404,2026-03-19 02:50:59.607020,8.07,5.49,8.07,8.07,1022,65,4.28,60,7,0.0,Clear,clear sky,2
Somogyszentpál,46.638611,17.478611,2026-03-19 02:51:00.783441,8.06,5.51,8.06,8.06,1022,65,4.23,61,9,0.0,Clear,clear sky,2
Rudnaykert,47.7175,19.257778,2026-03-19 02:51:01.959614,6.47,2.99,6.46,6.97,1023,59,5.42,41,0,0.0,Clear,clear sky,2
Maroshegy,47.158333,18.406667,2026-03-19 02:51:03.130865,5.36,2.65,5.36,5.36,1023,61,3.42,30,0,0.0,Clear,clear sky,2
Bánhida,47.573703,18.371737,2026-03-19 02:51:04.304784,4.87,1.51,4.87,4.87,1023,61,4.33,56,3,0.0,Clear,clear sky,2
Magyarkút,47.850278,19.045,2026-03-19 02:51:05.477790,4.59,0.95,4.59,4.59,1023,61,4.75,54,0,0.0,Clear,clear sky,2
Becske alsó,47.897222,19.364722,2026-03-19 02:51:06.654161,4.24,0.05,4.24,4.24,1023,61,5.73,48,0,0.0,Clear,clear sky,2
Hosszúberek-Péteri,47.370556,19.389722,2026-03-19 02:51:07.839739,6.64,3.49,6.64,7.04,1022,56,4.77,42,0,0.0,Clear,clear sky,2
Monorierdő,47.308889,19.499167,2026-03-19 02:51:09.011430,5.81,1.94,5.01,6.54,1022,60,5.96,44,0,0.0,Clear,clear sky,2
Ceglédbercel,47.215833,19.658611,2026-03-19 02:51:10.185406,6.01,1.81,6.01,6.01,1022,53,6.99,45,0,0.0,Clear,clear sky,2
Budai út,47.208333,19.731389,2026-03-19 02:51:11.355612,6.05,1.88,6.05,6.05,1022,53,6.94,44,0,0.0,Clear,clear sky,2
Büdöskútpuszta,48.373056,20.726111,2026-03-19 02:51:12.532826,5.13,1.49,5.13,5.13,1024,65,5.01,34,1,0.0,Clear,clear sky,2
Bánrévei Vízmű,48.282778,20.368333,2026-03-19 02:51:13.711759,4.3,1.93,4.28,5.59,1025,67,2.66,49,0,0.0,Clear,clear sky,2
Rákoskert,47.456389,19.296111,2026-03-19 02:51:14.882609,6.45,3.45,5.78,6.83,1022,55,4.36,41,0,0.0,Clear,clear sky,2
Szirmabesenyő,48.146944,20.783056,2026-03-19 02:51:16.054506,5.64,1.97,5.17,5.64,1024,67,5.37,22,0,0.0,Clear,clear sky,2
Kitérőgyár,47.766944,19.935278,2026-03-19 02:51:17.224927,5.02,1.94,5.02,5.02,1023,64,3.91,34,0,0.0,Clear,clear sky,2
Tápiószentmárton,47.373333,19.797778,2026-03-19 02:51:18.396499,6.08,6.08,6.08,6.08,1022,53,0.89,39,1,0.0,Clear,clear sky,2
Zagyvarékas,47.244229,20.097435,2026-03-19 02:51:19.577781,6.39,2.41,6.01,6.67,1022,54,6.69,40,0,0.0,Clear,clear sky,2
Abonyi út,47.206401,20.125204,2026-03-19 02:51:20.750062,6.35,2.35,6.01,6.67,1022,54,6.69,40,0,0.0,Clear,clear sky,2
Jászkisér felső,47.438056,20.202222,2026-03-19 02:51:21.919579,5.56,0.95,5.56,5.56,1022,59,7.85,42,0,0.0,Clear,clear sky,2
Szellőhát,47.425556,20.188889,2026-03-19 02:51:23.088285,6.22,1.81,6.22,6.22,1022,59,7.82,43,1,0.0,Clear,clear sky,2
Szilvásvárad-Szalajkavölgy,48.0956,20.38272,2026-03-19 02:51:24.260191,3.58,0.51,2.85,4.16,1024,80,3.39,44,0,0.0,Clear,clear sky,2
Vásárosnamény külső,48.084444,22.255556,2026-03-19 02:51:25.436512,4.04,1.06,4.04,4.04,1023,72,3.41,20,3,0.0,Clear,clear sky,2
Újváros,46.660556,20.536111,2026-03-19 02:51:26.621077,6.66,4.41,6.66,6.66,1021,44,3.13,22,64,0.0,Clouds,broken clouds,2
Városi park,46.697778,19.864722,2026-03-19 02:51:27.792700,3.88,0.24,3.88,4.1,1021,52,4.43,27,62,0.0,Clouds,broken clouds,2
Belsőkamaráspuszta,46.341944,20.848889,2026-03-19 02:51:28.973370,7.81,7.81,7.81,7.81,1021,69,0.79,4,100,0.0,Clouds,overcast clouds,2
Sajószöged,47.945278,20.981667,2026-03-19 02:51:30.144011,5.83,2.3,5.83,5.83,1023,60,5.17,23,0,0.0,Clear,clear sky,2
Kazincbarcika alsó,48.255278,20.649167,2026-03-19 02:51:31.316480,5.13,1.6,4.39,5.13,1024,66,4.8,40,0,0.0,Clear,clear sky,2
Nyárjas,46.857778,19.923611,2026-03-19 02:51:32.493748,4.05,1.3,3.84,4.05,1021,60,3.09,20,0,0.0,Clear,clear sky,2
Pogonyipuszta,48.296389,20.381667,2026-03-19 02:51:33.669005,4.25,1.87,4.25,4.98,1025,67,2.66,49,0,0.0,Clear,clear sky,2
Sióvölgy,46.911103,18.076964,2026-03-19 02:51:34.850418,6.64,3.94,6.64,7.19,1023,51,3.88,33,2,0.0,Clear,clear sky,2
Répáspuszta,46.430278,17.847222,2026-03-19 02:51:36.024391,4.87,1.4,4.87,4.87,1022,66,4.55,57,23,0.0,Clouds,few clouds,2
Virányos,48.066667,21.527222,2026-03-19 02:51:37.217012,7.06,4.11,7.06,7.06,1023,49,4.57,31,0,0.0,Clear,clear sky,2
Füzesbokor,47.988611,21.6475,2026-03-19 02:51:38.390667,7.06,4.08,7.06,7.06,1023,72,4.63,31,1,0.0,Clear,clear sky,2
Kunfehértó,46.355833,19.417222,2026-03-19 02:51:39.576338,4.92,2.06,4.92,4.92,1021,63,3.51,27,100,0.0,Clouds,overcast clouds,2
Erdőszél,46.329444,19.395,2026-03-19 02:51:40.747476,4.81,1.91,4.81,4.81,1021,63,3.54,29,96,0.0,Clouds,overcast clouds,2
Jánoshalma,46.293056,19.330278,2026-03-19 02:51:41.928999,4.94,2.04,4.94,4.94,1021,63,3.58,30,97,0.0,Clouds,overcast clouds,2
Mélykút,46.213056,19.370556,2026-03-19 02:51:43.106689,4.91,2.01,4.91,4.91,1021,63,3.57,32,99,0.0,Clouds,overcast clouds,2
Bácsalmás,46.118056,19.346389,2026-03-19 02:51:44.289233,4.93,2.06,4.93,4.93,1021,64,3.53,33,100,0.0,Clouds,overcast clouds,2
Almás,46.116216,19.328803,2026-03-19 02:51:45.460495,4.93,2.06,4.93,4.93,1021,64,3.53,33,100,0.0,Clouds,overcast clouds,2
Bácsbokod-Bácsborsód,46.115833,19.16,2026-03-19 02:51:46.630896,5.02,2.16,5.02,5.02,1021,64,3.55,31,100,0.0,Clouds,overcast clouds,2
Baja,46.187014,18.957602,2026-03-19 02:51:47.799837,5.32,2.49,5.32,5.32,1021,64,3.6,25,100,0.0,Clouds,overcast clouds,2
Harkakötöny,46.458333,19.601944,2026-03-19 02:51:48.975875,5.95,3.3,5.95,5.95,1021,61,3.53,22,100,0.0,Clouds,overcast clouds,2
Tajó,46.473056,19.650556,2026-03-19 02:51:50.152529,5.99,3.36,5.99,5.99,1021,60,3.51,21,100,0.0,Clouds,overcast clouds,2
Kiskunmajsa,46.501667,19.728056,2026-03-19 02:51:51.325860,6.01,3.37,3.83,6.03,1021,60,3.53,20,98,0.0,Clouds,overcast clouds,2
Jászszentlászló,46.565833,19.753611,2026-03-19 02:51:52.502124,3.85,0.59,3.85,3.85,1021,52,3.76,22,82,0.0,Clouds,broken clouds,2
Galambos,46.625,19.801111,2026-03-19 02:51:53.676644,3.88,0.48,3.88,6.02,1021,52,4.0,24,72,0.0,Clouds,broken clouds,2
Pestszentimre,47.402222,19.188611,2026-03-19 02:51:54.853732,6.25,4.33,5.18,7.12,1022,56,2.57,350,0,0.0,Clear,clear sky,2
Gyál felső,47.390278,19.204722,2026-03-19 02:51:56.034486,5.93,3.95,5.19,7.13,1022,55,2.57,350,0,0.0,Clear,clear sky,2
Gyál,47.376667,19.219444,2026-03-19 02:51:57.202645,6.89,4.07,6.1,7.16,1022,55,4.22,43,0,0.0,Clear,clear sky,2
Ócsa,47.301389,19.232222,2026-03-19 02:51:58.373247,6.92,4.11,6.11,7.17,1022,56,4.2,43,0,0.0,Clear,clear sky,2
Inárcs-Kakucs,47.247222,19.317778,2026-03-19 02:51:59.547190,5.23,1.68,5.23,6.76,1022,61,4.89,44,0,0.0,Clear,clear sky,2
Dabas,47.194722,19.328889,2026-03-19 02:52:00.722443,5.24,1.45,5.24,5.24,1022,60,5.4,45,0,0.0,Clear,clear sky,2
Gyón,47.178333,19.355556,2026-03-19 02:52:01.895020,5.21,1.37,5.21,5.21,1022,60,5.5,45,0,0.0,Clear,clear sky,2
Hernád,47.161389,19.4025,2026-03-19 02:52:03.064922,5.45,1.38,5.45,5.45,1022,59,6.22,46,1,0.0,Clear,clear sky,2
Bakonygyirót,47.416389,17.811944,2026-03-19 02:52:04.236800,2.59,-0.53,2.59,4.71,1023,67,3.18,59,12,0.0,Clouds,few clouds,2
Vinye,47.360317,17.819635,2026-03-19 02:52:05.408995,4.03,0.99,1.91,4.03,1023,67,3.49,60,8,0.0,Clear,clear sky,2
Nemesgörzsöny,47.402924,17.376385,2026-03-19 02:52:06.581971,5.16,2.63,5.16,5.16,1023,60,3.09,70,0,0.0,Clear,clear sky,2
Rábahíd,47.438618,17.337525,2026-03-19 02:52:07.753403,5.15,2.62,5.15,5.15,1023,60,3.09,70,0,0.0,Clear,clear sky,2
Öskü,47.162222,18.076389,2026-03-19 02:52:08.927007,6.31,3.66,6.31,6.31,1023,65,3.66,27,4,0.0,Clear,clear sky,2
Márkó,47.1275,17.813889,2026-03-19 02:52:10.117348,5.97,3.24,5.97,5.97,1023,65,3.67,45,1,0.0,Clear,clear sky,2
Nemeskocs,47.203333,17.188889,2026-03-19 02:52:11.289953,5.11,2.44,5.11,5.11,1023,68,3.28,359,31,0.0,Clouds,scattered clouds,2
Zalagyömörő,47.011111,17.220833,2026-03-19 02:52:12.460168,4.55,1.72,4.55,4.55,1023,69,3.34,353,25,0.0,Clouds,scattered clouds,2
Rigács,47.061667,17.199167,2026-03-19 02:52:13.637283,4.49,1.65,4.49,4.49,1023,69,3.34,354,26,0.0,Clouds,scattered clouds,2
Kemenespálfa,47.139722,17.183056,2026-03-19 02:52:14.813615,4.53,1.66,4.53,4.53,1023,69,3.39,356,27,0.0,Clouds,scattered clouds,2
Lentiszombathely,46.611389,16.5725,2026-03-19 02:52:15.983908,5.69,3.08,3.84,5.69,1023,76,3.37,18,1,0.0,Clear,clear sky,2
Ortaháza,46.626667,16.685833,2026-03-19 02:52:17.191287,4.62,2.03,4.62,4.62,1023,75,3.02,21,4,0.0,Clear,clear sky,2
Rádiháza,46.654722,16.765833,2026-03-19 02:52:18.363040,4.53,2.02,4.53,4.53,1023,75,2.9,17,4,0.0,Clear,clear sky,2
Baktüttös,46.690833,16.826389,2026-03-19 02:52:19.536300,7.6,5.64,7.6,7.6,1023,75,2.98,9,4,0.0,Clear,clear sky,2
Budafa,46.851667,16.624722,2026-03-19 02:52:20.731816,4.46,1.38,4.46,4.46,1023,76,3.7,13,5,0.0,Clear,clear sky,2
Zalapatakalja,46.845556,16.603889,2026-03-19 02:52:21.904411,4.47,1.23,4.47,4.47,1023,76,3.97,15,4,0.0,Clear,clear sky,2
Tormásliget,47.430556,16.781667,2026-03-19 02:52:23.076844,4.25,1.38,4.25,4.25,1024,72,3.31,349,47,0.0,Clouds,scattered clouds,2
Belecska,46.64,18.411389,2026-03-19 02:52:24.261340,5.42,2.38,5.42,5.42,1022,64,4.0,49,7,0.0,Clear,clear sky,2
Almár,47.956111,20.356944,2026-03-19 02:52:25.433802,4.64,1.0,4.23,5.36,1023,74,4.77,37,0,0.0,Clear,clear sky,2
Vasútmúzeum,47.543889,19.099444,2026-03-19 02:52:26.608731,6.72,3.73,5.23,7.17,1022,55,4.47,37,0,0.0,Clear,clear sky,2
Abda,47.690833,17.540556,2026-03-19 02:52:27.780188,3.09,0.8,3.09,3.09,1024,67,2.33,34,60,0.0,Clouds,broken clouds,2
Vadaspark,47.526111,18.949167,2026-03-19 02:52:28.958231,4.93,1.51,3.42,5.36,1022,56,4.47,37,0,0.0,Clear,clear sky,2
Barosstelep,47.398889,18.989167,2026-03-19 02:52:30.136369,6.89,4.41,5.29,7.23,1022,55,3.58,3,0,0.0,Clear,clear sky,2
Fegyvernek-Örményes,47.194444,20.5575,2026-03-19 02:52:31.309198,6.02,1.87,6.02,6.02,1022,59,6.86,42,2,0.0,Clear,clear sky,2
Zagyvapálfalva,48.068889,19.785,2026-03-19 02:52:32.478651,5.03,1.9,5.03,5.03,1024,65,3.99,49,0,0.0,Clear,clear sky,2
Salgótarján,48.105556,19.807222,2026-03-19 02:52:33.647498,4.9,1.59,4.9,4.9,1024,65,4.26,50,0,0.0,Clear,clear sky,2
Szabadisóstó,46.933889,18.118056,2026-03-19 02:52:34.820093,6.62,3.99,6.62,7.17,1023,51,3.74,29,2,0.0,Clear,clear sky,2
Siófok,46.907778,18.053889,2026-03-19 02:52:35.991773,6.62,3.91,6.62,7.17,1023,51,3.88,33,2,0.0,Clear,clear sky,2
Balatonszéplak felső,46.898056,18.018056,2026-03-19 02:52:37.187266,6.62,3.88,6.62,7.17,1023,51,3.95,38,2,0.0,Clear,clear sky,2
Balatonszéplak alsó,46.891944,17.993333,2026-03-19 02:52:38.359874,6.62,4.08,6.62,7.17,1023,51,3.58,90,2,0.0,Clear,clear sky,2
Zamárdi felső,46.886111,17.969444,2026-03-19 02:52:39.534155,7.18,4.77,6.63,7.18,1023,47,3.58,90,3,0.0,Clear,clear sky,2
Zamárdi,46.88,17.944722,2026-03-19 02:52:40.706673,7.12,4.69,6.57,7.12,1023,47,3.58,90,3,0.0,Clear,clear sky,2
Szántód,46.861944,17.899167,2026-03-19 02:52:41.892219,7.19,4.78,6.64,7.19,1023,47,3.58,90,4,0.0,Clear,clear sky,2
Szőny-Déli,47.735278,18.141944,2026-03-19 02:52:43.064072,3.12,0.14,3.12,5.62,1023,64,3.14,67,3,0.0,Clear,clear sky,2
Várpalota,47.194444,18.149167,2026-03-19 02:52:44.241444,4.51,1.62,4.51,4.51,1023,64,3.42,28,3,0.0,Clear,clear sky,2
Pétfürdő,47.1675,18.121389,2026-03-19 02:52:45.411167,6.44,3.91,6.44,6.44,1023,64,3.51,27,3,0.0,Clear,clear sky,2
Hajmáskér,47.141111,18.009444,2026-03-19 02:52:46.607357,6.22,3.53,6.22,6.77,1023,65,3.69,29,4,0.0,Clear,clear sky,2
Veszprém,47.118889,17.91,2026-03-19 02:52:47.786247,6.56,3.9,6.01,6.56,1023,65,3.77,37,2,0.0,Clear,clear sky,2
Herend,47.136944,17.760278,2026-03-19 02:52:48.961098,5.75,3.0,5.75,5.75,1023,65,3.63,47,1,0.0,Clear,clear sky,2
Városlőd,47.144167,17.652778,2026-03-19 02:52:50.134016,3.98,0.84,3.98,3.98,1023,65,3.62,53,7,0.0,Clear,clear sky,2
Városlőd-Kislőd,47.133889,17.631111,2026-03-19 02:52:51.306631,4.09,1.11,4.09,4.09,1023,65,3.42,50,7,0.0,Clear,clear sky,2
Ajka,47.105902,17.572938,2026-03-19 02:52:52.475777,4.39,1.8,4.39,4.39,1023,65,2.97,42,13,0.0,Clouds,few clouds,2
Ajka-Gyártelep,47.096806,17.555219,2026-03-19 02:52:53.647643,4.44,1.86,4.44,4.44,1023,65,2.97,42,13,0.0,Clouds,few clouds,2
Devecser,47.1125,17.435278,2026-03-19 02:52:54.821873,4.84,2.5,4.84,4.84,1023,66,2.75,29,22,0.0,Clouds,few clouds,2
Somlóvásárhely,47.124444,17.369167,2026-03-19 02:52:56.005150,4.95,2.55,4.95,4.95,1023,67,2.86,14,29,0.0,Clouds,scattered clouds,2
Tüskevár,47.128611,17.331389,2026-03-19 02:52:57.175711,4.99,2.55,4.99,4.99,1023,67,2.93,8,30,0.0,Clouds,scattered clouds,2
Karakószörcsök,47.133611,17.287778,2026-03-19 02:52:58.345551,4.53,1.91,4.53,4.53,1023,68,3.04,4,31,0.0,Clouds,scattered clouds,2
Kerta,47.151944,17.237222,2026-03-19 02:52:59.517800,4.58,1.79,4.58,4.58,1023,68,3.29,358,29,0.0,Clouds,scattered clouds,2
Boba,47.183333,17.191389,2026-03-19 02:53:00.691790,4.53,1.71,4.53,4.53,1023,69,3.33,358,29,0.0,Clouds,scattered clouds,2
Börgönd,47.140278,18.515,2026-03-19 02:53:01.861632,5.36,2.69,5.36,5.36,1023,61,3.36,37,0,0.0,Clear,clear sky,2
Belsőbáránd,47.102778,18.499722,2026-03-19 02:53:03.034672,5.29,2.69,5.29,5.29,1023,62,3.23,34,0,0.0,Clear,clear sky,2
Zichyújfalu,47.124444,18.6725,2026-03-19 02:53:04.224274,5.43,2.7,5.43,5.43,1022,61,3.47,47,1,0.0,Clear,clear sky,2
Seregélyes,47.121111,18.580556,2026-03-19 02:53:05.396820,5.52,2.88,5.52,5.52,1023,61,3.37,39,0,0.0,Clear,clear sky,2
Polgárdi-Ipartelepek,47.079167,18.314444,2026-03-19 02:53:06.576950,6.25,3.83,6.25,6.25,1023,63,3.26,23,0,0.0,Clear,clear sky,2
Polgárdi,47.07,18.284167,2026-03-19 02:53:07.750967,6.25,3.83,6.25,6.25,1023,63,3.26,23,0,0.0,Clear,clear sky,2
Füle,47.05,18.255278,2026-03-19 02:53:08.983497,6.22,3.77,6.22,6.22,1023,64,3.3,22,0,0.0,Clear,clear sky,2
Zánka-Erzsébettábor,46.8775,17.709167,2026-03-19 02:53:10.159862,7.12,4.19,6.57,7.12,1022,47,4.55,53,6,0.0,Clear,clear sky,2
Csajág,47.033889,18.186389,2026-03-19 02:53:11.333144,6.46,3.87,6.46,7.01,1023,51,3.62,22,1,0.0,Clear,clear sky,2
Balatonakarattya,47.017222,18.167778,2026-03-19 02:53:12.513682,6.31,3.68,6.31,6.86,1023,51,3.62,22,1,0.0,Clear,clear sky,2
Csittényhegy,47.025278,18.1375,2026-03-19 02:53:13.685152,6.53,3.88,6.53,7.08,1023,51,3.74,22,1,0.0,Clear,clear sky,2
Balatonkenese,47.0325,18.105556,2026-03-19 02:53:14.856462,6.61,3.92,6.61,7.16,1023,51,3.84,22,2,0.0,Clear,clear sky,2
Balatonfűzfő,47.060278,18.0425,2026-03-19 02:53:16.028364,6.64,3.88,6.64,7.19,1023,51,3.99,24,3,0.0,Clear,clear sky,2
Balatonalmádi,47.028333,18.015,2026-03-19 02:53:17.199803,6.61,3.83,6.61,7.16,1023,51,4.01,25,2,0.0,Clear,clear sky,2
Káptalanfüred,47.008889,18.003889,2026-03-19 02:53:18.375171,6.64,3.86,6.64,7.19,1023,51,4.03,27,2,0.0,Clear,clear sky,2
Alsóörs,46.985278,17.974722,2026-03-19 02:53:19.546999,7.2,4.79,6.65,7.2,1023,47,3.58,90,2,0.0,Clear,clear sky,2
Csopak,46.974722,17.931111,2026-03-19 02:53:20.727659,7.07,4.63,6.52,7.07,1023,47,3.58,90,2,0.0,Clear,clear sky,2
Balatonarács,46.9625,17.8975,2026-03-19 02:53:21.897210,6.97,4.51,6.42,6.97,1023,47,3.58,90,2,0.0,Clear,clear sky,2
Balatonfüred,46.955833,17.883056,2026-03-19 02:53:23.074846,7.04,4.6,6.49,7.04,1023,47,3.58,90,2,0.0,Clear,clear sky,2
Aszófő,46.925556,17.8325,2026-03-19 02:53:24.246431,7.14,4.72,6.59,7.14,1023,47,3.58,90,3,0.0,Clear,clear sky,2
Örvényes,46.9125,17.818056,2026-03-19 02:53:25.418381,7.16,4.74,6.61,7.16,1023,47,3.58,90,3,0.0,Clear,clear sky,2
Balatonudvari,46.904722,17.808056,2026-03-19 02:53:26.591062,7.19,4.78,6.64,7.19,1023,47,3.58,90,3,0.0,Clear,clear sky,2
Fövenyes,46.893611,17.789444,2026-03-19 02:53:27.768946,7.21,4.8,6.66,7.21,1023,47,3.58,90,4,0.0,Clear,clear sky,2
Balatonakali-Dörgicse,46.88,17.747778,2026-03-19 02:53:29.005773,7.2,4.4,6.65,7.2,1023,47,4.32,49,5,0.0,Clear,clear sky,2
Zánka-Köveskál,46.872778,17.687778,2026-03-19 02:53:30.177586,7.19,4.32,6.64,7.19,1022,47,4.47,53,6,0.0,Clear,clear sky,2
Balatonszepezd,46.851111,17.663056,2026-03-19 02:53:31.349469,7.19,4.15,7.19,7.19,1022,47,4.82,55,7,0.0,Clear,clear sky,2
Szepezdfürdő,46.839722,17.649444,2026-03-19 02:53:32.531906,7.16,4.17,7.16,7.16,1022,65,4.7,55,7,0.0,Clear,clear sky,2
Révfülöp,46.829167,17.632222,2026-03-19 02:53:33.703760,7.17,4.18,7.17,7.17,1022,65,4.7,55,7,0.0,Clear,clear sky,2
Balatonrendes,46.824722,17.582778,2026-03-19 02:53:34.882051,7.17,4.33,7.17,7.17,1022,65,4.38,52,7,0.0,Clear,clear sky,2
Ábrahámhegy,46.815,17.572222,2026-03-19 02:53:36.057127,7.14,4.3,7.14,7.14,1022,65,4.38,52,7,0.0,Clear,clear sky,2
Badacsonyörs,46.805556,17.531667,2026-03-19 02:53:37.229228,5.09,1.9,5.09,5.09,1022,66,4.12,50,7,0.0,Clear,clear sky,2
Kisújszállás,47.223889,20.751111,2026-03-19 02:53:38.402279,5.11,0.81,5.11,5.11,1022,60,6.57,42,4,0.0,Clear,clear sky,2
Karcag,47.303333,20.928056,2026-03-19 02:53:39.576512,5.08,0.88,5.08,5.08,1022,61,6.3,40,4,0.0,Clear,clear sky,2
Püspökladány,47.3275,21.128889,2026-03-19 02:53:40.746224,5.03,0.95,5.03,5.03,1022,62,5.97,39,5,0.0,Clear,clear sky,2
Kaba,47.368889,21.259444,2026-03-19 02:53:41.918483,4.1,-0.16,4.1,4.1,1022,62,5.8,40,4,0.0,Clear,clear sky,2
Hajdúszoboszló,47.429444,21.406944,2026-03-19 02:53:43.087989,4.09,0.13,4.09,4.09,1022,60,5.14,40,0,0.0,Clear,clear sky,2
Ebes,47.462778,21.488889,2026-03-19 02:53:44.260668,4.04,0.07,4.04,4.04,1022,60,5.14,40,0,0.0,Clear,clear sky,2
Debrecen,47.520278,21.628611,2026-03-19 02:53:45.431096,3.92,-0.08,3.92,3.92,1022,60,5.14,40,0,0.0,Clear,clear sky,2
Debrecen-Csapókert,47.540556,21.648056,2026-03-19 02:53:46.603131,3.87,-0.15,3.87,3.87,1022,60,5.14,40,0,0.0,Clear,clear sky,2
Apafa,47.584045,21.655858,2026-03-19 02:53:47.774512,3.83,-0.2,3.83,3.83,1022,60,5.14,40,0,0.0,Clear,clear sky,2
Bocskaikert,47.6425,21.666389,2026-03-19 02:53:48.946483,3.76,-0.28,3.76,3.76,1023,60,5.14,40,0,0.0,Clear,clear sky,2
Hajdúhadház,47.686944,21.679167,2026-03-19 02:53:50.120657,3.73,-0.27,3.73,3.73,1023,65,5.03,34,4,0.0,Clear,clear sky,2
Téglás,47.714722,21.684722,2026-03-19 02:53:51.300076,3.8,-0.18,3.8,3.8,1023,66,5.04,33,5,0.0,Clear,clear sky,2
Újfehértó,47.814444,21.706389,2026-03-19 02:53:52.472118,4.72,1.01,4.72,4.72,1023,68,4.95,31,5,0.0,Clear,clear sky,2
Nyíregyháza,47.946667,21.705556,2026-03-19 02:53:53.642804,4.74,1.17,4.74,4.74,1023,71,4.68,31,2,0.0,Clear,clear sky,2
Sóstó,47.998051,21.729047,2026-03-19 02:53:54.813176,7.04,4.05,7.04,7.04,1023,72,4.63,28,2,0.0,Clear,clear sky,2
Sóstóhegy,48.012222,21.742778,2026-03-19 02:53:55.983420,7.04,4.04,7.04,7.04,1023,73,4.65,27,2,0.0,Clear,clear sky,2
Kemecse,48.065556,21.801667,2026-03-19 02:53:57.155394,4.65,1.09,4.65,4.65,1023,74,4.62,24,2,0.0,Clear,clear sky,2
Nyírbogdány,48.082222,21.855278,2026-03-19 02:53:58.329631,4.57,1.03,4.57,4.57,1023,74,4.54,22,2,0.0,Clear,clear sky,2
Kék,48.093333,21.883889,2026-03-19 02:53:59.501536,4.56,1.14,4.56,4.56,1023,74,4.31,21,2,0.0,Clear,clear sky,2
Demecser,48.111667,21.926667,2026-03-19 02:54:00.674788,4.52,1.18,4.52,4.52,1023,75,4.15,20,2,0.0,Clear,clear sky,2
Gégény,48.128333,21.951944,2026-03-19 02:54:01.856574,4.45,1.2,4.45,4.45,1023,75,3.97,18,2,0.0,Clear,clear sky,2
Pátroha,48.158611,21.996667,2026-03-19 02:54:03.026790,4.43,1.27,4.43,4.43,1023,75,3.81,17,2,0.0,Clear,clear sky,2
Ajak,48.1865,22.048972,2026-03-19 02:54:04.202594,4.38,1.31,4.38,4.38,1023,76,3.66,16,2,0.0,Clear,clear sky,2
Kisvárda,48.208333,22.078333,2026-03-19 02:54:05.385448,4.34,1.37,4.34,4.34,1023,76,3.48,15,1,0.0,Clear,clear sky,2
Kisvárda-Hármasút,48.228333,22.091944,2026-03-19 02:54:06.557446,4.34,1.37,4.34,4.34,1023,76,3.48,15,1,0.0,Clear,clear sky,2
Fényeslitke,48.267222,22.107222,2026-03-19 02:54:07.730892,4.23,1.27,4.23,4.23,1023,76,3.43,13,1,0.0,Clear,clear sky,2
Komoró,48.305278,22.118056,2026-03-19 02:54:08.905565,4.24,1.27,4.24,4.24,1023,76,3.45,12,1,0.0,Clear,clear sky,2
Tuzsér,48.342222,22.131667,2026-03-19 02:54:10.078045,4.16,1.13,4.16,4.16,1023,76,3.52,10,2,0.0,Clear,clear sky,2
Tiszabezdéd,48.371389,22.145,2026-03-19 02:54:11.250357,4.12,1.07,4.12,4.12,1023,76,3.54,10,2,0.0,Clear,clear sky,2
Záhony,48.402222,22.183611,2026-03-19 02:54:12.425881,4.06,0.95,4.06,4.06,1023,76,3.6,10,2,0.0,Clear,clear sky,2
Karcag-Vásártér,47.3225,20.9075,2026-03-19 02:54:13.601156,5.56,1.49,5.56,5.56,1022,61,6.3,40,4,0.0,Clear,clear sky,2
Berekfürdő,47.374722,20.827222,2026-03-19 02:54:14.778300,5.55,1.28,5.55,5.55,1022,61,6.82,39,2,0.0,Clear,clear sky,2
Kunmadaras,47.415278,20.793056,2026-03-19 02:54:15.957065,5.54,1.19,5.54,5.54,1022,60,7.06,38,1,0.0,Clear,clear sky,2
Tiszaszentimre,47.490833,20.733056,2026-03-19 02:54:17.129897,5.55,1.12,5.55,5.55,1022,60,7.29,37,0,0.0,Clear,clear sky,2
Tiszaszőlős,47.555556,20.728056,2026-03-19 02:54:18.301727,5.37,0.88,5.37,5.37,1022,62,7.31,36,0,0.0,Clear,clear sky,2
Hosszúhát,47.235556,21.101944,2026-03-19 02:54:19.475604,4.89,1.04,4.89,4.89,1022,62,5.35,42,4,0.0,Clear,clear sky,2
Szerep,47.234444,21.145833,2026-03-19 02:54:20.654104,4.87,1.05,4.87,4.87,1022,62,5.26,42,4,0.0,Clear,clear sky,2
Sárrétudvari,47.231667,21.180833,2026-03-19 02:54:21.830561,4.84,1.04,4.84,4.84,1022,62,5.2,42,4,0.0,Clear,clear sky,2
Biharnagybajom,47.208889,21.221944,2026-03-19 02:54:23.007210,4.77,1.09,4.77,4.77,1022,62,4.92,43,3,0.0,Clear,clear sky,2
Füzesgyarmat,47.113056,21.194444,2026-03-19 02:54:24.191498,4.6,1.18,4.6,4.6,1022,63,4.33,44,2,0.0,Clear,clear sky,2
Füzesgyarmatfürdő,47.093787,21.201582,2026-03-19 02:54:25.373000,4.6,1.18,4.6,4.6,1022,63,4.33,44,2,0.0,Clear,clear sky,2
Báránd,47.299722,21.235278,2026-03-19 02:54:26.547667,4.95,1.02,4.95,4.95,1022,62,5.55,41,5,0.0,Clear,clear sky,2
Sáp,47.259722,21.360556,2026-03-19 02:54:27.723703,4.8,1.03,4.8,4.8,1022,62,5.12,45,5,0.0,Clear,clear sky,2
Berettyóújfalu,47.211944,21.535556,2026-03-19 02:54:28.896810,4.6,1.03,4.6,4.6,1022,62,4.62,50,5,0.0,Clear,clear sky,2
Mezőpeterd,47.176111,21.625278,2026-03-19 02:54:30.077521,4.17,0.65,4.17,4.28,1022,63,4.33,52,4,0.0,Clear,clear sky,2
Biharkeresztes,47.135556,21.721389,2026-03-19 02:54:31.252782,4.14,4.14,4.14,4.25,1022,61,1.03,0,0,0.0,Clear,clear sky,2
Tócóvölgy,47.529444,21.588889,2026-03-19 02:54:32.421798,3.97,-0.02,3.97,3.97,1022,60,5.14,40,0,0.0,Clear,clear sky,2
Sáregres,46.7825,18.588889,2026-03-19 02:54:33.589929,5.54,2.32,5.54,5.54,1022,62,4.38,51,4,0.0,Clear,clear sky,2
Simontornya,46.756582,18.540674,2026-03-19 02:54:34.766264,5.43,2.27,5.43,5.43,1022,62,4.22,53,6,0.0,Clear,clear sky,2
Tolnanémedi,46.727778,18.475833,2026-03-19 02:54:35.938055,5.48,2.34,5.48,5.48,1022,63,4.2,53,6,0.0,Clear,clear sky,2
Pincehely,46.681389,18.43,2026-03-19 02:54:37.112469,5.3,2.22,5.3,5.3,1022,64,4.02,52,6,0.0,Clear,clear sky,2
Keszőhidegkút-Gyönk,46.597778,18.426111,2026-03-19 02:54:38.286618,5.32,2.28,5.32,5.32,1022,65,3.96,47,9,0.0,Clear,clear sky,2
Szárazd,46.575556,18.420833,2026-03-19 02:54:39.459694,5.35,2.35,5.35,5.35,1022,65,3.9,45,11,0.0,Clouds,few clouds,2
Regöly,46.568889,18.396111,2026-03-19 02:54:40.633885,5.35,2.35,5.35,5.35,1022,65,3.9,45,11,0.0,Clouds,few clouds,2
Szakály-Hőgyész,46.523611,18.389444,2026-03-19 02:54:41.814574,5.24,2.29,5.24,5.24,1022,65,3.77,42,17,0.0,Clouds,few clouds,2
Dúzs,46.493889,18.377222,2026-03-19 02:54:42.988940,5.28,2.39,5.28,5.28,1022,65,3.69,41,22,0.0,Clouds,few clouds,2
Csibrák,46.466667,18.336389,2026-03-19 02:54:44.162003,5.33,2.48,5.33,5.33,1022,66,3.63,42,27,0.0,Clouds,scattered clouds,2
Kurd,46.449167,18.319167,2026-03-19 02:54:45.336834,4.99,2.13,4.99,4.99,1022,66,3.54,41,34,0.0,Clouds,scattered clouds,2
Döbrököz,46.418889,18.255,2026-03-19 02:54:46.508374,5.26,2.46,5.26,5.26,1022,66,3.53,44,40,0.0,Clouds,scattered clouds,2
Dombóvár,46.37,18.149722,2026-03-19 02:54:47.685696,5.23,2.32,5.23,5.23,1021,66,3.7,48,51,0.0,Clouds,broken clouds,2
Dombóvár alsó,46.363889,18.134167,2026-03-19 02:54:48.861299,5.23,2.32,5.23,5.23,1021,66,3.7,48,51,0.0,Clouds,broken clouds,2
Somoskőújfalu,48.154722,19.815556,2026-03-19 02:54:50.038258,4.4,0.85,4.4,4.4,1024,64,4.49,50,0,0.0,Clear,clear sky,2
Jászfényszaru,47.593056,19.754444,2026-03-19 02:54:51.216531,5.45,1.98,5.45,5.45,1023,61,4.84,39,0,0.0,Clear,clear sky,2
Pusztamonostor,47.564444,19.794167,2026-03-19 02:54:52.387201,6.05,2.61,6.05,6.05,1022,61,5.09,40,0,0.0,Clear,clear sky,2
Jászberény,47.494444,19.893333,2026-03-19 02:54:53.561961,6.15,2.3,6.15,6.15,1022,59,6.14,43,0,0.0,Clear,clear sky,2
Meggyespele,47.441944,19.938889,2026-03-19 02:54:54.733672,6.17,1.91,6.17,6.17,1022,53,7.31,44,1,0.0,Clear,clear sky,2
Portelek,47.418056,19.958889,2026-03-19 02:54:55.903302,6.19,1.93,6.19,6.19,1022,53,7.35,44,1,0.0,Clear,clear sky,2
Jászboldogháza-Jánoshida,47.366944,20.001389,2026-03-19 02:54:57.078930,6.18,1.89,6.18,6.18,1022,53,7.41,43,2,0.0,Clear,clear sky,2
Jászárokszállás,47.635556,19.971111,2026-03-19 02:54:58.249128,5.48,1.69,5.48,5.48,1022,61,5.56,39,0,0.0,Clear,clear sky,2
Jászdózsa,47.563056,20.028056,2026-03-19 02:54:59.420981,5.49,1.27,5.49,5.49,1022,60,6.65,41,0,0.0,Clear,clear sky,2
Jászapáti,47.513611,20.155,2026-03-19 02:55:00.589920,5.45,0.87,5.45,5.45,1022,59,7.64,42,0,0.0,Clear,clear sky,2
Jászkisér,47.456111,20.203333,2026-03-19 02:55:01.780153,5.44,0.8,5.44,5.44,1022,59,7.83,42,0,0.0,Clear,clear sky,2
Jászladány,47.373333,20.159167,2026-03-19 02:55:02.950741,6.23,1.88,6.01,6.23,1022,58,7.66,43,1,0.0,Clear,clear sky,2
Szászberek,47.320556,20.090833,2026-03-19 02:55:04.118995,6.22,1.96,6.01,6.66,1022,53,7.35,43,1,0.0,Clear,clear sky,2
Gyöngyöshalász,47.743056,19.932222,2026-03-19 02:55:05.289619,5.22,2.1,5.22,5.22,1023,64,4.05,34,0,0.0,Clear,clear sky,2
Gyöngyös,47.783056,19.937222,2026-03-19 02:55:06.458368,4.83,1.7,4.83,4.83,1023,64,3.91,33,0,0.0,Clear,clear sky,2
Erdőtelek,47.683333,20.3025,2026-03-19 02:55:07.628576,5.34,0.87,5.34,5.34,1023,61,7.22,38,0,0.0,Clear,clear sky,2
Heves,47.609444,20.306111,2026-03-19 02:55:08.802664,5.42,0.86,5.42,5.42,1022,60,7.56,39,0,0.0,Clear,clear sky,2
Hevesvezekény,47.562222,20.365833,2026-03-19 02:55:09.975205,5.45,0.83,5.45,5.45,1022,60,7.78,39,1,0.0,Clear,clear sky,2
Tarnaszentmiklós,47.546944,20.390833,2026-03-19 02:55:11.152831,5.44,0.82,5.44,5.44,1022,60,7.77,39,1,0.0,Clear,clear sky,2
Kisköre,47.495556,20.481667,2026-03-19 02:55:12.329074,5.41,0.79,5.41,5.41,1022,61,7.73,39,2,0.0,Clear,clear sky,2
Abádszalók,47.455278,20.553056,2026-03-19 02:55:13.503600,5.37,0.77,5.37,5.37,1022,61,7.63,39,2,0.0,Clear,clear sky,2
Kunhegyes,47.376667,20.641111,2026-03-19 02:55:14.678878,5.27,0.77,5.27,5.27,1022,61,7.27,40,2,0.0,Clear,clear sky,2
Kenderes,47.254444,20.686111,2026-03-19 02:55:15.848518,5.17,0.78,5.17,5.17,1022,60,6.86,42,3,0.0,Clear,clear sky,2
Maklár,47.808056,20.404722,2026-03-19 02:55:17.017562,5.24,0.9,5.24,5.24,1023,63,6.77,38,0,0.0,Clear,clear sky,2
Andornaktálya,47.852203,20.402295,2026-03-19 02:55:18.190142,5.54,1.53,5.54,5.64,1023,65,6.12,37,0,0.0,Clear,clear sky,2
Eger,47.891667,20.381667,2026-03-19 02:55:19.360366,5.55,1.71,5.45,5.55,1023,65,5.72,37,0,0.0,Clear,clear sky,2
Egervár,47.908056,20.380556,2026-03-19 02:55:20.532206,5.37,1.62,5.27,5.37,1023,66,5.4,37,0,0.0,Clear,clear sky,2
Eger-Felnémet,47.936667,20.370556,2026-03-19 02:55:21.700807,5.42,1.82,5.32,5.42,1023,67,5.08,37,0,0.0,Clear,clear sky,2
Szarvaskő,47.988611,20.3325,2026-03-19 02:55:22.869049,5.01,1.62,3.7,5.01,1023,61,4.46,38,0,0.0,Clear,clear sky,2
Mónosbél,48.031944,20.33,2026-03-19 02:55:24.040752,4.83,1.71,3.52,4.83,1024,61,3.89,40,0,0.0,Clear,clear sky,2
Bélapátfalva,48.055556,20.340556,2026-03-19 02:55:25.209956,4.54,1.53,3.23,4.54,1024,61,3.61,42,0,0.0,Clear,clear sky,2
Bélapátfalvi Cementgyár,48.058056,20.355,2026-03-19 02:55:26.383659,4.49,1.47,3.18,4.49,1024,61,3.61,42,0,0.0,Clear,clear sky,2
Szilvásvárad,48.11345,20.37919,2026-03-19 02:55:27.553963,3.05,0.02,3.05,4.36,1024,61,3.18,47,1,0.0,Clear,clear sky,2
Hejőkeresztúr,47.960278,20.869444,2026-03-19 02:55:28.722599,5.8,4.52,5.8,5.8,1023,60,1.79,333,1,0.0,Clear,clear sky,2
Tiszaújváros,47.926111,21.030556,2026-03-19 02:55:29.894334,5.85,2.36,5.85,5.85,1023,65,5.08,25,0,0.0,Clear,clear sky,2
Miskolc-Gömöri,48.106667,20.800278,2026-03-19 02:55:31.065501,5.7,2.0,5.7,5.7,1024,60,5.47,19,0,0.0,Clear,clear sky,2
Sajókeresztúr,48.168008,20.774014,2026-03-19 02:55:32.244594,5.64,1.97,5.64,5.64,1024,67,5.37,25,0,0.0,Clear,clear sky,2
Sajóecseg,48.186111,20.766667,2026-03-19 02:55:33.419790,5.68,2.02,5.68,5.68,1024,67,5.38,27,0,0.0,Clear,clear sky,2
Sajószentpéter,48.222222,20.708056,2026-03-19 02:55:34.593447,5.59,1.94,5.59,5.59,1024,66,5.29,31,0,0.0,Clear,clear sky,2
Kazincbarcika,48.264444,20.6275,2026-03-19 02:55:35.765512,4.38,0.8,4.38,4.38,1024,66,4.54,43,0,0.0,Clear,clear sky,2
Sajókaza,48.272778,20.581944,2026-03-19 02:55:36.934779,4.38,0.91,4.38,4.38,1024,66,4.32,45,0,0.0,Clear,clear sky,2
Vadna,48.276389,20.555278,2026-03-19 02:55:38.109283,4.36,0.89,4.36,4.36,1024,66,4.32,45,0,0.0,Clear,clear sky,2
Dubicsány,48.280833,20.504722,2026-03-19 02:55:39.284674,4.34,1.3,4.34,4.34,1025,67,3.59,50,0,0.0,Clear,clear sky,2
Raposka,46.851389,17.412778,2026-03-19 02:55:40.461801,8.06,6.19,8.06,8.06,1023,67,2.98,29,9,0.0,Clear,clear sky,2
Ivacs,47.641944,19.273889,2026-03-19 02:55:41.637792,6.36,3.0,5.74,6.79,1023,56,5.08,40,0,0.0,Clear,clear sky,2
Kisköre-Tiszahíd,47.480835,20.507698,2026-03-19 02:55:42.807927,4.99,1.36,4.99,4.99,1022,60,4.92,54,2,0.0,Clear,clear sky,2
Rozsály,47.912778,22.7825,2026-03-19 02:55:43.978524,3.92,1.47,3.92,4.03,1023,71,2.68,42,20,0.0,Clouds,few clouds,2
Pusztakettős,47.453611,20.749722,2026-03-19 02:55:45.149727,4.99,0.44,4.99,4.99,1022,60,7.17,37,1,0.0,Clear,clear sky,2
Kisvác,47.795278,19.113611,2026-03-19 02:55:46.319757,6.61,3.28,6.61,7.01,1023,61,5.16,47,0,0.0,Clear,clear sky,2
Tiszafüred-Gyártelep,47.6075,20.736111,2026-03-19 02:55:47.491791,4.96,0.36,4.96,4.96,1022,60,7.29,36,0,0.0,Clear,clear sky,2
Újkenéz,48.251111,22.221667,2026-03-19 02:55:48.661521,4.11,1.2,4.11,4.11,1023,75,3.33,15,1,0.0,Clear,clear sky,2
Püspökladány-Vásártér,47.319167,21.096111,2026-03-19 02:55:49.836811,5.0,0.98,5.0,5.0,1022,62,5.8,40,5,0.0,Clear,clear sky,2
Végegyháza alsó,46.3675,20.866944,2026-03-19 02:55:51.007726,7.83,7.83,7.83,7.83,1021,69,0.42,38,100,0.0,Clouds,overcast clouds,2
Orosháza felső,46.553611,20.655278,2026-03-19 02:55:52.180562,4.55,2.84,4.55,4.55,1021,63,2.0,14,80,0.0,Clouds,broken clouds,2
Ambrózfalva,46.353056,20.740556,2026-03-19 02:55:53.350569,4.59,3.57,4.59,4.59,1021,67,1.43,353,100,0.0,Clouds,overcast clouds,2
Alsónyék,46.199444,18.738056,2026-03-19 02:55:54.521632,7.49,5.1,7.49,7.49,1021,64,3.66,22,100,0.0,Clouds,overcast clouds,2
Tompapuszta,46.321389,20.966389,2026-03-19 02:55:55.693435,7.82,7.82,7.82,8.97,1021,100,0.73,107,100,0.0,Clouds,overcast clouds,2
Halászlak,46.911879,20.56228,2026-03-19 02:55:56.865729,4.92,1.09,4.92,4.92,1021,59,5.31,38,9,0.0,Clear,clear sky,2
Sirató,46.840556,20.61,2026-03-19 02:55:58.043207,4.79,1.36,4.79,4.79,1021,60,4.44,37,17,0.0,Clouds,few clouds,2
Csabacsűd felső,46.829167,20.649167,2026-03-19 02:55:59.220563,4.72,1.31,4.72,4.72,1021,61,4.36,38,14,0.0,Clouds,few clouds,2
Orosháza-Üveggyár,46.579979,20.683644,2026-03-19 02:56:00.391672,4.46,2.84,4.46,4.46,1021,63,1.91,22,72,0.0,Clouds,broken clouds,2
Gyulai városerdő,46.69482,21.32281,2026-03-19 02:56:01.565748,3.71,1.69,3.71,3.71,1021,66,2.17,105,63,0.0,Clouds,broken clouds,2
Kórógyszentgyörgy,46.564377,20.224998,2026-03-19 02:56:02.735092,6.68,4.32,5.58,6.68,1021,44,3.32,12,73,0.0,Clouds,broken clouds,2
Kunszállás,46.784444,19.767222,2026-03-19 02:56:03.903793,3.87,1.08,3.83,5.42,1021,55,3.09,20,0,0.0,Clear,clear sky,2
Selymes,46.655321,19.8534,2026-03-19 02:56:05.077061,3.89,0.42,3.89,5.48,1021,53,4.13,25,69,0.0,Clouds,broken clouds,2
Petőfiszállási tanyák,46.587805,19.874509,2026-03-19 02:56:06.253959,4.01,0.75,3.93,6.12,1021,52,3.82,21,82,0.0,Clouds,broken clouds,2
Kisteleki szőlők,46.514199,19.92868,2026-03-19 02:56:07.433145,4.81,1.95,3.92,6.11,1021,59,3.47,15,92,0.0,Clouds,overcast clouds,2
Kapitányság,46.435336,19.987564,2026-03-19 02:56:08.607991,6.13,3.69,6.13,6.13,1021,57,3.25,9,96,0.0,Clouds,overcast clouds,2
Őszeszék,46.39025,20.016017,2026-03-19 02:56:09.778808,6.16,3.8,6.16,6.16,1021,57,3.15,7,99,0.0,Clouds,overcast clouds,2
Vilmaszállás,46.366389,20.030833,2026-03-19 02:56:10.950860,6.14,3.79,6.14,6.14,1021,57,3.13,39,100,0.0,Clouds,overcast clouds,2
Jánosszállás,46.334359,20.051199,2026-03-19 02:56:12.120849,6.17,3.86,6.17,6.17,1021,57,3.08,6,100,0.0,Clouds,overcast clouds,2
Felsőpakony,47.343056,19.230556,2026-03-19 02:56:13.294801,6.93,4.14,6.13,7.19,1022,56,4.18,43,0,0.0,Clear,clear sky,2
Felsőméntelek,46.987074,19.557745,2026-03-19 02:56:14.472813,3.88,1.09,3.88,3.88,1022,60,3.09,20,0,0.0,Clear,clear sky,2
Alsóméntelek,46.961558,19.579121,2026-03-19 02:56:15.648786,3.91,1.13,3.91,3.91,1022,60,3.09,20,0,0.0,Clear,clear sky,2
Nagynyír,46.943319,19.585447,2026-03-19 02:56:16.829774,3.9,1.12,3.9,3.9,1022,60,3.09,20,0,0.0,Clear,clear sky,2
Úrihegy,46.917778,19.621389,2026-03-19 02:56:18.010265,3.93,1.15,3.71,3.93,1021,60,3.09,20,0,0.0,Clear,clear sky,2
Miklóstelep,46.913412,19.630913,2026-03-19 02:56:19.187752,3.94,1.16,3.73,3.94,1021,60,3.09,20,0,0.0,Clear,clear sky,2
Tiszajenő alsó,47.016944,20.134444,2026-03-19 02:56:20.364630,6.68,2.78,6.02,6.68,1021,56,6.69,40,0,0.0,Clear,clear sky,2
Óbög,46.987222,20.111111,2026-03-19 02:56:21.537923,6.45,2.48,5.55,6.66,1021,54,6.69,40,0,0.0,Clear,clear sky,2
Árpádszállás,46.866456,19.989163,2026-03-19 02:56:22.714751,4.4,1.72,3.88,5.48,1021,56,3.09,20,0,0.0,Clear,clear sky,2
Tőserdő,46.851111,19.980278,2026-03-19 02:56:23.883665,4.13,1.39,3.9,5.5,1021,51,3.09,20,0,0.0,Clear,clear sky,2
Tiszaalpár felső,46.836256,19.976753,2026-03-19 02:56:25.056041,4.25,1.54,3.93,5.52,1021,51,3.09,20,0,0.0,Clear,clear sky,2
Borsihalom,46.773056,19.92,2026-03-19 02:56:26.231771,3.98,0.14,3.92,5.51,1021,52,4.84,30,52,0.0,Clouds,broken clouds,2
Petőfiváros,46.725556,19.848611,2026-03-19 02:56:27.407671,3.89,0.16,3.88,5.48,1021,53,4.6,29,51,0.0,Clouds,broken clouds,2
Csorna,47.601944,17.248889,2026-03-19 02:56:28.581368,4.6,2.32,4.6,4.6,1024,66,2.63,2,67,0.0,Clouds,broken clouds,2
Szorgalmatos,47.986667,21.366389,2026-03-19 02:56:29.760677,7.09,4.14,7.09,7.09,1023,49,4.59,37,0,0.0,Clear,clear sky,2
Fótfürdő,47.6225,19.200556,2026-03-19 02:56:30.948536,6.34,2.99,5.74,6.79,1023,55,5.04,42,0,0.0,Clear,clear sky,2
Fenyveshegy,47.818333,19.068056,2026-03-19 02:56:32.120503,6.68,3.47,6.68,6.68,1023,61,4.93,49,0,0.0,Clear,clear sky,2
Hűvösvölgy,47.541202,18.96351,2026-03-19 02:56:33.295671,5.9,3.21,4.39,6.33,1023,56,3.58,31,0,0.0,Clear,clear sky,2
Hárshegy,47.535318,18.961433,2026-03-19 02:56:34.459581,5.9,3.21,4.39,6.33,1023,56,3.58,31,0,0.0,Clear,clear sky,2
Szépjuhászné,47.528277,18.955246,2026-03-19 02:56:35.637406,5.0,2.11,3.5,5.44,1022,56,3.58,31,0,0.0,Clear,clear sky,2
Jánoshegy,47.51433,18.95047,2026-03-19 02:56:36.814048,4.9,1.99,3.41,5.35,1022,56,3.58,31,0,0.0,Clear,clear sky,2
Virágvölgy,47.505965,18.95876,2026-03-19 02:56:37.994858,4.58,1.33,3.1,5.04,1022,56,4.02,23,0,0.0,Clear,clear sky,2
Csillebérc,47.498196,18.961694,2026-03-19 02:56:39.171959,4.35,1.05,2.86,4.81,1022,56,4.02,23,0,0.0,Clear,clear sky,2
Normafa,47.5,18.970558,2026-03-19 02:56:40.347702,4.39,1.1,2.92,4.86,1022,56,4.02,23,0,0.0,Clear,clear sky,2
Széchenyihegy,47.49413,18.977049,2026-03-19 02:56:41.527214,4.41,1.12,2.94,4.88,1022,56,4.02,23,0,0.0,Clear,clear sky,2
Balatonfőkajár felső,47.031389,18.215278,2026-03-19 02:56:42.703999,6.29,3.73,6.29,6.84,1023,51,3.51,22,1,0.0,Clear,clear sky,2
Piroska,47.148333,20.129722,2026-03-19 02:56:43.877366,6.39,2.41,6.02,6.68,1021,54,6.69,40,0,0.0,Clear,clear sky,2
Somodor,46.4725,17.836667,2026-03-19 02:56:45.050778,4.96,1.5,4.96,4.96,1022,66,4.57,58,18,0.0,Clouds,few clouds,2
Középmező,45.995833,18.668889,2026-03-19 02:56:46.232616,7.48,4.92,5.06,7.48,1021,50,3.98,28,99,0.0,Clouds,overcast clouds,2
Jobbágyi,47.828889,19.6875,2026-03-19 02:56:47.406669,5.18,1.66,5.18,5.18,1023,62,4.79,42,0,0.0,Clear,clear sky,2
Ferihegy,47.437222,19.223889,2026-03-19 02:56:48.595264,6.69,3.75,5.97,7.03,1022,55,4.35,44,0,0.0,Clear,clear sky,2
Máriapócs,47.852778,22.019167,2026-03-19 02:56:49.771100,4.18,0.97,4.18,4.18,1023,70,3.8,28,6,0.0,Clear,clear sky,2
Máriaudvar,47.751944,19.165,2026-03-19 02:56:50.954068,6.64,3.28,6.64,7.04,1023,60,5.24,43,0,0.0,Clear,clear sky,2
Nagyberki,46.353333,18.004167,2026-03-19 02:56:52.129261,5.03,1.77,5.03,5.03,1022,66,4.23,50,44,0.0,Clouds,scattered clouds,2
Badacsonytomaj,46.804722,17.518056,2026-03-19 02:56:53.310365,5.09,1.9,5.09,5.09,1022,66,4.12,50,7,0.0,Clear,clear sky,2
Badacsony,46.788611,17.506389,2026-03-19 02:56:54.483251,8.11,5.66,8.11,8.11,1022,66,4.03,49,6,0.0,Clear,clear sky,2
Badacsonylábdihegy,46.793889,17.470833,2026-03-19 02:56:55.652788,8.08,5.63,8.08,8.08,1022,66,4.03,49,6,0.0,Clear,clear sky,2
Badacsonytördemic-Szigliget,46.809722,17.469167,2026-03-19 02:56:56.821507,8.03,5.66,8.03,8.03,1022,66,3.85,47,7,0.0,Clear,clear sky,2
Nemesgulács-Kisapáti,46.836944,17.476389,2026-03-19 02:56:57.992840,8.07,5.82,8.07,8.07,1022,66,3.63,44,8,0.0,Clear,clear sky,2
Tapolca,46.877778,17.428611,2026-03-19 02:56:59.170171,7.99,6.18,7.99,7.99,1023,67,2.87,25,11,0.0,Clouds,few clouds,2
Uzsabánya alsó,46.898333,17.345278,2026-03-19 02:57:00.345034,7.79,6.02,7.79,7.79,1023,68,2.76,8,15,0.0,Clouds,few clouds,2
Uzsa,46.920278,17.331667,2026-03-19 02:57:01.514598,7.75,5.96,7.75,7.75,1023,68,2.77,5,19,0.0,Clouds,few clouds,2
Sümegi Bazaltbánya,46.9525,17.2925,2026-03-19 02:57:02.687992,4.49,1.98,4.49,4.49,1023,69,2.89,359,22,0.0,Clouds,few clouds,2
Sümeg,46.981111,17.270833,2026-03-19 02:57:03.860996,4.61,1.91,4.61,4.61,1023,69,3.18,353,23,0.0,Clouds,few clouds,2
Gógánfa,47.021111,17.207778,2026-03-19 02:57:05.032433,4.55,1.72,4.55,4.55,1023,69,3.34,353,25,0.0,Clouds,scattered clouds,2
Ukk,47.041944,17.195833,2026-03-19 02:57:06.206760,4.57,1.69,4.57,4.57,1023,70,3.42,354,23,0.0,Clouds,few clouds,2
Nemeskeresztúr,47.093611,17.183611,2026-03-19 02:57:07.382686,4.47,1.58,4.47,4.47,1023,69,3.41,355,26,0.0,Clouds,scattered clouds,2
Jánosháza,47.115833,17.171667,2026-03-19 02:57:08.561709,4.53,1.66,4.53,4.53,1023,69,3.39,356,27,0.0,Clouds,scattered clouds,2
Keszthely,46.758333,17.248056,2026-03-19 02:57:09.733277,8.08,5.85,8.08,8.08,1023,57,3.6,50,0,0.0,Clear,clear sky,2
Alsógyenes,46.765844,17.276435,2026-03-19 02:57:10.911005,8.08,5.85,8.08,8.08,1023,57,3.6,50,0,0.0,Clear,clear sky,2
Gyenesdiás,46.763333,17.292778,2026-03-19 02:57:12.091825,8.08,5.85,8.08,8.08,1023,57,3.6,50,0,0.0,Clear,clear sky,2
Vonyarcvashegy,46.755278,17.318333,2026-03-19 02:57:13.268258,8.09,5.86,8.09,8.09,1023,57,3.6,50,0,0.0,Clear,clear sky,2
Balatongyörök,46.751944,17.354444,2026-03-19 02:57:14.451696,8.11,5.89,8.11,8.11,1023,57,3.6,50,0,0.0,Clear,clear sky,2
Becehegy,46.776111,17.372778,2026-03-19 02:57:15.630354,8.08,5.85,8.08,8.08,1023,57,3.6,50,0,0.0,Clear,clear sky,2
Balatonederics,46.8025,17.385,2026-03-19 02:57:16.818979,8.03,6.2,8.03,8.03,1023,68,2.91,27,7,0.0,Clear,clear sky,2
Dabronc,47.025766,17.167006,2026-03-19 02:57:17.991113,4.57,1.69,4.57,4.57,1023,70,3.42,353,22,0.0,Clouds,few clouds,2
Türje,46.994444,17.093611,2026-03-19 02:57:19.172563,4.54,1.58,4.54,4.54,1023,71,3.53,353,12,0.0,Clouds,few clouds,2
Zalabér-Batyk,46.983056,17.040833,2026-03-19 02:57:20.351175,4.64,1.62,4.64,4.64,1023,72,3.67,356,2,0.0,Clear,clear sky,2
Pakod,46.959167,16.996667,2026-03-19 02:57:21.524233,4.53,1.46,4.53,4.53,1023,73,3.7,358,1,0.0,Clear,clear sky,2
Pókaszepetk,46.924444,16.972222,2026-03-19 02:57:22.694216,4.67,1.62,4.67,4.67,1023,73,3.72,355,0,0.0,Clear,clear sky,2
Kemendollár,46.905833,16.946667,2026-03-19 02:57:23.873741,7.91,5.58,7.91,7.91,1023,73,3.72,357,1,0.0,Clear,clear sky,2
Zalaegerszeg,46.833056,16.848333,2026-03-19 02:57:25.044298,7.73,5.51,7.73,7.73,1023,75,3.45,1,5,0.0,Clear,clear sky,2
Bocfölde,46.780278,16.853611,2026-03-19 02:57:26.221680,7.79,5.62,7.79,7.79,1023,75,3.38,359,4,0.0,Clear,clear sky,2
Sárhida,46.755833,16.851389,2026-03-19 02:57:27.397127,7.75,5.68,7.75,7.75,1023,75,3.21,2,4,0.0,Clear,clear sky,2
Bak,46.7325,16.849167,2026-03-19 02:57:28.566600,7.77,5.75,7.77,7.77,1023,75,3.13,3,3,0.0,Clear,clear sky,2
Tófej,46.670833,16.801944,2026-03-19 02:57:29.738815,7.61,5.69,7.61,7.61,1023,75,2.93,11,4,0.0,Clear,clear sky,2
Gutorfölde,46.646944,16.739722,2026-03-19 02:57:30.908986,4.53,2.02,4.53,4.53,1023,75,2.9,17,4,0.0,Clear,clear sky,2
Csömödér-Páka,46.608056,16.641111,2026-03-19 02:57:32.084243,5.74,3.34,3.34,5.74,1023,75,3.08,22,5,0.0,Clear,clear sky,2
Iklódbördőce,46.603056,16.604722,2026-03-19 02:57:33.257213,5.74,3.21,3.33,5.74,1023,75,3.27,19,2,0.0,Clear,clear sky,2
Lenti,46.621389,16.528611,2026-03-19 02:57:34.429794,5.68,2.93,3.28,5.68,1023,76,3.59,16,0,0.0,Clear,clear sky,2
Rédics,46.618056,16.471111,2026-03-19 02:57:35.613491,5.68,2.86,3.27,5.68,1023,76,3.71,16,0,0.0,Clear,clear sky,2
Zalalövő,46.845556,16.576389,2026-03-19 02:57:36.786650,4.43,1.11,4.43,4.43,1023,76,4.09,16,4,0.0,Clear,clear sky,2
Zalaegerszeg-Ola,46.849167,16.844722,2026-03-19 02:57:37.955713,4.51,1.6,4.51,4.51,1023,75,3.45,1,5,0.0,Clear,clear sky,2
Andráshida,46.863116,16.7792,2026-03-19 02:57:39.126918,4.45,1.5,4.45,4.45,1023,76,3.49,4,7,0.0,Clear,clear sky,2
Bagod,46.875,16.746111,2026-03-19 02:57:40.298920,4.56,1.61,4.56,4.56,1023,76,3.52,8,8,0.0,Clear,clear sky,2
Zalaszentgyörgy,46.872222,16.7125,2026-03-19 02:57:41.471801,4.52,1.53,4.52,4.52,1023,76,3.58,10,8,0.0,Clear,clear sky,2
Zalacséb-Salomvár,46.858056,16.662222,2026-03-19 02:57:42.647126,4.29,1.19,4.29,4.29,1023,76,3.67,12,7,0.0,Clear,clear sky,2
Kópháza,47.631389,16.6375,2026-03-19 02:57:43.819766,4.1,1.73,4.1,4.1,1024,71,2.62,335,69,0.0,Clouds,broken clouds,2
Nagycenk,47.601111,16.690278,2026-03-19 02:57:44.995013,4.26,1.8,4.26,4.26,1024,71,2.76,339,64,0.0,Clouds,broken clouds,2
Sopronkövesd,47.548333,16.748056,2026-03-19 02:57:46.166291,4.09,1.47,4.09,4.09,1024,71,2.93,344,56,0.0,Clouds,broken clouds,2
Lövő,47.509444,16.7775,2026-03-19 02:57:47.353572,4.05,1.38,4.05,4.05,1024,71,2.98,347,55,0.0,Clouds,broken clouds,2
Újkér,47.457778,16.786667,2026-03-19 02:57:48.536798,4.14,1.34,4.14,4.14,1024,71,3.18,348,50,0.0,Clouds,scattered clouds,2
Bük,47.388611,16.752222,2026-03-19 02:57:49.717780,4.23,1.15,4.23,4.23,1024,73,3.62,350,38,0.0,Clouds,scattered clouds,2
Acsád,47.308333,16.734722,2026-03-19 02:57:50.899783,3.98,0.64,3.98,3.98,1024,73,3.94,355,31,0.0,Clouds,scattered clouds,2
Salköveskút-Vassurány,47.291389,16.704167,2026-03-19 02:57:52.076835,4.04,0.66,4.04,4.04,1024,73,4.03,357,29,0.0,Clouds,scattered clouds,2
Zalaszentiván,46.8875,16.909444,2026-03-19 02:57:53.252249,7.89,5.58,7.89,7.89,1023,74,3.67,359,4,0.0,Clear,clear sky,2
Alsónemesapáti,46.854167,16.936389,2026-03-19 02:57:54.438263,7.88,5.54,7.88,7.88,1023,74,3.72,355,1,0.0,Clear,clear sky,2
Józsa,47.600833,21.584444,2026-03-19 02:57:55.611179,3.86,-0.16,3.86,3.86,1022,60,5.14,40,0,0.0,Clear,clear sky,2
Hajdúszentgyörgy,47.608056,21.578333,2026-03-19 02:57:56.786139,3.83,-0.2,3.83,3.83,1022,60,5.14,40,0,0.0,Clear,clear sky,2
Zelemér,47.627778,21.578333,2026-03-19 02:57:57.958451,3.78,-0.26,3.78,3.78,1022,60,5.14,40,0,0.0,Clear,clear sky,2
Hajdúböszörmény,47.668056,21.524167,2026-03-19 02:57:59.138506,3.81,-0.47,3.81,3.81,1023,65,5.67,35,4,0.0,Clear,clear sky,2
Hajdúvid,47.749444,21.508056,2026-03-19 02:58:00.307060,4.97,1.01,4.97,4.97,1023,67,5.64,35,4,0.0,Clear,clear sky,2
Hajdúdorog,47.805556,21.493056,2026-03-19 02:58:01.492902,4.98,1.11,4.98,4.98,1023,67,5.44,36,4,0.0,Clear,clear sky,2
Hajdúnánás,47.831944,21.426667,2026-03-19 02:58:02.668891,5.15,1.37,5.15,5.15,1023,68,5.34,37,3,0.0,Clear,clear sky,2
Hajdúnánás-Vásártér,47.843056,21.407222,2026-03-19 02:58:03.838811,5.15,1.37,5.15,5.15,1023,68,5.34,37,3,0.0,Clear,clear sky,2
Tedej,47.903611,21.404444,2026-03-19 02:58:05.015923,7.1,4.01,7.1,7.1,1023,68,4.9,38,2,0.0,Clear,clear sky,2
Tiszavasvári,47.945278,21.374722,2026-03-19 02:58:06.190091,7.1,4.06,7.1,7.1,1023,49,4.79,38,1,0.0,Clear,clear sky,2
Egyházerdő,47.9725,21.365,2026-03-19 02:58:07.369381,7.12,4.13,7.12,7.12,1023,49,4.68,38,0,0.0,Clear,clear sky,2
Tiszalök,48.013056,21.369167,2026-03-19 02:58:08.540443,7.09,4.16,7.09,7.09,1023,49,4.54,36,0,0.0,Clear,clear sky,2
Hajnalos,47.998889,21.414167,2026-03-19 02:58:09.714097,7.1,4.16,7.1,7.1,1023,49,4.57,37,0,0.0,Clear,clear sky,2
Kisfástanya,47.989167,21.47,2026-03-19 02:58:10.893359,7.07,4.13,7.07,7.07,1023,49,4.55,37,0,0.0,Clear,clear sky,2
Tiszaeszlár,48.010556,21.491944,2026-03-19 02:58:12.076617,7.08,4.16,7.08,7.08,1023,49,4.52,35,0,0.0,Clear,clear sky,2
Bashalom,48.026111,21.514722,2026-03-19 02:58:13.248617,7.05,4.12,7.05,7.05,1023,49,4.51,34,0,0.0,Clear,clear sky,2
Sáránd,47.415556,21.625,2026-03-19 02:58:14.433281,4.01,0.03,4.01,4.01,1022,60,5.14,40,0,0.0,Clear,clear sky,2
Derecske,47.365,21.584167,2026-03-19 02:58:15.605018,4.08,0.12,4.08,4.08,1022,60,5.14,40,0,0.0,Clear,clear sky,2
Derecske-Vásártér,47.352222,21.58,2026-03-19 02:58:16.776609,4.08,0.12,4.08,4.08,1022,60,5.14,40,0,0.0,Clear,clear sky,2
Konyár,47.323611,21.666111,2026-03-19 02:58:17.954945,4.05,0.08,4.05,4.05,1022,60,5.14,40,0,0.0,Clear,clear sky,2
Konyári Sóstófürdő,47.324167,21.744444,2026-03-19 02:58:19.133527,4.06,0.28,4.06,4.06,1022,62,4.77,55,7,0.0,Clear,clear sky,2
Pocsaj-Esztár,47.288333,21.793056,2026-03-19 02:58:20.307429,4.05,0.39,4.05,4.13,1022,62,4.53,56,7,0.0,Clear,clear sky,2
Kismarja,47.243889,21.813889,2026-03-19 02:58:21.478398,4.13,0.65,4.13,4.24,1022,62,4.25,56,4,0.0,Clear,clear sky,2
Nagykereki,47.191667,21.8,2026-03-19 02:58:22.654063,4.12,0.86,4.12,4.23,1022,61,3.87,55,1,0.0,Clear,clear sky,2
Debrecen-Szabadságtelep,47.527778,21.658611,2026-03-19 02:58:23.828464,3.89,-0.12,3.89,3.89,1022,60,5.14,40,0,0.0,Clear,clear sky,2
Kondoroskert,47.525556,21.713889,2026-03-19 02:58:25.002739,3.92,-0.08,3.92,3.92,1022,60,5.14,40,0,0.0,Clear,clear sky,2
Nagycsere,47.523889,21.763056,2026-03-19 02:58:26.177624,3.9,-0.11,3.9,3.9,1022,60,5.14,40,0,0.0,Clear,clear sky,2
Haláp,47.521667,21.818333,2026-03-19 02:58:27.348661,3.9,-0.11,3.9,3.9,1022,60,5.14,40,0,0.0,Clear,clear sky,2
Vámospércs,47.518056,21.893889,2026-03-19 02:58:28.529614,3.84,0.07,3.84,3.84,1022,64,4.65,45,1,0.0,Clear,clear sky,2
Szentannapuszta,47.52,21.965833,2026-03-19 02:58:29.700724,3.79,0.05,3.79,3.79,1022,65,4.56,45,2,0.0,Clear,clear sky,2
Nyírábrány,47.523889,22.016944,2026-03-19 02:58:30.873282,4.24,0.64,4.24,4.24,1022,65,4.5,45,2,0.0,Clear,clear sky,2
Dombostanya,47.602778,21.706389,2026-03-19 02:58:32.052735,3.82,-0.21,3.82,3.82,1022,60,5.14,40,0,0.0,Clear,clear sky,2
Hajdúsámson,47.608056,21.755278,2026-03-19 02:58:33.230537,3.82,-0.21,3.82,3.82,1022,60,5.14,40,0,0.0,Clear,clear sky,2
Tamásipuszta,47.632778,21.796111,2026-03-19 02:58:34.404638,3.77,-0.02,3.77,3.77,1022,65,4.64,37,3,0.0,Clear,clear sky,2
Aradványpuszta,47.662778,21.8425,2026-03-19 02:58:35.579224,3.72,-0.02,3.72,3.72,1023,65,4.54,35,4,0.0,Clear,clear sky,2
Nyíradony,47.699444,21.903333,2026-03-19 02:58:36.748228,4.24,0.81,4.24,4.24,1023,67,4.2,34,6,0.0,Clear,clear sky,2
Nyírmihálydi,47.7375,21.958889,2026-03-19 02:58:37.924643,4.19,0.82,4.19,4.19,1023,68,4.07,33,6,0.0,Clear,clear sky,2
Nyírgelse,47.750833,21.987778,2026-03-19 02:58:39.095224,4.1,0.8,4.1,4.1,1023,68,3.92,32,6,0.0,Clear,clear sky,2
Nyírbogát,47.793056,22.066389,2026-03-19 02:58:40.266978,4.08,1.0,4.08,4.08,1023,70,3.56,31,5,0.0,Clear,clear sky,2
Nagykálló,47.871111,21.825833,2026-03-19 02:58:41.439591,4.53,1.04,4.53,4.53,1023,70,4.43,27,5,0.0,Clear,clear sky,2
Kállósemjén,47.854722,21.935,2026-03-19 02:58:42.611797,4.39,1.05,4.39,4.39,1023,69,4.11,27,7,0.0,Clear,clear sky,2
Nyírbátor,47.8425,22.131111,2026-03-19 02:58:43.783676,4.0,0.99,4.0,4.0,1023,70,3.44,30,4,0.0,Clear,clear sky,2
Nyírcsászári,47.865556,22.179167,2026-03-19 02:58:44.958458,3.95,1.05,3.95,3.95,1023,71,3.27,30,4,0.0,Clear,clear sky,2
Hodász,47.896111,22.213611,2026-03-19 02:58:46.130264,3.88,1.04,3.88,3.88,1023,71,3.16,29,5,0.0,Clear,clear sky,2
Nyírmeggyes,47.9225,22.256667,2026-03-19 02:58:47.303851,3.93,1.04,3.93,3.93,1023,71,3.25,26,6,0.0,Clear,clear sky,2
Mátészalka,47.951389,22.313333,2026-03-19 02:58:48.476796,3.95,1.05,3.95,3.95,1023,71,3.26,25,6,0.0,Clear,clear sky,2
Kocsord,47.941944,22.375833,2026-03-19 02:58:49.662088,3.96,1.25,3.96,3.96,1023,71,3.01,28,10,0.0,Clear,clear sky,2
Kocsord alsó,47.946389,22.400556,2026-03-19 02:58:50.839961,3.96,1.25,3.96,3.96,1023,71,3.01,28,10,0.0,Clear,clear sky,2
Győrtelek,47.936667,22.424722,2026-03-19 02:58:52.015542,3.92,1.24,3.92,3.92,1023,71,2.96,29,12,0.0,Clouds,few clouds,2
Győrtelek alsó,47.921111,22.443333,2026-03-19 02:58:53.198476,3.85,1.25,3.85,3.85,1023,71,2.84,32,16,0.0,Clouds,few clouds,2
Ököritófülpös,47.911389,22.495,2026-03-19 02:58:54.376639,3.8,1.21,3.8,3.8,1023,71,2.82,33,17,0.0,Clouds,few clouds,2
Porcsalma-Tyukod,47.868056,22.568333,2026-03-19 02:58:55.549523,3.95,1.53,3.95,4.05,1023,71,2.64,41,26,0.0,Clouds,scattered clouds,2
Csenger,47.826111,22.666389,2026-03-19 02:58:56.722692,3.94,1.59,3.94,4.04,1023,71,2.56,48,30,0.0,Clouds,scattered clouds,2
Kisfái,46.888303,19.807366,2026-03-19 02:58:57.895005,4.02,1.26,3.81,4.02,1021,60,3.09,20,0,0.0,Clear,clear sky,2
Nyárlőrinci szőlők,46.8775,19.828333,2026-03-19 02:58:59.066448,3.96,1.19,3.81,5.4,1021,57,3.09,20,0,0.0,Clear,clear sky,2
Nyárlőrinc alsó,46.863889,19.878889,2026-03-19 02:59:00.238003,3.96,1.19,3.83,5.42,1021,56,3.09,20,0,0.0,Clear,clear sky,2
Tiszaug-Tiszahídfő,46.866106,20.052098,2026-03-19 02:59:01.411358,4.97,1.19,3.99,6.7,1021,48,5.24,33,34,0.0,Clouds,scattered clouds,2
Csongrádi úti tanyák,46.690278,19.921667,2026-03-19 02:59:02.583565,4.13,0.66,3.94,5.53,1021,52,4.23,25,74,0.0,Clouds,broken clouds,2
Kettőshalom,46.689167,20.0225,2026-03-19 02:59:03.782916,4.82,1.54,3.97,6.67,1021,51,4.18,24,77,0.0,Clouds,broken clouds,2
Csongrád alsó,46.711389,20.126389,2026-03-19 02:59:04.952060,5.71,2.6,3.97,6.67,1020,47,4.25,25,69,0.0,Clouds,broken clouds,2
Dónát,46.66988,20.368168,2026-03-19 02:59:06.136563,6.69,4.17,5.59,6.69,1021,44,3.58,18,61,0.0,Clouds,broken clouds,2
Pusztatemplom,46.676667,20.407222,2026-03-19 02:59:07.329449,6.68,4.16,5.57,6.68,1021,44,3.58,18,62,0.0,Clouds,broken clouds,2
Előhát,47.364722,20.653611,2026-03-19 02:59:08.506431,5.0,0.44,5.0,5.0,1022,60,7.2,40,3,0.0,Clear,clear sky,2
Polgárdi-Tekerespuszta,47.017778,18.297778,2026-03-19 02:59:09.679956,6.51,4.19,6.51,6.51,1023,64,3.19,24,0,0.0,Clear,clear sky,2
Szatina-Kishajmás,46.202778,18.083611,2026-03-19 02:59:10.862565,6.25,3.5,6.25,6.25,1021,64,3.81,49,78,0.0,Clouds,broken clouds,2
Márok,45.886944,18.499167,2026-03-19 02:59:12.039926,5.1,4.28,4.83,7.25,1021,63,1.34,332,100,0.0,Clouds,overcast clouds,2
Nagynyárád,45.953333,18.564722,2026-03-19 02:59:13.215010,6.16,3.09,4.9,7.32,1021,58,4.36,32,99,0.0,Clouds,overcast clouds,2
Szászvár,46.2875,18.369722222222222,2026-03-19 02:59:14.388513,6.91,4.63,6.91,6.91,1021,64,3.26,43,78,0.0,Clouds,broken clouds,2
Cikó,46.263514,18.557605,2026-03-19 02:59:15.562463,7.23,4.87,7.23,7.23,1021,64,3.51,29,86,0.0,Clouds,overcast clouds,2
Gyöngyfa-Magyarmecske,45.983889,17.958889,2026-03-19 02:59:16.741507,6.57,4.03,6.57,6.57,1021,62,3.57,53,99,0.0,Clouds,overcast clouds,2
Nagyhát,47.581389,21.445,2026-03-19 02:59:17.911803,3.92,-0.08,3.92,3.92,1022,60,5.14,40,0,0.0,Clear,clear sky,2
Balmazújváros,47.613889,21.348056,2026-03-19 02:59:19.082378,4.1,-0.25,4.1,4.1,1023,65,6.0,36,2,0.0,Clear,clear sky,2
Kónya,47.600833,21.2375,2026-03-19 02:59:20.253218,5.2,1.07,5.2,5.2,1022,64,6.19,35,1,0.0,Clear,clear sky,2
Hortobágy,47.586111,21.154722,2026-03-19 02:59:21.427661,5.26,1.08,5.26,5.26,1022,64,6.36,35,1,0.0,Clear,clear sky,2
Hortobágyi Halastó,47.604167,21.074167,2026-03-19 02:59:22.606139,5.3,1.08,5.3,5.3,1022,64,6.5,35,1,0.0,Clear,clear sky,2
Ohat-Pusztakócs,47.623333,20.951111,2026-03-19 02:59:23.779294,5.36,1.11,5.36,5.36,1023,64,6.63,35,1,0.0,Clear,clear sky,2
Egyek,47.616944,20.883611,2026-03-19 02:59:24.949355,5.4,1.08,5.4,5.4,1023,63,6.86,35,1,0.0,Clear,clear sky,2
Tiszafüred,47.627778,20.756111,2026-03-19 02:59:26.132079,5.4,0.97,5.4,5.4,1023,63,7.16,36,1,0.0,Clear,clear sky,2
Poroszló,47.657778,20.654444,2026-03-19 02:59:27.307989,5.48,0.93,5.48,5.48,1023,62,7.59,37,1,0.0,Clear,clear sky,2
Kétútköz,47.694167,20.565,2026-03-19 02:59:28.483435,5.45,0.89,5.45,5.45,1023,63,7.6,37,1,0.0,Clear,clear sky,2
Egerfarmos,47.711667,20.5225,2026-03-19 02:59:29.652962,5.44,0.84,5.44,5.44,1023,62,7.69,38,0,0.0,Clear,clear sky,2
Piliscsaba,47.638056,18.829722,2026-03-19 02:59:30.833597,6.07,4.83,5.34,6.42,1023,56,1.79,90,0,0.0,Clear,clear sky,2
Pilisjászfalu,47.656111,18.797778,2026-03-19 02:59:32.005528,6.42,3.0,5.59,6.67,1023,55,5.25,51,0,0.0,Clear,clear sky,2
Leányvár,47.687594,18.772553,2026-03-19 02:59:33.176794,6.66,3.36,4.52,6.72,1023,55,5.13,53,0,0.0,Clear,clear sky,2
Dorog,47.723333,18.732778,2026-03-19 02:59:34.345849,6.94,3.79,4.74,6.94,1023,58,4.94,60,0,0.0,Clear,clear sky,2
Esztergom-Kertváros,47.743333,18.719167,2026-03-19 02:59:35.517830,7.01,3.92,7.01,7.01,1023,58,4.84,61,0,0.0,Clear,clear sky,2
Esztergom,47.7775,18.743611,2026-03-19 02:59:36.697940,7.07,4.08,7.07,7.07,1023,59,4.66,61,0,0.0,Clear,clear sky,2
Dunaalmás,47.733056,18.326389,2026-03-19 02:59:37.879380,5.09,2.0,5.09,5.09,1023,61,3.94,71,6,0.0,Clear,clear sky,2
Neszmély,47.734444,18.345278,2026-03-19 02:59:39.060520,5.09,2.0,5.09,5.09,1023,61,3.94,71,6,0.0,Clear,clear sky,2
Süttő,47.761111,18.455,2026-03-19 02:59:40.230560,5.16,1.76,5.16,5.16,1023,59,4.54,68,3,0.0,Clear,clear sky,2
Piszke,47.75307,18.478017,2026-03-19 02:59:41.405164,5.24,1.8,5.24,5.24,1023,59,4.67,67,2,0.0,Clear,clear sky,2
Lábatlan,47.751944,18.513333,2026-03-19 02:59:42.581660,5.26,1.78,5.26,5.26,1023,59,4.76,66,2,0.0,Clear,clear sky,2
Eternitgyár,47.755544,18.530014,2026-03-19 02:59:43.753500,5.26,1.78,5.26,5.26,1023,59,4.76,66,2,0.0,Clear,clear sky,2
Nyergesújfalu felső,47.762222,18.540556,2026-03-19 02:59:44.927280,5.26,1.78,5.26,5.26,1023,59,4.76,66,2,0.0,Clear,clear sky,2
Nyergesújfalu,47.761111,18.561667,2026-03-19 02:59:46.094492,5.24,1.72,5.24,5.24,1023,59,4.83,66,1,0.0,Clear,clear sky,2
Tokod,47.735,18.675,2026-03-19 02:59:47.272199,7.03,3.89,7.03,7.03,1023,58,4.97,61,0,0.0,Clear,clear sky,2
Környe,47.541667,18.330278,2026-03-19 02:59:48.450977,4.87,1.55,4.87,4.87,1023,61,4.26,54,4,0.0,Clear,clear sky,2
Kecskéd alsó,47.519722,18.316667,2026-03-19 02:59:49.625838,4.85,1.56,4.85,4.85,1023,62,4.2,51,4,0.0,Clear,clear sky,2
Oroszlány,47.486944,18.308611,2026-03-19 02:59:50.802146,4.77,1.46,4.77,4.77,1023,62,4.2,49,3,0.0,Clear,clear sky,2
Győrszabadhegy,47.663056,17.648056,2026-03-19 02:59:51.970470,3.08,-0.57,3.08,3.08,1024,70,4.12,30,0,0.0,Clear,clear sky,2
Ménfőcsanak felső,47.638333,17.615,2026-03-19 02:59:53.146488,3.08,-0.57,3.08,3.08,1024,70,4.12,30,0,0.0,Clear,clear sky,2
Gyömöre-Tét,47.501672,17.559596,2026-03-19 02:59:54.333690,5.03,2.48,2.91,5.03,1023,60,3.09,70,0,0.0,Clear,clear sky,2
Szerecseny,47.469167,17.5475,2026-03-19 02:59:55.504503,5.02,2.46,2.9,5.02,1023,60,3.09,70,0,0.0,Clear,clear sky,2
Gecse-Gyarmat,47.456111,17.515,2026-03-19 02:59:56.677351,5.05,2.5,2.94,5.05,1023,60,3.09,70,0,0.0,Clear,clear sky,2
Vaszar,47.4025,17.496389,2026-03-19 02:59:57.848427,5.08,2.54,5.08,5.08,1023,60,3.09,70,0,0.0,Clear,clear sky,2
Pápa,47.340556,17.458889,2026-03-19 02:59:59.022519,5.03,2.48,5.03,5.03,1023,60,3.09,70,0,0.0,Clear,clear sky,2
Mezőlak,47.324722,17.371389,2026-03-19 03:00:00.198010,5.11,2.57,5.11,5.11,1023,60,3.09,70,0,0.0,Clear,clear sky,2
Mihályháza,47.318889,17.331667,2026-03-19 03:00:01.429943,5.14,2.61,5.14,5.14,1023,60,3.09,70,0,0.0,Clear,clear sky,2
Vinár,47.306667,17.284722,2026-03-19 03:00:02.630790,5.1,2.56,5.1,5.1,1023,60,3.09,70,0,0.0,Clear,clear sky,2
Külsővat,47.279167,17.219722,2026-03-19 03:00:03.847542,5.12,2.6,5.12,5.12,1023,67,3.07,3,36,0.0,Clouds,scattered clouds,2
Celldömölk,47.261389,17.151944,2026-03-19 03:00:05.075000,5.07,2.42,5.07,5.07,1023,68,3.24,359,36,0.0,Clouds,scattered clouds,2
Kemenesmihályfa,47.278056,17.111111,2026-03-19 03:00:06.246544,4.19,1.36,4.19,4.19,1024,68,3.24,359,40,0.0,Clouds,scattered clouds,2
Nagysimonyi,47.265556,17.058889,2026-03-19 03:00:07.425763,4.28,1.33,4.28,4.28,1024,68,3.44,360,37,0.0,Clouds,scattered clouds,2
Ostffyasszonyfa,47.283889,17.023889,2026-03-19 03:00:08.594581,4.34,1.39,4.34,4.34,1024,69,3.46,360,41,0.0,Clouds,scattered clouds,2
Sárvár,47.259167,16.928889,2026-03-19 03:00:09.788835,4.41,1.13,4.41,4.41,1024,70,4.0,360,34,0.0,Clouds,scattered clouds,2
Porpác,47.238611,16.8325,2026-03-19 03:00:10.957336,4.34,0.9,4.34,4.34,1024,71,4.25,0,30,0.0,Clouds,scattered clouds,2
Balatonföldvár,46.853889,17.881389,2026-03-19 03:00:12.125819,7.19,4.32,6.64,7.19,1023,47,4.47,45,4,0.0,Clear,clear sky,2
Balatonszárszó,46.832222,17.830278,2026-03-19 03:00:13.296681,7.21,4.19,6.66,7.21,1022,47,4.79,53,5,0.0,Clear,clear sky,2
Balatonszemes,46.811944,17.776389,2026-03-19 03:00:14.464459,7.19,4.0,6.64,7.19,1022,47,5.17,57,6,0.0,Clear,clear sky,2
Balatonlelle felső,46.793889,17.7175,2026-03-19 03:00:15.632739,7.21,3.92,7.21,7.21,1022,47,5.43,60,6,0.0,Clear,clear sky,2
Balatonlelle,46.7875,17.694167,2026-03-19 03:00:16.811853,7.17,3.89,7.17,7.17,1022,65,5.37,59,7,0.0,Clear,clear sky,2
Fonyódliget,46.759167,17.592222,2026-03-19 03:00:17.980765,7.19,3.98,7.19,7.19,1022,65,5.23,59,6,0.0,Clear,clear sky,2
Balatonboglár,46.776111,17.647222,2026-03-19 03:00:19.157753,7.19,3.97,7.19,7.19,1022,65,5.24,58,7,0.0,Clear,clear sky,2
Balatonfenyves alsó,46.708611,17.455278,2026-03-19 03:00:20.325441,8.09,5.66,8.09,8.09,1022,66,3.99,53,6,0.0,Clear,clear sky,2
Fonyód,46.750278,17.558889,2026-03-19 03:00:21.500241,5.28,1.81,5.28,5.28,1022,65,4.75,56,6,0.0,Clear,clear sky,2
Bélatelep,46.737778,17.535,2026-03-19 03:00:22.669925,8.11,5.42,8.11,8.11,1022,65,4.56,56,5,0.0,Clear,clear sky,2
Alsóbélatelep,46.724167,17.516389,2026-03-19 03:00:23.839944,8.08,5.38,8.08,8.08,1022,65,4.56,56,5,0.0,Clear,clear sky,2
Balatonfenyves,46.713611,17.482778,2026-03-19 03:00:25.002956,8.08,5.5,8.08,8.08,1022,65,4.3,56,5,0.0,Clear,clear sky,2
Máriahullámtelep,46.704722,17.435,2026-03-19 03:00:26.173986,8.09,5.66,8.09,8.09,1022,66,3.99,53,6,0.0,Clear,clear sky,2
Balatonmáriafürdő,46.704167,17.374722,2026-03-19 03:00:27.358373,8.08,5.85,8.08,8.08,1022,57,3.6,50,0,0.0,Clear,clear sky,2
Balatonberény,46.713889,17.316944,2026-03-19 03:00:28.534720,8.05,5.82,8.05,8.05,1023,57,3.6,50,0,0.0,Clear,clear sky,2
Balatonszentgyörgy,46.692778,17.288889,2026-03-19 03:00:29.739502,8.08,5.85,8.08,8.08,1023,57,3.6,50,0,0.0,Clear,clear sky,2
Vörs,46.663611,17.260278,2026-03-19 03:00:30.931168,8.07,5.84,8.07,8.07,1023,57,3.6,50,0,0.0,Clear,clear sky,2
Zalaszentjakab,46.491667,17.135278,2026-03-19 03:00:32.118898,7.93,5.62,7.93,7.93,1022,69,3.69,41,39,0.0,Clouds,scattered clouds,2
Nagykanizsa,46.440833,16.986667,2026-03-19 03:00:33.288251,5.06,2.1,5.06,5.06,1022,71,3.71,37,41,0.0,Clouds,scattered clouds,2
Murakeresztúr,46.363889,16.876944,2026-03-19 03:00:34.460027,5.16,2.31,5.16,5.16,1022,72,3.57,34,72,0.0,Clouds,broken clouds,2
